[
  {
    "name": "چوران",
    "category": "place",
    "subcategory": "village",
    "latitude": 32.5974749,
    "longitude": 72.9529564,
    "id": 4405125556
  },
  {
    "name": "Choran Mosque",
    "category": "amenity",
    "subcategory": "place_of_worship",
    "latitude": 32.5985465,
    "longitude": 72.9530586,
    "id": 4405752377
  },
  {
    "name": "Government Primary School Choran",
    "category": "amenity",
    "subcategory": "school",
    "latitude": 32.5974291,
    "longitude": 72.9513563,
    "id": 4483809789
  },
  {
    "name": "Choran Motorway Man Rd",
    "category": "highway",
    "subcategory": "residential",
    "latitude": 32.59586794130435,
    "longitude": 72.95023848043478,
    "id": 442925382
  },
  {
    "name": "Choran Man Rd",
    "category": "highway",
    "subcategory": "residential",
    "latitude": 32.59474271724138,
    "longitude": 72.95356269310345,
    "id": 442925383
  },
  {
    "name": "Kora کوڑہ",
    "category": "landuse",
    "subcategory": "residential",
    "latitude": 32.594377135,
    "longitude": 72.94285852,
    "id": 516908210
  },
  {
    "name": "residential",
    "category": "landuse",
    "subcategory": "residential",
    "latitude": 32.5977925,
    "longitude": 72.95169838461538,
    "id": 516909147
  },
  {
    "name": "لِلہ جہلم روڈ",
    "category": "highway",
    "subcategory": "trunk",
    "latitude": 32.58871782,
    "longitude": 72.92559094666667,
    "id": 1459133475
  },
  {
    "name": "لِلہ جہلم روڈ",
    "category": "highway",
    "subcategory": "trunk",
    "latitude": 32.58839148125,
    "longitude": 72.92550605,
    "id": 1459133477
  },
  {
    "name": "Kora کوڑہ",
    "category": "landuse",
    "subcategory": "residential",
    "latitude": 32.594683045,
    "longitude": 72.94254726,
    "id": 516908210
  },
  {
    "name": "residential",
    "category": "landuse",
    "subcategory": "residential",
    "latitude": 32.59785786153846,
    "longitude": 72.9510629076923,
    "id": 516909147
  }
]