[
  {
    "name": "turning_circle",
    "category": "highway",
    "subcategory": "turning_circle",
    "latitude": 33.3410498,
    "longitude": 73.4957407,
    "id": 2451263144
  },
  {
    "name": "JANDI NA MOHRA",
    "category": "place",
    "subcategory": "village",
    "latitude": 33.3227856,
    "longitude": 73.4612264,
    "id": 2942964596
  },
  {
    "name": "PAARI DHOKE",
    "category": "place",
    "subcategory": "village",
    "latitude": 33.3282366,
    "longitude": 73.4602025,
    "id": 2942964597
  },
  {
    "name": "SAYADA NI DHOKE",
    "category": "place",
    "subcategory": "village",
    "latitude": 33.3307593,
    "longitude": 73.4558049,
    "id": 2942964598
  },
  {
    "name": "Khoyi Lass",
    "category": "place",
    "subcategory": "village",
    "latitude": 33.337689,
    "longitude": 73.5105645,
    "id": 5390252789
  },
  {
    "name": "Sambel",
    "category": "place",
    "subcategory": "village",
    "latitude": 33.3508327,
    "longitude": 73.4954473,
    "id": 5390263172
  },
  {
    "name": "Her Dho Chakyal",
    "category": "place",
    "subcategory": "village",
    "latitude": 33.3476494,
    "longitude": 73.5102419,
    "id": 5390269543
  },
  {
    "name": "Kalwat",
    "category": "place",
    "subcategory": "village",
    "latitude": 33.3413922,
    "longitude": 73.4729756,
    "id": 5400243790
  },
  {
    "name": "Dhoke Leiutenant Meran Baksh",
    "category": "place",
    "subcategory": "village",
    "latitude": 33.3452239,
    "longitude": 73.4666758,
    "id": 5400251717
  },
  {
    "name": "Dhook Bhatiyan",
    "category": "place",
    "subcategory": "village",
    "latitude": 33.3450347,
    "longitude": 73.4740232,
    "id": 5400253598
  },
  {
    "name": "Dhok Baba Roshan",
    "category": "place",
    "subcategory": "village",
    "latitude": 33.3407299,
    "longitude": 73.4820501,
    "id": 5400254595
  },
  {
    "name": "Dhoke Sufi Ghulam Fareed",
    "category": "place",
    "subcategory": "village",
    "latitude": 33.3410137,
    "longitude": 73.4796435,
    "id": 5400254797
  },
  {
    "name": "Dhok Choudary Meeran Dadh",
    "category": "place",
    "subcategory": "village",
    "latitude": 33.3410374,
    "longitude": 73.4913511,
    "id": 5400255562
  },
  {
    "name": "Dhok Captain Khaliq Awan",
    "category": "place",
    "subcategory": "village",
    "latitude": 33.3423974,
    "longitude": 73.4929367,
    "id": 5400257456
  },
  {
    "name": "Dhari Syedan",
    "category": "place",
    "subcategory": "village",
    "latitude": 33.3469151,
    "longitude": 73.4838197,
    "id": 5400260085
  },
  {
    "name": "Kund",
    "category": "place",
    "subcategory": "village",
    "latitude": 33.3520001,
    "longitude": 73.4837206,
    "id": 5400260915
  },
  {
    "name": "Pakka Khoo",
    "category": "place",
    "subcategory": "village",
    "latitude": 33.3558657,
    "longitude": 73.4674826,
    "id": 5400261089
  },
  {
    "name": "Dhok Faiz Bukhsh",
    "category": "place",
    "subcategory": "village",
    "latitude": 33.3555789,
    "longitude": 73.4769025,
    "id": 5400261512
  },
  {
    "name": "Aam Wali Dhok",
    "category": "place",
    "subcategory": "village",
    "latitude": 33.359952,
    "longitude": 73.4783616,
    "id": 5400261823
  },
  {
    "name": "Mohra Adrian",
    "category": "place",
    "subcategory": "village",
    "latitude": 33.3326053,
    "longitude": 73.4860752,
    "id": 5400267698
  },
  {
    "name": "Dhok Ghoryan Wali",
    "category": "place",
    "subcategory": "village",
    "latitude": 33.3374815,
    "longitude": 73.4864185,
    "id": 5400267951
  },
  {
    "name": "Dhoke Chapper",
    "category": "place",
    "subcategory": "village",
    "latitude": 33.3317345,
    "longitude": 73.4822282,
    "id": 5400269630
  },
  {
    "name": "Takal",
    "category": "place",
    "subcategory": "village",
    "latitude": 33.3735161,
    "longitude": 73.4681001,
    "id": 5400270121
  },
  {
    "name": "Phata",
    "category": "place",
    "subcategory": "village",
    "latitude": 33.3308868,
    "longitude": 73.5271486,
    "id": 5400279869
  },
  {
    "name": "دھمنوہ",
    "category": "place",
    "subcategory": "village",
    "latitude": 33.3196213,
    "longitude": 73.5259682,
    "id": 5400280864
  },
  {
    "name": "Kothi Seydan",
    "category": "place",
    "subcategory": "village",
    "latitude": 33.313991,
    "longitude": 73.5250026,
    "id": 5400281089
  },
  {
    "name": "KHAJOORI",
    "category": "place",
    "subcategory": "hamlet",
    "latitude": 33.3128105,
    "longitude": 73.5071182,
    "id": 5400281423
  },
  {
    "name": "Dhari",
    "category": "place",
    "subcategory": "village",
    "latitude": 33.3340177,
    "longitude": 73.4981227,
    "id": 5400282392
  },
  {
    "name": "Thalla",
    "category": "place",
    "subcategory": "village",
    "latitude": 33.331204,
    "longitude": 73.5033452,
    "id": 5400282494
  },
  {
    "name": "Dhoke Basla",
    "category": "place",
    "subcategory": "village",
    "latitude": 33.3237979,
    "longitude": 73.4875334,
    "id": 5400284063
  },
  {
    "name": "Dhok Mughlan",
    "category": "place",
    "subcategory": "village",
    "latitude": 33.3270982,
    "longitude": 73.4888925,
    "id": 5400284068
  },
  {
    "name": "Dhok Subdaran",
    "category": "place",
    "subcategory": "village",
    "latitude": 33.3283104,
    "longitude": 73.4859971,
    "id": 5400285126
  },
  {
    "name": "Dhok Raja Tikka Khan",
    "category": "place",
    "subcategory": "village",
    "latitude": 33.3303862,
    "longitude": 73.4899983,
    "id": 5400287055
  },
  {
    "name": "Dhok Baba Zabardast",
    "category": "place",
    "subcategory": "village",
    "latitude": 33.3368873,
    "longitude": 73.4925921,
    "id": 5400288082
  },
  {
    "name": "Galeeni",
    "category": "place",
    "subcategory": "village",
    "latitude": 33.3165064,
    "longitude": 73.4805934,
    "id": 5403982616
  },
  {
    "name": "Mohra Bhuttian",
    "category": "place",
    "subcategory": "village",
    "latitude": 33.307566,
    "longitude": 73.4808167,
    "id": 5403998846
  },
  {
    "name": "Nazir Town",
    "category": "place",
    "subcategory": "village",
    "latitude": 33.3061526,
    "longitude": 73.4825242,
    "id": 5403999437
  },
  {
    "name": "Jabbah",
    "category": "place",
    "subcategory": "village",
    "latitude": 33.3131658,
    "longitude": 73.48984,
    "id": 5404002678
  },
  {
    "name": "Chamak",
    "category": "place",
    "subcategory": "village",
    "latitude": 33.3354548,
    "longitude": 73.5220256,
    "id": 5404004368
  },
  {
    "name": "Malik Pur",
    "category": "place",
    "subcategory": "village",
    "latitude": 33.3247637,
    "longitude": 73.4979284,
    "id": 5404004939
  },
  {
    "name": "Chulo Mir Gala",
    "category": "place",
    "subcategory": "village",
    "latitude": 33.3622644,
    "longitude": 73.4951401,
    "id": 5404017861
  },
  {
    "name": "Hayal Pindora",
    "category": "place",
    "subcategory": "village",
    "latitude": 33.3735232,
    "longitude": 73.5019863,
    "id": 5404018196
  },
  {
    "name": "Maluke",
    "category": "place",
    "subcategory": "village",
    "latitude": 33.3493196,
    "longitude": 73.5222735,
    "id": 5404019194
  },
  {
    "name": "Jari",
    "category": "place",
    "subcategory": "village",
    "latitude": 33.3541099,
    "longitude": 73.5180705,
    "id": 5404019802
  },
  {
    "name": "Majhar",
    "category": "place",
    "subcategory": "village",
    "latitude": 33.3491636,
    "longitude": 73.5316695,
    "id": 5404019898
  },
  {
    "name": "Baroota Rajian",
    "category": "place",
    "subcategory": "village",
    "latitude": 33.3626829,
    "longitude": 73.5239822,
    "id": 5404022713
  },
  {
    "name": "grave_yard",
    "category": "amenity",
    "subcategory": "grave_yard",
    "latitude": 33.3411063,
    "longitude": 73.4964411,
    "id": 5423724406
  },
  {
    "name": "grave_yard",
    "category": "amenity",
    "subcategory": "grave_yard",
    "latitude": 33.3417301,
    "longitude": 73.4982921,
    "id": 5423725536
  },
  {
    "name": "پنڈوڑہ ہردو",
    "category": "place",
    "subcategory": "village",
    "latitude": 33.3805641,
    "longitude": 73.5319724,
    "id": 5523685526
  },
  {
    "name": "Samote",
    "category": "place",
    "subcategory": "town",
    "latitude": 33.3410096,
    "longitude": 73.4957686,
    "id": 5523718289
  },
  {
    "name": "MNHC (Maryam Nawaz Health Clinic",
    "category": "amenity",
    "subcategory": "hospital",
    "latitude": 33.3414226,
    "longitude": 73.4999855,
    "id": 13625871628
  },
  {
    "name": "Akhari Aram Sir Khizer Hussain",
    "category": "landuse",
    "subcategory": "cemetery",
    "latitude": 33.3398151,
    "longitude": 73.4958831,
    "id": 13724452462
  },
  {
    "name": "Muhammad Zaman Dustributor Unilcver Pakistan Limited",
    "category": "shop",
    "subcategory": "supermarket",
    "latitude": 33.3399978,
    "longitude": 73.503968,
    "id": 13861053116
  },
  {
    "name": "place_of_worship",
    "category": "amenity",
    "subcategory": "place_of_worship",
    "latitude": 33.3415289,
    "longitude": 73.4792809,
    "id": 13889989343
  },
  {
    "name": "secondary",
    "category": "highway",
    "subcategory": "secondary",
    "latitude": 33.32237472977099,
    "longitude": 73.4630506832061,
    "id": 237184050
  },
  {
    "name": "tertiary",
    "category": "highway",
    "subcategory": "tertiary",
    "latitude": 33.353670868817204,
    "longitude": 73.45784332150538,
    "id": 237191172
  },
  {
    "name": "Balyam Road",
    "category": "highway",
    "subcategory": "secondary",
    "latitude": 33.29747473116883,
    "longitude": 73.4987192012987,
    "id": 290800056
  },
  {
    "name": "Kallar Syedan Road",
    "category": "highway",
    "subcategory": "trunk",
    "latitude": 33.38375304861111,
    "longitude": 73.51966058125,
    "id": 333369483
  },
  {
    "name": "Sambel Road",
    "category": "highway",
    "subcategory": "secondary",
    "latitude": 33.37575902761905,
    "longitude": 73.50191896285713,
    "id": 333520996
  },
  {
    "name": "Samote Road",
    "category": "highway",
    "subcategory": "secondary",
    "latitude": 33.31527057933884,
    "longitude": 73.48482527438016,
    "id": 333520997
  },
  {
    "name": "Dhok Faiz Bukhsh Road",
    "category": "highway",
    "subcategory": "tertiary",
    "latitude": 33.380213127380955,
    "longitude": 73.48727693571429,
    "id": 536965267
  },
  {
    "name": "unclassified",
    "category": "highway",
    "subcategory": "unclassified",
    "latitude": 33.37447901441441,
    "longitude": 73.49324048738738,
    "id": 536965271
  },
  {
    "name": "Dhok Faiz Bukhsh Road",
    "category": "highway",
    "subcategory": "tertiary",
    "latitude": 33.367294658064516,
    "longitude": 73.4823155516129,
    "id": 536965275
  },
  {
    "name": "Dhok Faiz Bukhsh Road",
    "category": "highway",
    "subcategory": "tertiary",
    "latitude": 33.36192267962963,
    "longitude": 73.48046604444444,
    "id": 536965276
  },
  {
    "name": "Sir Khizer Hussain Road",
    "category": "highway",
    "subcategory": "secondary",
    "latitude": 33.340539954347825,
    "longitude": 73.49949817608696,
    "id": 558824575
  },
  {
    "name": "Bewal Road",
    "category": "highway",
    "subcategory": "secondary",
    "latitude": 33.341177605263155,
    "longitude": 73.47817272763159,
    "id": 558824576
  },
  {
    "name": "Samote Road",
    "category": "highway",
    "subcategory": "secondary",
    "latitude": 33.342309185,
    "longitude": 73.45389602,
    "id": 558839534
  },
  {
    "name": "Sir Khizer Hussain Road",
    "category": "highway",
    "subcategory": "secondary",
    "latitude": 33.32973989836066,
    "longitude": 73.51906789426229,
    "id": 558839986
  },
  {
    "name": "Sambel Road",
    "category": "highway",
    "subcategory": "secondary",
    "latitude": 33.342434153846156,
    "longitude": 73.4960136076923,
    "id": 558848759
  },
  {
    "name": "tertiary",
    "category": "highway",
    "subcategory": "tertiary",
    "latitude": 33.38140525448718,
    "longitude": 73.47061916089743,
    "id": 558908215
  },
  {
    "name": "tertiary",
    "category": "highway",
    "subcategory": "tertiary",
    "latitude": 33.34064028780488,
    "longitude": 73.51189456585367,
    "id": 559141579
  },
  {
    "name": "Dhok Faiz Bukhsh Road",
    "category": "highway",
    "subcategory": "tertiary",
    "latitude": 33.35206118333333,
    "longitude": 73.47186752777777,
    "id": 559957981
  },
  {
    "name": "Dhok Faiz Bukhsh Road",
    "category": "highway",
    "subcategory": "tertiary",
    "latitude": 33.369656299999995,
    "longitude": 73.48282156,
    "id": 559958190
  },
  {
    "name": "Dhok Faiz Bukhsh Road",
    "category": "highway",
    "subcategory": "tertiary",
    "latitude": 33.371270308,
    "longitude": 73.48350842400001,
    "id": 559958248
  },
  {
    "name": "Malook Road",
    "category": "highway",
    "subcategory": "tertiary",
    "latitude": 33.36469331089744,
    "longitude": 73.51339583397436,
    "id": 563089850
  },
  {
    "name": "Jari-Malook Rd",
    "category": "highway",
    "subcategory": "tertiary",
    "latitude": 33.350465235294116,
    "longitude": 73.51933884705882,
    "id": 563090234
  },
  {
    "name": "Chamak Road",
    "category": "highway",
    "subcategory": "tertiary",
    "latitude": 33.349486694594596,
    "longitude": 73.53223904054053,
    "id": 563091061
  },
  {
    "name": "Kaaliyah Road",
    "category": "highway",
    "subcategory": "tertiary",
    "latitude": 33.343940653535356,
    "longitude": 73.53564748787879,
    "id": 563092161
  },
  {
    "name": "tertiary",
    "category": "highway",
    "subcategory": "tertiary",
    "latitude": 33.342229777419355,
    "longitude": 73.53640988709678,
    "id": 563092736
  },
  {
    "name": "CH Khalid Road",
    "category": "highway",
    "subcategory": "tertiary",
    "latitude": 33.33017009333334,
    "longitude": 73.52792297666666,
    "id": 563093105
  },
  {
    "name": "Dhamnoha-Saaliyah Rd",
    "category": "highway",
    "subcategory": "tertiary",
    "latitude": 33.33769059869565,
    "longitude": 73.55181781869565,
    "id": 563093189
  },
  {
    "name": "Dhamnoha Road",
    "category": "highway",
    "subcategory": "secondary",
    "latitude": 33.314855898611114,
    "longitude": 73.52188225833333,
    "id": 563093786
  },
  {
    "name": "grave_yard",
    "category": "amenity",
    "subcategory": "grave_yard",
    "latitude": 33.34188916875,
    "longitude": 73.498304275,
    "id": 563096941
  },
  {
    "name": "Samote KaberStan",
    "category": "amenity",
    "subcategory": "grave_yard",
    "latitude": 33.34108691428572,
    "longitude": 73.49650267142859,
    "id": 563097114
  },
  {
    "name": "Jamia Masjid Anwar e Madina",
    "category": "amenity",
    "subcategory": "place_of_worship",
    "latitude": 33.34052787142857,
    "longitude": 73.49565124285714,
    "id": 563097588
  },
  {
    "name": "Samote Post Office",
    "category": "amenity",
    "subcategory": "post_office",
    "latitude": 33.34129351428572,
    "longitude": 73.49446822857144,
    "id": 563098258
  },
  {
    "name": "Samote Union Council",
    "category": "office",
    "subcategory": "government",
    "latitude": 33.341449325,
    "longitude": 73.4943547375,
    "id": 563098682
  },
  {
    "name": "Police Chowki Samote",
    "category": "amenity",
    "subcategory": "police",
    "latitude": 33.34128882857143,
    "longitude": 73.49437522857144,
    "id": 563122082
  },
  {
    "name": "water",
    "category": "natural",
    "subcategory": "water",
    "latitude": 33.347599714285714,
    "longitude": 73.49933441904761,
    "id": 563123057
  },
  {
    "name": "water",
    "category": "natural",
    "subcategory": "water",
    "latitude": 33.347053525,
    "longitude": 73.50392988333333,
    "id": 563123162
  },
  {
    "name": "water",
    "category": "natural",
    "subcategory": "water",
    "latitude": 33.35432839846939,
    "longitude": 73.53183844064625,
    "id": 563125618
  },
  {
    "name": "water",
    "category": "natural",
    "subcategory": "water",
    "latitude": 33.338711849999996,
    "longitude": 73.49488452,
    "id": 563128982
  },
  {
    "name": "Hospital Road",
    "category": "highway",
    "subcategory": "tertiary",
    "latitude": 33.341322677777775,
    "longitude": 73.49775647777778,
    "id": 563130049
  },
  {
    "name": "Hospital Road",
    "category": "highway",
    "subcategory": "tertiary",
    "latitude": 33.341282171428574,
    "longitude": 73.49999818571429,
    "id": 563130050
  },
  {
    "name": "Master Khizer Road",
    "category": "highway",
    "subcategory": "tertiary",
    "latitude": 33.34601535,
    "longitude": 73.5044315,
    "id": 563130052
  },
  {
    "name": "Chakyal Street",
    "category": "highway",
    "subcategory": "residential",
    "latitude": 33.34852033333333,
    "longitude": 73.50951925,
    "id": 563130053
  },
  {
    "name": "Master Khizer Road",
    "category": "highway",
    "subcategory": "living_street",
    "latitude": 33.35073061111111,
    "longitude": 73.51086373888889,
    "id": 563130385
  },
  {
    "name": "water",
    "category": "natural",
    "subcategory": "water",
    "latitude": 33.339590429078015,
    "longitude": 73.54248792695036,
    "id": 563131406
  },
  {
    "name": "Junaid Saghir Road",
    "category": "highway",
    "subcategory": "residential",
    "latitude": 33.34225035,
    "longitude": 73.49162490416667,
    "id": 563132127
  },
  {
    "name": "Master Khizer Street",
    "category": "highway",
    "subcategory": "living_street",
    "latitude": 33.34064805,
    "longitude": 73.4965653,
    "id": 563132578
  },
  {
    "name": "School Street",
    "category": "highway",
    "subcategory": "living_street",
    "latitude": 33.34045798,
    "longitude": 73.49595934,
    "id": 563132579
  },
  {
    "name": "Jamia Masjid Street",
    "category": "highway",
    "subcategory": "living_street",
    "latitude": 33.34060734,
    "longitude": 73.4957632,
    "id": 563132581
  },
  {
    "name": "Haji Saber Street",
    "category": "highway",
    "subcategory": "living_street",
    "latitude": 33.340812025,
    "longitude": 73.49584905,
    "id": 563132582
  },
  {
    "name": "living_street",
    "category": "highway",
    "subcategory": "living_street",
    "latitude": 33.34069155,
    "longitude": 73.49640815000001,
    "id": 563132584
  },
  {
    "name": "Amanat Street",
    "category": "highway",
    "subcategory": "residential",
    "latitude": 33.34005644545454,
    "longitude": 73.49753973636365,
    "id": 563132787
  },
  {
    "name": "water",
    "category": "natural",
    "subcategory": "water",
    "latitude": 33.31136917777778,
    "longitude": 73.48630785,
    "id": 563421678
  },
  {
    "name": "residential",
    "category": "highway",
    "subcategory": "residential",
    "latitude": 33.31318381,
    "longitude": 73.48948679499999,
    "id": 563421764
  },
  {
    "name": "place_of_worship",
    "category": "amenity",
    "subcategory": "place_of_worship",
    "latitude": 33.312973,
    "longitude": 73.48815537,
    "id": 563421930
  },
  {
    "name": "water",
    "category": "natural",
    "subcategory": "water",
    "latitude": 33.349562999999996,
    "longitude": 73.50315912159091,
    "id": 563662051
  },
  {
    "name": "water",
    "category": "natural",
    "subcategory": "water",
    "latitude": 33.35596997284768,
    "longitude": 73.51231125033112,
    "id": 563663701
  },
  {
    "name": "wood",
    "category": "natural",
    "subcategory": "wood",
    "latitude": 33.373654878983054,
    "longitude": 73.51158169864408,
    "id": 563664612
  },
  {
    "name": "residential",
    "category": "highway",
    "subcategory": "residential",
    "latitude": 33.34710348518519,
    "longitude": 73.51114859259259,
    "id": 563665062
  },
  {
    "name": "residential",
    "category": "highway",
    "subcategory": "residential",
    "latitude": 33.33929808333333,
    "longitude": 73.51052545,
    "id": 563665085
  },
  {
    "name": "wood",
    "category": "natural",
    "subcategory": "wood",
    "latitude": 33.353219412735854,
    "longitude": 73.5141385490566,
    "id": 563709913
  },
  {
    "name": "grassland",
    "category": "natural",
    "subcategory": "grassland",
    "latitude": 33.340543333333336,
    "longitude": 73.49832241666667,
    "id": 563711004
  },
  {
    "name": "grassland",
    "category": "natural",
    "subcategory": "grassland",
    "latitude": 33.34058764,
    "longitude": 73.49851186,
    "id": 563711005
  },
  {
    "name": "grassland",
    "category": "natural",
    "subcategory": "grassland",
    "latitude": 33.34050014,
    "longitude": 73.49907536,
    "id": 563711006
  },
  {
    "name": "grassland",
    "category": "natural",
    "subcategory": "grassland",
    "latitude": 33.3404307,
    "longitude": 73.49957724,
    "id": 563711007
  },
  {
    "name": "grassland",
    "category": "natural",
    "subcategory": "grassland",
    "latitude": 33.34079876,
    "longitude": 73.49907415999999,
    "id": 563711009
  },
  {
    "name": "grassland",
    "category": "natural",
    "subcategory": "grassland",
    "latitude": 33.34084004,
    "longitude": 73.49886414,
    "id": 563711010
  },
  {
    "name": "grassland",
    "category": "natural",
    "subcategory": "grassland",
    "latitude": 33.3408673,
    "longitude": 73.49864907999999,
    "id": 563711011
  },
  {
    "name": "grassland",
    "category": "natural",
    "subcategory": "grassland",
    "latitude": 33.3409314,
    "longitude": 73.49841156,
    "id": 563711012
  },
  {
    "name": "water",
    "category": "natural",
    "subcategory": "water",
    "latitude": 33.347632246835445,
    "longitude": 73.51361068227848,
    "id": 563712367
  },
  {
    "name": "Mohra Malkan Road",
    "category": "highway",
    "subcategory": "residential",
    "latitude": 33.3562254827957,
    "longitude": 73.44538611666667,
    "id": 578202252
  },
  {
    "name": "unclassified",
    "category": "highway",
    "subcategory": "unclassified",
    "latitude": 33.34106113265306,
    "longitude": 73.4543930489796,
    "id": 579390908
  },
  {
    "name": "Ch Manga Khan Road",
    "category": "highway",
    "subcategory": "residential",
    "latitude": 33.33529617,
    "longitude": 73.505743215,
    "id": 583514959
  },
  {
    "name": "residential",
    "category": "highway",
    "subcategory": "residential",
    "latitude": 33.331086462500004,
    "longitude": 73.50311705,
    "id": 583515057
  },
  {
    "name": "unclassified",
    "category": "highway",
    "subcategory": "unclassified",
    "latitude": 33.33600688780488,
    "longitude": 73.46943709268294,
    "id": 614934635
  },
  {
    "name": "residential",
    "category": "highway",
    "subcategory": "residential",
    "latitude": 33.33014485263158,
    "longitude": 73.46108688684211,
    "id": 614934639
  },
  {
    "name": "residential",
    "category": "highway",
    "subcategory": "residential",
    "latitude": 33.32692273666667,
    "longitude": 73.46120838,
    "id": 614934640
  },
  {
    "name": "residential",
    "category": "highway",
    "subcategory": "residential",
    "latitude": 33.328143675,
    "longitude": 73.4596751,
    "id": 614934641
  },
  {
    "name": "residential",
    "category": "highway",
    "subcategory": "residential",
    "latitude": 33.3272329125,
    "longitude": 73.4707768375,
    "id": 614934643
  },
  {
    "name": "Dhamial Bewal Road",
    "category": "highway",
    "subcategory": "residential",
    "latitude": 33.329603021875,
    "longitude": 73.46500245874999,
    "id": 614934644
  },
  {
    "name": "unclassified",
    "category": "highway",
    "subcategory": "unclassified",
    "latitude": 33.352888539285715,
    "longitude": 73.46371576428571,
    "id": 751950977
  },
  {
    "name": "living_street",
    "category": "highway",
    "subcategory": "living_street",
    "latitude": 33.34393415,
    "longitude": 73.45622731666667,
    "id": 751950985
  },
  {
    "name": "unclassified",
    "category": "highway",
    "subcategory": "unclassified",
    "latitude": 33.346160444,
    "longitude": 73.458923524,
    "id": 751950986
  },
  {
    "name": "residential",
    "category": "highway",
    "subcategory": "residential",
    "latitude": 33.34471896666667,
    "longitude": 73.45559379166667,
    "id": 751950987
  },
  {
    "name": "residential",
    "category": "highway",
    "subcategory": "residential",
    "latitude": 33.35130092285715,
    "longitude": 73.45908987428572,
    "id": 751955023
  },
  {
    "name": "residential",
    "category": "highway",
    "subcategory": "residential",
    "latitude": 33.34941532727273,
    "longitude": 73.45665592121212,
    "id": 751955024
  },
  {
    "name": "residential",
    "category": "highway",
    "subcategory": "residential",
    "latitude": 33.35116624375,
    "longitude": 73.458328225,
    "id": 751955025
  },
  {
    "name": "residential",
    "category": "highway",
    "subcategory": "residential",
    "latitude": 33.35054238695652,
    "longitude": 73.45588576521739,
    "id": 751955026
  },
  {
    "name": "residential",
    "category": "highway",
    "subcategory": "residential",
    "latitude": 33.35688290666666,
    "longitude": 73.46699870666666,
    "id": 751955027
  },
  {
    "name": "residential",
    "category": "highway",
    "subcategory": "residential",
    "latitude": 33.357289071428575,
    "longitude": 73.46772644285714,
    "id": 751955028
  },
  {
    "name": "residential",
    "category": "highway",
    "subcategory": "residential",
    "latitude": 33.35683795,
    "longitude": 73.4692981,
    "id": 751955029
  },
  {
    "name": "residential",
    "category": "highway",
    "subcategory": "residential",
    "latitude": 33.3552182,
    "longitude": 73.4674181,
    "id": 751955030
  },
  {
    "name": "residential",
    "category": "highway",
    "subcategory": "residential",
    "latitude": 33.35577003461538,
    "longitude": 73.47357987692308,
    "id": 751955031
  },
  {
    "name": "residential",
    "category": "highway",
    "subcategory": "residential",
    "latitude": 33.357117505000005,
    "longitude": 73.47188257,
    "id": 751955032
  },
  {
    "name": "unclassified",
    "category": "highway",
    "subcategory": "unclassified",
    "latitude": 33.36382832291667,
    "longitude": 73.47294255,
    "id": 751955033
  },
  {
    "name": "unclassified",
    "category": "highway",
    "subcategory": "unclassified",
    "latitude": 33.333329792,
    "longitude": 73.45136974799999,
    "id": 768631470
  },
  {
    "name": "residential",
    "category": "highway",
    "subcategory": "residential",
    "latitude": 33.3541954326087,
    "longitude": 73.47764174130434,
    "id": 768639245
  },
  {
    "name": "residential",
    "category": "highway",
    "subcategory": "residential",
    "latitude": 33.3357271,
    "longitude": 73.48822966734694,
    "id": 768639323
  },
  {
    "name": "residential",
    "category": "highway",
    "subcategory": "residential",
    "latitude": 33.31152753,
    "longitude": 73.4632077025,
    "id": 771499428
  },
  {
    "name": "residential",
    "category": "highway",
    "subcategory": "residential",
    "latitude": 33.3461331,
    "longitude": 73.51256939999999,
    "id": 936209652
  },
  {
    "name": "residential",
    "category": "highway",
    "subcategory": "residential",
    "latitude": 33.345077083999996,
    "longitude": 73.513709412,
    "id": 936209653
  },
  {
    "name": "Jari-Malook Rd",
    "category": "highway",
    "subcategory": "tertiary",
    "latitude": 33.352111199999996,
    "longitude": 73.51905165,
    "id": 936210866
  },
  {
    "name": "Jari-Malook Rd",
    "category": "highway",
    "subcategory": "tertiary",
    "latitude": 33.35362837619048,
    "longitude": 73.51852662857144,
    "id": 936210867
  },
  {
    "name": "Malook Road",
    "category": "highway",
    "subcategory": "tertiary",
    "latitude": 33.354085850000004,
    "longitude": 73.52244255,
    "id": 938287865
  },
  {
    "name": "Malook Road",
    "category": "highway",
    "subcategory": "tertiary",
    "latitude": 33.34752434833333,
    "longitude": 73.51913564666667,
    "id": 938287866
  },
  {
    "name": "living_street",
    "category": "highway",
    "subcategory": "living_street",
    "latitude": 33.35303931333333,
    "longitude": 73.51365835333333,
    "id": 938329921
  },
  {
    "name": "living_street",
    "category": "highway",
    "subcategory": "living_street",
    "latitude": 33.352196,
    "longitude": 73.51317829999999,
    "id": 938329922
  },
  {
    "name": "residential",
    "category": "highway",
    "subcategory": "residential",
    "latitude": 33.3495785,
    "longitude": 73.4703106882353,
    "id": 1038063530
  },
  {
    "name": "unclassified",
    "category": "highway",
    "subcategory": "unclassified",
    "latitude": 33.316452724175825,
    "longitude": 73.47792118351649,
    "id": 1038063897
  },
  {
    "name": "residential",
    "category": "highway",
    "subcategory": "residential",
    "latitude": 33.372235839999995,
    "longitude": 73.50288384000001,
    "id": 1039193622
  },
  {
    "name": "residential",
    "category": "highway",
    "subcategory": "residential",
    "latitude": 33.37173107142857,
    "longitude": 73.50353499999999,
    "id": 1039193623
  },
  {
    "name": "unclassified",
    "category": "highway",
    "subcategory": "unclassified",
    "latitude": 33.384259826213594,
    "longitude": 73.52049850388349,
    "id": 1039194091
  },
  {
    "name": "unclassified",
    "category": "highway",
    "subcategory": "unclassified",
    "latitude": 33.30818965955883,
    "longitude": 73.46134182499999,
    "id": 1049407975
  },
  {
    "name": "residential",
    "category": "highway",
    "subcategory": "residential",
    "latitude": 33.309450064705885,
    "longitude": 73.47029187058824,
    "id": 1049407976
  },
  {
    "name": "residential",
    "category": "highway",
    "subcategory": "residential",
    "latitude": 33.30976123333333,
    "longitude": 73.4701297,
    "id": 1049407977
  },
  {
    "name": "residential",
    "category": "highway",
    "subcategory": "residential",
    "latitude": 33.30986074,
    "longitude": 73.47045832,
    "id": 1049407978
  },
  {
    "name": "residential",
    "category": "highway",
    "subcategory": "residential",
    "latitude": 33.308488499999996,
    "longitude": 73.46897965,
    "id": 1049407979
  },
  {
    "name": "residential",
    "category": "highway",
    "subcategory": "residential",
    "latitude": 33.311029636363635,
    "longitude": 73.47151525454545,
    "id": 1049407980
  },
  {
    "name": "residential",
    "category": "highway",
    "subcategory": "residential",
    "latitude": 33.309014246875,
    "longitude": 73.475553271875,
    "id": 1049407981
  },
  {
    "name": "residential",
    "category": "highway",
    "subcategory": "residential",
    "latitude": 33.30784568461539,
    "longitude": 73.47781564230769,
    "id": 1049407983
  },
  {
    "name": "unclassified",
    "category": "highway",
    "subcategory": "unclassified",
    "latitude": 33.306895000000004,
    "longitude": 73.47725394999999,
    "id": 1049407984
  },
  {
    "name": "residential",
    "category": "highway",
    "subcategory": "residential",
    "latitude": 33.30634555,
    "longitude": 73.4766582,
    "id": 1049407985
  },
  {
    "name": "residential",
    "category": "highway",
    "subcategory": "residential",
    "latitude": 33.30851718659794,
    "longitude": 73.49029941958763,
    "id": 1049407986
  },
  {
    "name": "unclassified",
    "category": "highway",
    "subcategory": "unclassified",
    "latitude": 33.30903219032258,
    "longitude": 73.48617792258065,
    "id": 1049407987
  },
  {
    "name": "residential",
    "category": "highway",
    "subcategory": "residential",
    "latitude": 33.30938406470588,
    "longitude": 73.48215135294117,
    "id": 1049407988
  },
  {
    "name": "residential",
    "category": "highway",
    "subcategory": "residential",
    "latitude": 33.31235453529411,
    "longitude": 73.48264340882352,
    "id": 1049407989
  },
  {
    "name": "residential",
    "category": "highway",
    "subcategory": "residential",
    "latitude": 33.31021731111111,
    "longitude": 73.47974639861111,
    "id": 1049407990
  },
  {
    "name": "unclassified",
    "category": "highway",
    "subcategory": "unclassified",
    "latitude": 33.368798838260865,
    "longitude": 73.49213945391305,
    "id": 1049407991
  },
  {
    "name": "unclassified",
    "category": "highway",
    "subcategory": "unclassified",
    "latitude": 33.371719712621356,
    "longitude": 73.47597061456311,
    "id": 1049541491
  },
  {
    "name": "unclassified",
    "category": "highway",
    "subcategory": "unclassified",
    "latitude": 33.375180452,
    "longitude": 73.482634612,
    "id": 1049541492
  },
  {
    "name": "unclassified",
    "category": "highway",
    "subcategory": "unclassified",
    "latitude": 33.368399948275865,
    "longitude": 73.4777546,
    "id": 1049541493
  },
  {
    "name": "unclassified",
    "category": "highway",
    "subcategory": "unclassified",
    "latitude": 33.369826075,
    "longitude": 73.476795875,
    "id": 1049541494
  },
  {
    "name": "unclassified",
    "category": "highway",
    "subcategory": "unclassified",
    "latitude": 33.363271346086954,
    "longitude": 73.4868888547826,
    "id": 1049541495
  },
  {
    "name": "residential",
    "category": "highway",
    "subcategory": "residential",
    "latitude": 33.364186784615384,
    "longitude": 73.48306962307691,
    "id": 1049541496
  },
  {
    "name": "residential",
    "category": "highway",
    "subcategory": "residential",
    "latitude": 33.35956379555556,
    "longitude": 73.47519306222223,
    "id": 1049541497
  },
  {
    "name": "unclassified",
    "category": "highway",
    "subcategory": "unclassified",
    "latitude": 33.35065542151899,
    "longitude": 73.47626607088608,
    "id": 1049541498
  },
  {
    "name": "living_street",
    "category": "highway",
    "subcategory": "living_street",
    "latitude": 33.351594775,
    "longitude": 73.47464364166667,
    "id": 1049541499
  },
  {
    "name": "unclassified",
    "category": "highway",
    "subcategory": "unclassified",
    "latitude": 33.34601889830508,
    "longitude": 73.47854318050848,
    "id": 1049541500
  },
  {
    "name": "unclassified",
    "category": "highway",
    "subcategory": "unclassified",
    "latitude": 33.345469290243905,
    "longitude": 73.48395359512195,
    "id": 1049541501
  },
  {
    "name": "living_street",
    "category": "highway",
    "subcategory": "living_street",
    "latitude": 33.329801608333334,
    "longitude": 73.45551631666667,
    "id": 1111850028
  },
  {
    "name": "residential",
    "category": "highway",
    "subcategory": "residential",
    "latitude": 33.34031783809524,
    "longitude": 73.45580852857142,
    "id": 1111850041
  },
  {
    "name": "unclassified",
    "category": "highway",
    "subcategory": "unclassified",
    "latitude": 33.33847940454546,
    "longitude": 73.45474790454546,
    "id": 1111850043
  },
  {
    "name": "unclassified",
    "category": "highway",
    "subcategory": "unclassified",
    "latitude": 33.32299119066666,
    "longitude": 73.45280296933333,
    "id": 1111850082
  },
  {
    "name": "unclassified",
    "category": "highway",
    "subcategory": "unclassified",
    "latitude": 33.379665357142855,
    "longitude": 73.53298972857144,
    "id": 1114966199
  },
  {
    "name": "unclassified",
    "category": "highway",
    "subcategory": "unclassified",
    "latitude": 33.37709750983606,
    "longitude": 73.53769010983606,
    "id": 1114966200
  },
  {
    "name": "residential",
    "category": "highway",
    "subcategory": "residential",
    "latitude": 33.379841057142855,
    "longitude": 73.53586912857143,
    "id": 1114966201
  },
  {
    "name": "living_street",
    "category": "highway",
    "subcategory": "living_street",
    "latitude": 33.37950145,
    "longitude": 73.53525139999999,
    "id": 1114966202
  },
  {
    "name": "residential",
    "category": "highway",
    "subcategory": "residential",
    "latitude": 33.37996953333333,
    "longitude": 73.5341795,
    "id": 1114966203
  },
  {
    "name": "residential",
    "category": "highway",
    "subcategory": "residential",
    "latitude": 33.3798569,
    "longitude": 73.5335582,
    "id": 1114966204
  },
  {
    "name": "residential",
    "category": "highway",
    "subcategory": "residential",
    "latitude": 33.380405073333336,
    "longitude": 73.53279348,
    "id": 1114966205
  },
  {
    "name": "unclassified",
    "category": "highway",
    "subcategory": "unclassified",
    "latitude": 33.379394473333335,
    "longitude": 73.5354537,
    "id": 1114966206
  },
  {
    "name": "residential",
    "category": "highway",
    "subcategory": "residential",
    "latitude": 33.377169,
    "longitude": 73.53185346666667,
    "id": 1114966210
  },
  {
    "name": "track",
    "category": "highway",
    "subcategory": "track",
    "latitude": 33.37657296521739,
    "longitude": 73.5331936521739,
    "id": 1114966211
  },
  {
    "name": "residential",
    "category": "highway",
    "subcategory": "residential",
    "latitude": 33.3759588,
    "longitude": 73.53006048888888,
    "id": 1114966212
  },
  {
    "name": "residential",
    "category": "highway",
    "subcategory": "residential",
    "latitude": 33.37665709,
    "longitude": 73.53037438,
    "id": 1114966213
  },
  {
    "name": "residential",
    "category": "highway",
    "subcategory": "residential",
    "latitude": 33.37744242727273,
    "longitude": 73.53114937272727,
    "id": 1114966214
  },
  {
    "name": "unclassified",
    "category": "highway",
    "subcategory": "unclassified",
    "latitude": 33.37267665906433,
    "longitude": 73.5237907497076,
    "id": 1114966215
  },
  {
    "name": "unclassified",
    "category": "highway",
    "subcategory": "unclassified",
    "latitude": 33.382112540625,
    "longitude": 73.52848475625,
    "id": 1114966218
  },
  {
    "name": "living_street",
    "category": "highway",
    "subcategory": "living_street",
    "latitude": 33.31958481666667,
    "longitude": 73.52568356666667,
    "id": 1115019546
  },
  {
    "name": "unclassified",
    "category": "highway",
    "subcategory": "unclassified",
    "latitude": 33.317910140740736,
    "longitude": 73.53035433703702,
    "id": 1115019547
  },
  {
    "name": "unclassified",
    "category": "highway",
    "subcategory": "unclassified",
    "latitude": 33.31646318717949,
    "longitude": 73.52768126410257,
    "id": 1115019548
  },
  {
    "name": "unclassified",
    "category": "highway",
    "subcategory": "unclassified",
    "latitude": 33.31469608214285,
    "longitude": 73.52430594285714,
    "id": 1115019549
  },
  {
    "name": "unclassified",
    "category": "highway",
    "subcategory": "unclassified",
    "latitude": 33.31530381428571,
    "longitude": 73.52326586666666,
    "id": 1115019550
  },
  {
    "name": "living_street",
    "category": "highway",
    "subcategory": "living_street",
    "latitude": 33.319001220000004,
    "longitude": 73.52520032,
    "id": 1115019551
  },
  {
    "name": "living_street",
    "category": "highway",
    "subcategory": "living_street",
    "latitude": 33.32445466666667,
    "longitude": 73.5325104,
    "id": 1115019552
  },
  {
    "name": "living_street",
    "category": "highway",
    "subcategory": "living_street",
    "latitude": 33.3189638,
    "longitude": 73.52443600000001,
    "id": 1115019553
  },
  {
    "name": "unclassified",
    "category": "highway",
    "subcategory": "unclassified",
    "latitude": 33.31567795714285,
    "longitude": 73.52055049714285,
    "id": 1115019554
  },
  {
    "name": "living_street",
    "category": "highway",
    "subcategory": "living_street",
    "latitude": 33.31755415,
    "longitude": 73.52147468333332,
    "id": 1115019555
  },
  {
    "name": "living_street",
    "category": "highway",
    "subcategory": "living_street",
    "latitude": 33.31730975,
    "longitude": 73.5209967,
    "id": 1115019556
  },
  {
    "name": "residential",
    "category": "highway",
    "subcategory": "residential",
    "latitude": 33.317449526666664,
    "longitude": 73.52137208,
    "id": 1115019557
  },
  {
    "name": "residential",
    "category": "highway",
    "subcategory": "residential",
    "latitude": 33.318768524193544,
    "longitude": 73.52447670806451,
    "id": 1115019558
  },
  {
    "name": "residential",
    "category": "highway",
    "subcategory": "residential",
    "latitude": 33.3216469,
    "longitude": 73.52800945,
    "id": 1115019559
  },
  {
    "name": "residential",
    "category": "highway",
    "subcategory": "residential",
    "latitude": 33.322327200000004,
    "longitude": 73.52954706923077,
    "id": 1115019560
  },
  {
    "name": "living_street",
    "category": "highway",
    "subcategory": "living_street",
    "latitude": 33.3139123,
    "longitude": 73.52439905,
    "id": 1115020759
  },
  {
    "name": "living_street",
    "category": "highway",
    "subcategory": "living_street",
    "latitude": 33.314091166666664,
    "longitude": 73.52464568333333,
    "id": 1115020760
  },
  {
    "name": "unclassified",
    "category": "highway",
    "subcategory": "unclassified",
    "latitude": 33.30153563333334,
    "longitude": 73.47444453333333,
    "id": 1116593224
  },
  {
    "name": "unclassified",
    "category": "highway",
    "subcategory": "unclassified",
    "latitude": 33.30038114705882,
    "longitude": 73.47501044117648,
    "id": 1116593225
  },
  {
    "name": "unclassified",
    "category": "highway",
    "subcategory": "unclassified",
    "latitude": 33.30091898055556,
    "longitude": 73.475395075,
    "id": 1116593226
  },
  {
    "name": "track",
    "category": "highway",
    "subcategory": "track",
    "latitude": 33.30069984358974,
    "longitude": 73.47195794102564,
    "id": 1116593227
  },
  {
    "name": "unclassified",
    "category": "highway",
    "subcategory": "unclassified",
    "latitude": 33.30079332727273,
    "longitude": 73.46223584545454,
    "id": 1116593233
  },
  {
    "name": "unclassified",
    "category": "highway",
    "subcategory": "unclassified",
    "latitude": 33.383694004109586,
    "longitude": 73.45708516438356,
    "id": 1117225788
  },
  {
    "name": "unclassified",
    "category": "highway",
    "subcategory": "unclassified",
    "latitude": 33.37807165,
    "longitude": 73.459412442,
    "id": 1117225789
  },
  {
    "name": "tertiary",
    "category": "highway",
    "subcategory": "tertiary",
    "latitude": 33.37427444,
    "longitude": 73.44827883388889,
    "id": 1117225809
  },
  {
    "name": "unclassified",
    "category": "highway",
    "subcategory": "unclassified",
    "latitude": 33.323564934000004,
    "longitude": 73.533621862,
    "id": 1186887730
  },
  {
    "name": "track",
    "category": "highway",
    "subcategory": "track",
    "latitude": 33.38315098095238,
    "longitude": 73.45711134761905,
    "id": 1196831539
  },
  {
    "name": "living_street",
    "category": "highway",
    "subcategory": "living_street",
    "latitude": 33.381459166666666,
    "longitude": 73.47277594666666,
    "id": 1196831544
  },
  {
    "name": "residential",
    "category": "highway",
    "subcategory": "residential",
    "latitude": 33.378987571428574,
    "longitude": 73.47071028571429,
    "id": 1196831548
  },
  {
    "name": "residential",
    "category": "highway",
    "subcategory": "residential",
    "latitude": 33.3772433,
    "longitude": 73.47066520000001,
    "id": 1196831549
  },
  {
    "name": "residential",
    "category": "highway",
    "subcategory": "residential",
    "latitude": 33.37765794285714,
    "longitude": 73.47078094999999,
    "id": 1196831550
  },
  {
    "name": "living_street",
    "category": "highway",
    "subcategory": "living_street",
    "latitude": 33.38124226,
    "longitude": 73.47204851000001,
    "id": 1196831559
  },
  {
    "name": "unclassified",
    "category": "highway",
    "subcategory": "unclassified",
    "latitude": 33.377172489189185,
    "longitude": 73.49793515675675,
    "id": 1196874253
  },
  {
    "name": "track",
    "category": "highway",
    "subcategory": "track",
    "latitude": 33.381594980487804,
    "longitude": 73.48262177560976,
    "id": 1196874254
  },
  {
    "name": "living_street",
    "category": "highway",
    "subcategory": "living_street",
    "latitude": 33.376457864516134,
    "longitude": 73.48435596451613,
    "id": 1196874260
  },
  {
    "name": "unclassified",
    "category": "highway",
    "subcategory": "unclassified",
    "latitude": 33.38054914,
    "longitude": 73.48733496,
    "id": 1196874270
  },
  {
    "name": "unclassified",
    "category": "highway",
    "subcategory": "unclassified",
    "latitude": 33.375011125,
    "longitude": 73.48680816875,
    "id": 1196874271
  },
  {
    "name": "living_street",
    "category": "highway",
    "subcategory": "living_street",
    "latitude": 33.3763913,
    "longitude": 73.48547269375,
    "id": 1196874272
  },
  {
    "name": "living_street",
    "category": "highway",
    "subcategory": "living_street",
    "latitude": 33.37707285,
    "longitude": 73.4858806,
    "id": 1196874273
  },
  {
    "name": "living_street",
    "category": "highway",
    "subcategory": "living_street",
    "latitude": 33.37741295,
    "longitude": 73.48587119999999,
    "id": 1196874274
  },
  {
    "name": "residential",
    "category": "highway",
    "subcategory": "residential",
    "latitude": 33.37973082857143,
    "longitude": 73.48576035714285,
    "id": 1196874275
  },
  {
    "name": "living_street",
    "category": "highway",
    "subcategory": "living_street",
    "latitude": 33.37999885,
    "longitude": 73.486828,
    "id": 1196874276
  },
  {
    "name": "living_street",
    "category": "highway",
    "subcategory": "living_street",
    "latitude": 33.380290025,
    "longitude": 73.486899875,
    "id": 1196874277
  },
  {
    "name": "living_street",
    "category": "highway",
    "subcategory": "living_street",
    "latitude": 33.379622983333334,
    "longitude": 73.49035463333333,
    "id": 1196874278
  },
  {
    "name": "living_street",
    "category": "highway",
    "subcategory": "living_street",
    "latitude": 33.380322064000005,
    "longitude": 73.4891667,
    "id": 1196874279
  },
  {
    "name": "living_street",
    "category": "highway",
    "subcategory": "living_street",
    "latitude": 33.38097731875,
    "longitude": 73.489880925,
    "id": 1196874280
  },
  {
    "name": "track",
    "category": "highway",
    "subcategory": "track",
    "latitude": 33.38072543333333,
    "longitude": 73.49477867272728,
    "id": 1196874281
  },
  {
    "name": "unclassified",
    "category": "highway",
    "subcategory": "unclassified",
    "latitude": 33.381445758333335,
    "longitude": 73.4905858202381,
    "id": 1196874282
  },
  {
    "name": "track",
    "category": "highway",
    "subcategory": "track",
    "latitude": 33.380552920930235,
    "longitude": 73.47942051744185,
    "id": 1196874288
  },
  {
    "name": "living_street",
    "category": "highway",
    "subcategory": "living_street",
    "latitude": 33.37372365833333,
    "longitude": 73.50328814166666,
    "id": 1196884601
  },
  {
    "name": "residential",
    "category": "highway",
    "subcategory": "residential",
    "latitude": 33.37382475,
    "longitude": 73.50530975000001,
    "id": 1196884602
  },
  {
    "name": "residential",
    "category": "highway",
    "subcategory": "residential",
    "latitude": 33.37408077777778,
    "longitude": 73.50511193333334,
    "id": 1196884603
  },
  {
    "name": "residential",
    "category": "highway",
    "subcategory": "residential",
    "latitude": 33.375233844927536,
    "longitude": 73.50405208115943,
    "id": 1196884604
  },
  {
    "name": "residential",
    "category": "highway",
    "subcategory": "residential",
    "latitude": 33.37388439655172,
    "longitude": 73.50389298965517,
    "id": 1196884605
  },
  {
    "name": "residential",
    "category": "highway",
    "subcategory": "residential",
    "latitude": 33.3746871,
    "longitude": 73.50351985,
    "id": 1196884606
  },
  {
    "name": "residential",
    "category": "highway",
    "subcategory": "residential",
    "latitude": 33.374611708695646,
    "longitude": 73.50358627391304,
    "id": 1196884607
  },
  {
    "name": "residential",
    "category": "highway",
    "subcategory": "residential",
    "latitude": 33.37379477407407,
    "longitude": 73.50248536296296,
    "id": 1196884608
  },
  {
    "name": "residential",
    "category": "highway",
    "subcategory": "residential",
    "latitude": 33.3744165,
    "longitude": 73.50279713333333,
    "id": 1196884609
  },
  {
    "name": "residential",
    "category": "highway",
    "subcategory": "residential",
    "latitude": 33.37508938095238,
    "longitude": 73.50226736666666,
    "id": 1196884610
  },
  {
    "name": "track",
    "category": "highway",
    "subcategory": "track",
    "latitude": 33.3784967962963,
    "longitude": 73.50168256296296,
    "id": 1196884611
  },
  {
    "name": "residential",
    "category": "highway",
    "subcategory": "residential",
    "latitude": 33.38013843304348,
    "longitude": 73.50735071217392,
    "id": 1196884612
  },
  {
    "name": "residential",
    "category": "highway",
    "subcategory": "residential",
    "latitude": 33.3811389875,
    "longitude": 73.5177508375,
    "id": 1197005626
  },
  {
    "name": "residential",
    "category": "highway",
    "subcategory": "residential",
    "latitude": 33.38110681111111,
    "longitude": 73.51837395000001,
    "id": 1197005627
  },
  {
    "name": "unclassified",
    "category": "highway",
    "subcategory": "unclassified",
    "latitude": 33.37973498636364,
    "longitude": 73.51740083636363,
    "id": 1197005628
  },
  {
    "name": "unclassified",
    "category": "highway",
    "subcategory": "unclassified",
    "latitude": 33.37625377007299,
    "longitude": 73.51497830656935,
    "id": 1197005629
  },
  {
    "name": "residential",
    "category": "highway",
    "subcategory": "residential",
    "latitude": 33.38065848181818,
    "longitude": 73.51877107272728,
    "id": 1197005630
  },
  {
    "name": "residential",
    "category": "highway",
    "subcategory": "residential",
    "latitude": 33.3793631,
    "longitude": 73.51000335,
    "id": 1197005664
  },
  {
    "name": "residential",
    "category": "highway",
    "subcategory": "residential",
    "latitude": 33.38023109,
    "longitude": 73.509199145,
    "id": 1197005665
  },
  {
    "name": "residential",
    "category": "highway",
    "subcategory": "residential",
    "latitude": 33.380119025,
    "longitude": 73.50702983333333,
    "id": 1197005666
  },
  {
    "name": "residential",
    "category": "highway",
    "subcategory": "residential",
    "latitude": 33.379881975,
    "longitude": 73.50687785,
    "id": 1197005667
  },
  {
    "name": "unclassified",
    "category": "highway",
    "subcategory": "unclassified",
    "latitude": 33.380487122727274,
    "longitude": 73.50613116363637,
    "id": 1197005668
  },
  {
    "name": "residential",
    "category": "highway",
    "subcategory": "residential",
    "latitude": 33.3804326,
    "longitude": 73.50782745,
    "id": 1197005669
  },
  {
    "name": "residential",
    "category": "highway",
    "subcategory": "residential",
    "latitude": 33.380432778571425,
    "longitude": 73.50767954285713,
    "id": 1197005670
  },
  {
    "name": "living_street",
    "category": "highway",
    "subcategory": "living_street",
    "latitude": 33.379361349999996,
    "longitude": 73.50838615,
    "id": 1197005671
  },
  {
    "name": "living_street",
    "category": "highway",
    "subcategory": "living_street",
    "latitude": 33.379647133333336,
    "longitude": 73.5080257,
    "id": 1197005672
  },
  {
    "name": "living_street",
    "category": "highway",
    "subcategory": "living_street",
    "latitude": 33.37922387333333,
    "longitude": 73.50896035999999,
    "id": 1197005673
  },
  {
    "name": "residential",
    "category": "highway",
    "subcategory": "residential",
    "latitude": 33.37915381333333,
    "longitude": 73.51094592,
    "id": 1197005674
  },
  {
    "name": "unclassified",
    "category": "highway",
    "subcategory": "unclassified",
    "latitude": 33.377452784,
    "longitude": 73.51295770200001,
    "id": 1197005675
  },
  {
    "name": "residential",
    "category": "highway",
    "subcategory": "residential",
    "latitude": 33.379554689473686,
    "longitude": 73.50548303684211,
    "id": 1197005676
  },
  {
    "name": "living_street",
    "category": "highway",
    "subcategory": "living_street",
    "latitude": 33.378708149999994,
    "longitude": 73.5046291,
    "id": 1197005677
  },
  {
    "name": "residential",
    "category": "highway",
    "subcategory": "residential",
    "latitude": 33.379017706666666,
    "longitude": 73.50456448,
    "id": 1197005678
  },
  {
    "name": "living_street",
    "category": "highway",
    "subcategory": "living_street",
    "latitude": 33.37818039444445,
    "longitude": 73.5035877611111,
    "id": 1197005679
  },
  {
    "name": "track",
    "category": "highway",
    "subcategory": "track",
    "latitude": 33.3611053,
    "longitude": 73.535204975,
    "id": 1197042675
  },
  {
    "name": "track",
    "category": "highway",
    "subcategory": "track",
    "latitude": 33.36196668,
    "longitude": 73.535507128,
    "id": 1197042676
  },
  {
    "name": "track",
    "category": "highway",
    "subcategory": "track",
    "latitude": 33.35920465,
    "longitude": 73.53372439375,
    "id": 1197042677
  },
  {
    "name": "track",
    "category": "highway",
    "subcategory": "track",
    "latitude": 33.37176148518518,
    "longitude": 73.52856555555556,
    "id": 1197042694
  },
  {
    "name": "track",
    "category": "highway",
    "subcategory": "track",
    "latitude": 33.364179246666666,
    "longitude": 73.52204324333334,
    "id": 1197042695
  },
  {
    "name": "track",
    "category": "highway",
    "subcategory": "track",
    "latitude": 33.36561439230769,
    "longitude": 73.52375282307693,
    "id": 1197042696
  },
  {
    "name": "track",
    "category": "highway",
    "subcategory": "track",
    "latitude": 33.36706916666667,
    "longitude": 73.52223891666667,
    "id": 1197042697
  },
  {
    "name": "track",
    "category": "highway",
    "subcategory": "track",
    "latitude": 33.36686845444444,
    "longitude": 73.52283718222223,
    "id": 1197042698
  },
  {
    "name": "unclassified",
    "category": "highway",
    "subcategory": "unclassified",
    "latitude": 33.3666937,
    "longitude": 73.533751,
    "id": 1197042699
  },
  {
    "name": "track",
    "category": "highway",
    "subcategory": "track",
    "latitude": 33.359201920833335,
    "longitude": 73.5242657,
    "id": 1197042700
  },
  {
    "name": "unclassified",
    "category": "highway",
    "subcategory": "unclassified",
    "latitude": 33.35727348103448,
    "longitude": 73.5250870775862,
    "id": 1197042701
  },
  {
    "name": "unclassified",
    "category": "highway",
    "subcategory": "unclassified",
    "latitude": 33.35759296206896,
    "longitude": 73.52281337586207,
    "id": 1197042702
  },
  {
    "name": "residential",
    "category": "highway",
    "subcategory": "residential",
    "latitude": 33.35893393888889,
    "longitude": 73.52206489999999,
    "id": 1197042704
  },
  {
    "name": "unclassified",
    "category": "highway",
    "subcategory": "unclassified",
    "latitude": 33.3594931125,
    "longitude": 73.52104821875,
    "id": 1197042705
  },
  {
    "name": "residential",
    "category": "highway",
    "subcategory": "residential",
    "latitude": 33.36308540434783,
    "longitude": 73.52096460434782,
    "id": 1197042706
  },
  {
    "name": "unclassified",
    "category": "highway",
    "subcategory": "unclassified",
    "latitude": 33.36351582142857,
    "longitude": 73.52305285,
    "id": 1197042707
  },
  {
    "name": "unclassified",
    "category": "highway",
    "subcategory": "unclassified",
    "latitude": 33.36357952659574,
    "longitude": 73.52420465531915,
    "id": 1197042708
  },
  {
    "name": "unclassified",
    "category": "highway",
    "subcategory": "unclassified",
    "latitude": 33.363580852941176,
    "longitude": 73.52467721764707,
    "id": 1197042709
  },
  {
    "name": "unclassified",
    "category": "highway",
    "subcategory": "unclassified",
    "latitude": 33.363525071428576,
    "longitude": 73.52524644285714,
    "id": 1197042710
  },
  {
    "name": "unclassified",
    "category": "highway",
    "subcategory": "unclassified",
    "latitude": 33.361826754545454,
    "longitude": 73.52636137272727,
    "id": 1197042711
  },
  {
    "name": "unclassified",
    "category": "highway",
    "subcategory": "unclassified",
    "latitude": 33.362400435,
    "longitude": 73.52519534000001,
    "id": 1197042712
  },
  {
    "name": "unclassified",
    "category": "highway",
    "subcategory": "unclassified",
    "latitude": 33.361736361764706,
    "longitude": 73.522369625,
    "id": 1197042713
  },
  {
    "name": "unclassified",
    "category": "highway",
    "subcategory": "unclassified",
    "latitude": 33.36241158952381,
    "longitude": 73.52786505142858,
    "id": 1197042714
  },
  {
    "name": "unclassified",
    "category": "highway",
    "subcategory": "unclassified",
    "latitude": 33.36740344545454,
    "longitude": 73.53426028909091,
    "id": 1197042715
  },
  {
    "name": "unclassified",
    "category": "highway",
    "subcategory": "unclassified",
    "latitude": 33.3706926,
    "longitude": 73.52913764,
    "id": 1197042717
  },
  {
    "name": "unclassified",
    "category": "highway",
    "subcategory": "unclassified",
    "latitude": 33.372268322222226,
    "longitude": 73.53384048888888,
    "id": 1197042718
  },
  {
    "name": "unclassified",
    "category": "highway",
    "subcategory": "unclassified",
    "latitude": 33.37224336666667,
    "longitude": 73.53317346666667,
    "id": 1197042719
  },
  {
    "name": "unclassified",
    "category": "highway",
    "subcategory": "unclassified",
    "latitude": 33.37312035714286,
    "longitude": 73.53138415714285,
    "id": 1197042720
  },
  {
    "name": "unclassified",
    "category": "highway",
    "subcategory": "unclassified",
    "latitude": 33.371859863414635,
    "longitude": 73.53150964146342,
    "id": 1197042721
  },
  {
    "name": "track",
    "category": "highway",
    "subcategory": "track",
    "latitude": 33.3761136125,
    "longitude": 73.5331148625,
    "id": 1197042725
  },
  {
    "name": "unclassified",
    "category": "highway",
    "subcategory": "unclassified",
    "latitude": 33.37353982380952,
    "longitude": 73.52854648571429,
    "id": 1197042726
  },
  {
    "name": "unclassified",
    "category": "highway",
    "subcategory": "unclassified",
    "latitude": 33.37415202,
    "longitude": 73.52813309,
    "id": 1197042727
  },
  {
    "name": "unclassified",
    "category": "highway",
    "subcategory": "unclassified",
    "latitude": 33.37377433333334,
    "longitude": 73.52666280000001,
    "id": 1197042728
  },
  {
    "name": "unclassified",
    "category": "highway",
    "subcategory": "unclassified",
    "latitude": 33.374339899999995,
    "longitude": 73.527026175,
    "id": 1197042729
  },
  {
    "name": "unclassified",
    "category": "highway",
    "subcategory": "unclassified",
    "latitude": 33.371150684375,
    "longitude": 73.52341784375,
    "id": 1197042730
  },
  {
    "name": "unclassified",
    "category": "highway",
    "subcategory": "unclassified",
    "latitude": 33.361650232352936,
    "longitude": 73.5157668235294,
    "id": 1197056653
  },
  {
    "name": "unclassified",
    "category": "highway",
    "subcategory": "unclassified",
    "latitude": 33.36208577142857,
    "longitude": 73.50966507142857,
    "id": 1197056654
  },
  {
    "name": "unclassified",
    "category": "highway",
    "subcategory": "unclassified",
    "latitude": 33.3632393826087,
    "longitude": 73.51227621521738,
    "id": 1197056655
  },
  {
    "name": "unclassified",
    "category": "highway",
    "subcategory": "unclassified",
    "latitude": 33.37058673333333,
    "longitude": 73.5070983,
    "id": 1197056656
  },
  {
    "name": "unclassified",
    "category": "highway",
    "subcategory": "unclassified",
    "latitude": 33.36941125483871,
    "longitude": 73.50825412580646,
    "id": 1197056657
  },
  {
    "name": "unclassified",
    "category": "highway",
    "subcategory": "unclassified",
    "latitude": 33.36801782,
    "longitude": 73.50968407,
    "id": 1197056658
  },
  {
    "name": "unclassified",
    "category": "highway",
    "subcategory": "unclassified",
    "latitude": 33.36639754666667,
    "longitude": 73.50913567333333,
    "id": 1197056659
  },
  {
    "name": "living_street",
    "category": "highway",
    "subcategory": "living_street",
    "latitude": 33.368770999999995,
    "longitude": 73.51669480000001,
    "id": 1197056660
  },
  {
    "name": "track",
    "category": "highway",
    "subcategory": "track",
    "latitude": 33.366613144642855,
    "longitude": 73.51602581249999,
    "id": 1197056661
  },
  {
    "name": "residential",
    "category": "highway",
    "subcategory": "residential",
    "latitude": 33.368773899999994,
    "longitude": 73.51594635000001,
    "id": 1197056662
  },
  {
    "name": "residential",
    "category": "highway",
    "subcategory": "residential",
    "latitude": 33.368889550000006,
    "longitude": 73.5153298,
    "id": 1197056663
  },
  {
    "name": "residential",
    "category": "highway",
    "subcategory": "residential",
    "latitude": 33.36899365,
    "longitude": 73.51470485,
    "id": 1197056664
  },
  {
    "name": "residential",
    "category": "highway",
    "subcategory": "residential",
    "latitude": 33.37001143333333,
    "longitude": 73.51326205555556,
    "id": 1197056665
  },
  {
    "name": "residential",
    "category": "highway",
    "subcategory": "residential",
    "latitude": 33.3699456875,
    "longitude": 73.513836825,
    "id": 1197056666
  },
  {
    "name": "residential",
    "category": "highway",
    "subcategory": "residential",
    "latitude": 33.370342750000006,
    "longitude": 73.51434495000001,
    "id": 1197056667
  },
  {
    "name": "residential",
    "category": "highway",
    "subcategory": "residential",
    "latitude": 33.37033439,
    "longitude": 73.51358446,
    "id": 1197056668
  },
  {
    "name": "residential",
    "category": "highway",
    "subcategory": "residential",
    "latitude": 33.36891631311476,
    "longitude": 73.51404587540983,
    "id": 1197056669
  },
  {
    "name": "unclassified",
    "category": "highway",
    "subcategory": "unclassified",
    "latitude": 33.370451474999996,
    "longitude": 73.517972315,
    "id": 1197056670
  },
  {
    "name": "unclassified",
    "category": "highway",
    "subcategory": "unclassified",
    "latitude": 33.36573558529412,
    "longitude": 73.50888229411764,
    "id": 1197056671
  },
  {
    "name": "unclassified",
    "category": "highway",
    "subcategory": "unclassified",
    "latitude": 33.36119125,
    "longitude": 73.5059394,
    "id": 1197056672
  },
  {
    "name": "unclassified",
    "category": "highway",
    "subcategory": "unclassified",
    "latitude": 33.3607956,
    "longitude": 73.50625265,
    "id": 1197056673
  },
  {
    "name": "unclassified",
    "category": "highway",
    "subcategory": "unclassified",
    "latitude": 33.36128024285714,
    "longitude": 73.50752554285714,
    "id": 1197056674
  },
  {
    "name": "unclassified",
    "category": "highway",
    "subcategory": "unclassified",
    "latitude": 33.35831519230769,
    "longitude": 73.50854143461538,
    "id": 1197056675
  },
  {
    "name": "residential",
    "category": "highway",
    "subcategory": "residential",
    "latitude": 33.35925773636364,
    "longitude": 73.5078039,
    "id": 1197056676
  },
  {
    "name": "living_street",
    "category": "highway",
    "subcategory": "living_street",
    "latitude": 33.35877877142857,
    "longitude": 73.50661917142858,
    "id": 1197056677
  },
  {
    "name": "unclassified",
    "category": "highway",
    "subcategory": "unclassified",
    "latitude": 33.35850040909091,
    "longitude": 73.50699033636364,
    "id": 1197056678
  },
  {
    "name": "living_street",
    "category": "highway",
    "subcategory": "living_street",
    "latitude": 33.35912805833333,
    "longitude": 73.50608636666666,
    "id": 1197056679
  },
  {
    "name": "living_street",
    "category": "highway",
    "subcategory": "living_street",
    "latitude": 33.359491536363635,
    "longitude": 73.50600997272727,
    "id": 1197056680
  },
  {
    "name": "residential",
    "category": "highway",
    "subcategory": "residential",
    "latitude": 33.35970328636363,
    "longitude": 73.5064967,
    "id": 1197056681
  },
  {
    "name": "unclassified",
    "category": "highway",
    "subcategory": "unclassified",
    "latitude": 33.360398164705884,
    "longitude": 73.50616998823529,
    "id": 1197056682
  },
  {
    "name": "unclassified",
    "category": "highway",
    "subcategory": "unclassified",
    "latitude": 33.361325063636365,
    "longitude": 73.5002525090909,
    "id": 1197056683
  },
  {
    "name": "unclassified",
    "category": "highway",
    "subcategory": "unclassified",
    "latitude": 33.361617852173914,
    "longitude": 73.49882068695652,
    "id": 1197056684
  },
  {
    "name": "unclassified",
    "category": "highway",
    "subcategory": "unclassified",
    "latitude": 33.362393303296706,
    "longitude": 73.50431963186813,
    "id": 1197056685
  },
  {
    "name": "residential",
    "category": "highway",
    "subcategory": "residential",
    "latitude": 33.367537875,
    "longitude": 73.49988809999999,
    "id": 1197056686
  },
  {
    "name": "unclassified",
    "category": "highway",
    "subcategory": "unclassified",
    "latitude": 33.36553297721519,
    "longitude": 73.49928322151898,
    "id": 1197056687
  },
  {
    "name": "unclassified",
    "category": "highway",
    "subcategory": "unclassified",
    "latitude": 33.36787167777778,
    "longitude": 73.49898381666668,
    "id": 1197056688
  },
  {
    "name": "unclassified",
    "category": "highway",
    "subcategory": "unclassified",
    "latitude": 33.36945237076923,
    "longitude": 73.50096628769231,
    "id": 1197056689
  },
  {
    "name": "track",
    "category": "highway",
    "subcategory": "track",
    "latitude": 33.37120064444444,
    "longitude": 73.50064066666667,
    "id": 1197056690
  },
  {
    "name": "residential",
    "category": "highway",
    "subcategory": "residential",
    "latitude": 33.37292744193548,
    "longitude": 73.50266004193548,
    "id": 1197056691
  },
  {
    "name": "track",
    "category": "highway",
    "subcategory": "track",
    "latitude": 33.37376600666667,
    "longitude": 73.51586796,
    "id": 1197148513
  },
  {
    "name": "unclassified",
    "category": "highway",
    "subcategory": "unclassified",
    "latitude": 33.36161167142858,
    "longitude": 73.51778394285714,
    "id": 1197148514
  },
  {
    "name": "unclassified",
    "category": "highway",
    "subcategory": "unclassified",
    "latitude": 33.3619118625,
    "longitude": 73.51965255,
    "id": 1197148515
  },
  {
    "name": "residential",
    "category": "highway",
    "subcategory": "residential",
    "latitude": 33.360468492857144,
    "longitude": 73.52004347857142,
    "id": 1197148516
  },
  {
    "name": "track",
    "category": "highway",
    "subcategory": "track",
    "latitude": 33.36027317692308,
    "longitude": 73.51301103076922,
    "id": 1197148517
  },
  {
    "name": "unclassified",
    "category": "highway",
    "subcategory": "unclassified",
    "latitude": 33.362202133333334,
    "longitude": 73.51440459999999,
    "id": 1197148518
  },
  {
    "name": "unclassified",
    "category": "highway",
    "subcategory": "unclassified",
    "latitude": 33.36375407142857,
    "longitude": 73.51214391428572,
    "id": 1197148519
  },
  {
    "name": "track",
    "category": "highway",
    "subcategory": "track",
    "latitude": 33.360628909999996,
    "longitude": 73.51701805333333,
    "id": 1197148520
  },
  {
    "name": "track",
    "category": "highway",
    "subcategory": "track",
    "latitude": 33.37305696,
    "longitude": 73.51495746833334,
    "id": 1197148521
  },
  {
    "name": "residential",
    "category": "highway",
    "subcategory": "residential",
    "latitude": 33.373880210526316,
    "longitude": 73.49647462105263,
    "id": 1197148522
  },
  {
    "name": "residential",
    "category": "highway",
    "subcategory": "residential",
    "latitude": 33.360799388888886,
    "longitude": 73.47903055555555,
    "id": 1197158270
  },
  {
    "name": "residential",
    "category": "highway",
    "subcategory": "residential",
    "latitude": 33.36272294285714,
    "longitude": 73.47980012857144,
    "id": 1197158271
  },
  {
    "name": "residential",
    "category": "highway",
    "subcategory": "residential",
    "latitude": 33.362704380000004,
    "longitude": 73.47926562500001,
    "id": 1197158272
  },
  {
    "name": "residential",
    "category": "highway",
    "subcategory": "residential",
    "latitude": 33.363643469230766,
    "longitude": 73.48411490769232,
    "id": 1197158273
  },
  {
    "name": "track",
    "category": "highway",
    "subcategory": "track",
    "latitude": 33.36295135757575,
    "longitude": 73.48266768181817,
    "id": 1197158274
  },
  {
    "name": "track",
    "category": "highway",
    "subcategory": "track",
    "latitude": 33.36206859487179,
    "longitude": 73.48263502051282,
    "id": 1197158275
  },
  {
    "name": "unclassified",
    "category": "highway",
    "subcategory": "unclassified",
    "latitude": 33.37548706,
    "longitude": 73.48497568,
    "id": 1197158276
  },
  {
    "name": "living_street",
    "category": "highway",
    "subcategory": "living_street",
    "latitude": 33.36017617058823,
    "longitude": 73.47843394117646,
    "id": 1197158277
  },
  {
    "name": "residential",
    "category": "highway",
    "subcategory": "residential",
    "latitude": 33.35996005,
    "longitude": 73.48009264999999,
    "id": 1197158278
  },
  {
    "name": "residential",
    "category": "highway",
    "subcategory": "residential",
    "latitude": 33.36124246666667,
    "longitude": 73.48093505,
    "id": 1197158279
  },
  {
    "name": "residential",
    "category": "highway",
    "subcategory": "residential",
    "latitude": 33.362846000000005,
    "longitude": 73.48035235,
    "id": 1197158280
  },
  {
    "name": "living_street",
    "category": "highway",
    "subcategory": "living_street",
    "latitude": 33.36466743846154,
    "longitude": 73.48246240769231,
    "id": 1197158281
  },
  {
    "name": "residential",
    "category": "highway",
    "subcategory": "residential",
    "latitude": 33.3625656,
    "longitude": 73.48024593333334,
    "id": 1197158282
  },
  {
    "name": "residential",
    "category": "highway",
    "subcategory": "residential",
    "latitude": 33.367637880000004,
    "longitude": 73.4820699,
    "id": 1197158283
  },
  {
    "name": "residential",
    "category": "highway",
    "subcategory": "residential",
    "latitude": 33.3657208,
    "longitude": 73.48280795,
    "id": 1197158284
  },
  {
    "name": "residential",
    "category": "highway",
    "subcategory": "residential",
    "latitude": 33.36589838571429,
    "longitude": 73.48318702857144,
    "id": 1197158285
  },
  {
    "name": "living_street",
    "category": "highway",
    "subcategory": "living_street",
    "latitude": 33.3654326,
    "longitude": 73.48098723125,
    "id": 1197158286
  },
  {
    "name": "living_street",
    "category": "highway",
    "subcategory": "living_street",
    "latitude": 33.364716433333335,
    "longitude": 73.48136458333333,
    "id": 1197158287
  },
  {
    "name": "unclassified",
    "category": "highway",
    "subcategory": "unclassified",
    "latitude": 33.3656996097561,
    "longitude": 73.4844180097561,
    "id": 1197158288
  },
  {
    "name": "residential",
    "category": "highway",
    "subcategory": "residential",
    "latitude": 33.369026500000004,
    "longitude": 73.48421479,
    "id": 1197158289
  },
  {
    "name": "residential",
    "category": "highway",
    "subcategory": "residential",
    "latitude": 33.37028878846154,
    "longitude": 73.48475466923077,
    "id": 1197158290
  },
  {
    "name": "residential",
    "category": "highway",
    "subcategory": "residential",
    "latitude": 33.3697794375,
    "longitude": 73.485266425,
    "id": 1197158291
  },
  {
    "name": "residential",
    "category": "highway",
    "subcategory": "residential",
    "latitude": 33.370921690476194,
    "longitude": 73.48460651904762,
    "id": 1197158292
  },
  {
    "name": "residential",
    "category": "highway",
    "subcategory": "residential",
    "latitude": 33.37208455,
    "longitude": 73.48437765,
    "id": 1197158293
  },
  {
    "name": "residential",
    "category": "highway",
    "subcategory": "residential",
    "latitude": 33.37231916,
    "longitude": 73.48610366,
    "id": 1197158294
  },
  {
    "name": "residential",
    "category": "highway",
    "subcategory": "residential",
    "latitude": 33.37233592692308,
    "longitude": 73.4857611,
    "id": 1197158295
  },
  {
    "name": "unclassified",
    "category": "highway",
    "subcategory": "unclassified",
    "latitude": 33.36869515625,
    "longitude": 73.480899,
    "id": 1197158296
  },
  {
    "name": "unclassified",
    "category": "highway",
    "subcategory": "unclassified",
    "latitude": 33.36932276341464,
    "longitude": 73.4805757,
    "id": 1197158297
  },
  {
    "name": "unclassified",
    "category": "highway",
    "subcategory": "unclassified",
    "latitude": 33.369928296875,
    "longitude": 73.47898875625,
    "id": 1197158298
  },
  {
    "name": "unclassified",
    "category": "highway",
    "subcategory": "unclassified",
    "latitude": 33.37221252142857,
    "longitude": 73.47999917857143,
    "id": 1197158299
  },
  {
    "name": "residential",
    "category": "highway",
    "subcategory": "residential",
    "latitude": 33.35735650454546,
    "longitude": 73.4937951340909,
    "id": 1197158300
  },
  {
    "name": "residential",
    "category": "highway",
    "subcategory": "residential",
    "latitude": 33.3584068,
    "longitude": 73.4950058,
    "id": 1197158301
  },
  {
    "name": "unclassified",
    "category": "highway",
    "subcategory": "unclassified",
    "latitude": 33.358082333333336,
    "longitude": 73.49673336666666,
    "id": 1197158302
  },
  {
    "name": "unclassified",
    "category": "highway",
    "subcategory": "unclassified",
    "latitude": 33.35808726842105,
    "longitude": 73.49591184736842,
    "id": 1197158303
  },
  {
    "name": "residential",
    "category": "highway",
    "subcategory": "residential",
    "latitude": 33.35961928333334,
    "longitude": 73.49386681666667,
    "id": 1197158304
  },
  {
    "name": "track",
    "category": "highway",
    "subcategory": "track",
    "latitude": 33.360416655555554,
    "longitude": 73.49399424444444,
    "id": 1197158305
  },
  {
    "name": "unclassified",
    "category": "highway",
    "subcategory": "unclassified",
    "latitude": 33.35746417114094,
    "longitude": 73.50206542348994,
    "id": 1197158306
  },
  {
    "name": "unclassified",
    "category": "highway",
    "subcategory": "unclassified",
    "latitude": 33.36141085,
    "longitude": 73.4893419,
    "id": 1197158307
  },
  {
    "name": "unclassified",
    "category": "highway",
    "subcategory": "unclassified",
    "latitude": 33.361954235714286,
    "longitude": 73.48838088571428,
    "id": 1197158308
  },
  {
    "name": "unclassified",
    "category": "highway",
    "subcategory": "unclassified",
    "latitude": 33.3640370076923,
    "longitude": 73.49092388461538,
    "id": 1197158309
  },
  {
    "name": "unclassified",
    "category": "highway",
    "subcategory": "unclassified",
    "latitude": 33.363306196551726,
    "longitude": 73.49013400689655,
    "id": 1197158310
  },
  {
    "name": "unclassified",
    "category": "highway",
    "subcategory": "unclassified",
    "latitude": 33.362167834375,
    "longitude": 73.48962311875,
    "id": 1197158311
  },
  {
    "name": "residential",
    "category": "highway",
    "subcategory": "residential",
    "latitude": 33.36172405,
    "longitude": 73.4937674,
    "id": 1197158312
  },
  {
    "name": "residential",
    "category": "highway",
    "subcategory": "residential",
    "latitude": 33.361904333333335,
    "longitude": 73.49359171666667,
    "id": 1197158313
  },
  {
    "name": "residential",
    "category": "highway",
    "subcategory": "residential",
    "latitude": 33.36240719090909,
    "longitude": 73.49511624545454,
    "id": 1197158314
  },
  {
    "name": "residential",
    "category": "highway",
    "subcategory": "residential",
    "latitude": 33.364825350000004,
    "longitude": 73.49586350000001,
    "id": 1197158315
  },
  {
    "name": "residential",
    "category": "highway",
    "subcategory": "residential",
    "latitude": 33.365376775,
    "longitude": 73.49612325833333,
    "id": 1197158316
  },
  {
    "name": "residential",
    "category": "highway",
    "subcategory": "residential",
    "latitude": 33.36768045,
    "longitude": 73.49798575,
    "id": 1197158317
  },
  {
    "name": "residential",
    "category": "highway",
    "subcategory": "residential",
    "latitude": 33.369355133333336,
    "longitude": 73.49766976666666,
    "id": 1197158318
  },
  {
    "name": "residential",
    "category": "highway",
    "subcategory": "residential",
    "latitude": 33.37000056666667,
    "longitude": 73.49827706666667,
    "id": 1197158319
  },
  {
    "name": "residential",
    "category": "highway",
    "subcategory": "residential",
    "latitude": 33.37039596666667,
    "longitude": 73.49328583333333,
    "id": 1197158320
  },
  {
    "name": "residential",
    "category": "highway",
    "subcategory": "residential",
    "latitude": 33.370724466666665,
    "longitude": 73.49290873333334,
    "id": 1197158321
  },
  {
    "name": "unclassified",
    "category": "highway",
    "subcategory": "unclassified",
    "latitude": 33.369769989189194,
    "longitude": 73.49299777567568,
    "id": 1197158322
  },
  {
    "name": "unclassified",
    "category": "highway",
    "subcategory": "unclassified",
    "latitude": 33.37479557272727,
    "longitude": 73.48970166363637,
    "id": 1197158323
  },
  {
    "name": "residential",
    "category": "highway",
    "subcategory": "residential",
    "latitude": 33.37538618,
    "longitude": 73.48755928,
    "id": 1197158324
  },
  {
    "name": "unclassified",
    "category": "highway",
    "subcategory": "unclassified",
    "latitude": 33.375311079999996,
    "longitude": 73.48806445333334,
    "id": 1197158325
  },
  {
    "name": "unclassified",
    "category": "highway",
    "subcategory": "unclassified",
    "latitude": 33.375088766666664,
    "longitude": 73.48708856666667,
    "id": 1197158326
  },
  {
    "name": "track",
    "category": "highway",
    "subcategory": "track",
    "latitude": 33.36147355,
    "longitude": 73.48369585,
    "id": 1197159936
  },
  {
    "name": "track",
    "category": "highway",
    "subcategory": "track",
    "latitude": 33.358252854545455,
    "longitude": 73.47933980909092,
    "id": 1197159937
  },
  {
    "name": "residential",
    "category": "highway",
    "subcategory": "residential",
    "latitude": 33.362254033333336,
    "longitude": 73.47976881666666,
    "id": 1197159938
  },
  {
    "name": "track",
    "category": "highway",
    "subcategory": "track",
    "latitude": 33.362706075,
    "longitude": 73.48121652500001,
    "id": 1197159939
  },
  {
    "name": "residential",
    "category": "highway",
    "subcategory": "residential",
    "latitude": 33.366835699999996,
    "longitude": 73.47947345,
    "id": 1197159940
  },
  {
    "name": "residential",
    "category": "highway",
    "subcategory": "residential",
    "latitude": 33.370707471428574,
    "longitude": 73.48314338571429,
    "id": 1197159941
  },
  {
    "name": "track",
    "category": "highway",
    "subcategory": "track",
    "latitude": 33.370994315789474,
    "longitude": 73.47979165263159,
    "id": 1197159942
  },
  {
    "name": "unclassified",
    "category": "highway",
    "subcategory": "unclassified",
    "latitude": 33.37071042,
    "longitude": 73.47024107,
    "id": 1197401593
  },
  {
    "name": "residential",
    "category": "highway",
    "subcategory": "residential",
    "latitude": 33.37010402682927,
    "longitude": 73.46812810487805,
    "id": 1197401594
  },
  {
    "name": "residential",
    "category": "highway",
    "subcategory": "residential",
    "latitude": 33.3723902,
    "longitude": 73.462911725,
    "id": 1197401595
  },
  {
    "name": "residential",
    "category": "highway",
    "subcategory": "residential",
    "latitude": 33.371810929411765,
    "longitude": 73.4621693352941,
    "id": 1197401596
  },
  {
    "name": "living_street",
    "category": "highway",
    "subcategory": "living_street",
    "latitude": 33.365926511111105,
    "longitude": 73.46146643333333,
    "id": 1197401597
  },
  {
    "name": "living_street",
    "category": "highway",
    "subcategory": "living_street",
    "latitude": 33.36469565714285,
    "longitude": 73.46342438571428,
    "id": 1197401598
  },
  {
    "name": "living_street",
    "category": "highway",
    "subcategory": "living_street",
    "latitude": 33.36497445,
    "longitude": 73.46350058,
    "id": 1197401599
  },
  {
    "name": "residential",
    "category": "highway",
    "subcategory": "residential",
    "latitude": 33.36843796666667,
    "longitude": 73.4598311,
    "id": 1197401600
  },
  {
    "name": "living_street",
    "category": "highway",
    "subcategory": "living_street",
    "latitude": 33.367734866666666,
    "longitude": 73.4619019,
    "id": 1197401601
  },
  {
    "name": "living_street",
    "category": "highway",
    "subcategory": "living_street",
    "latitude": 33.375445722222224,
    "longitude": 73.46787334444444,
    "id": 1197401602
  },
  {
    "name": "residential",
    "category": "highway",
    "subcategory": "residential",
    "latitude": 33.3738333,
    "longitude": 73.47093944848486,
    "id": 1197401603
  },
  {
    "name": "living_street",
    "category": "highway",
    "subcategory": "living_street",
    "latitude": 33.373665700000004,
    "longitude": 73.4686736125,
    "id": 1197401604
  },
  {
    "name": "living_street",
    "category": "highway",
    "subcategory": "living_street",
    "latitude": 33.3737164,
    "longitude": 73.46896076923078,
    "id": 1197401605
  },
  {
    "name": "residential",
    "category": "highway",
    "subcategory": "residential",
    "latitude": 33.372538580555556,
    "longitude": 73.470417125,
    "id": 1197401606
  },
  {
    "name": "residential",
    "category": "highway",
    "subcategory": "residential",
    "latitude": 33.37318054347826,
    "longitude": 73.4686073173913,
    "id": 1197401607
  },
  {
    "name": "unclassified",
    "category": "highway",
    "subcategory": "unclassified",
    "latitude": 33.374880610344825,
    "longitude": 73.46825064482758,
    "id": 1197401608
  },
  {
    "name": "residential",
    "category": "highway",
    "subcategory": "residential",
    "latitude": 33.37589286666667,
    "longitude": 73.46977536666667,
    "id": 1197401609
  },
  {
    "name": "unclassified",
    "category": "highway",
    "subcategory": "unclassified",
    "latitude": 33.35886980506329,
    "longitude": 73.44977458227848,
    "id": 1197401612
  },
  {
    "name": "residential",
    "category": "highway",
    "subcategory": "residential",
    "latitude": 33.356619949999995,
    "longitude": 73.46395475,
    "id": 1197401613
  },
  {
    "name": "residential",
    "category": "highway",
    "subcategory": "residential",
    "latitude": 33.354749479999995,
    "longitude": 73.45856622,
    "id": 1197401614
  },
  {
    "name": "residential",
    "category": "highway",
    "subcategory": "residential",
    "latitude": 33.355236912500004,
    "longitude": 73.45947405,
    "id": 1197401615
  },
  {
    "name": "residential",
    "category": "highway",
    "subcategory": "residential",
    "latitude": 33.35547522,
    "longitude": 73.45906594,
    "id": 1197401616
  },
  {
    "name": "residential",
    "category": "highway",
    "subcategory": "residential",
    "latitude": 33.3552344,
    "longitude": 73.458414655,
    "id": 1197401617
  },
  {
    "name": "residential",
    "category": "highway",
    "subcategory": "residential",
    "latitude": 33.355236649999995,
    "longitude": 73.45793645,
    "id": 1197401618
  },
  {
    "name": "residential",
    "category": "highway",
    "subcategory": "residential",
    "latitude": 33.3551516,
    "longitude": 73.45793825000001,
    "id": 1197401619
  },
  {
    "name": "unclassified",
    "category": "highway",
    "subcategory": "unclassified",
    "latitude": 33.3577365,
    "longitude": 73.46078376666667,
    "id": 1197401620
  },
  {
    "name": "unclassified",
    "category": "highway",
    "subcategory": "unclassified",
    "latitude": 33.3570898,
    "longitude": 73.46172454615385,
    "id": 1197401621
  },
  {
    "name": "unclassified",
    "category": "highway",
    "subcategory": "unclassified",
    "latitude": 33.35715795882353,
    "longitude": 73.46405167647059,
    "id": 1197401622
  },
  {
    "name": "unclassified",
    "category": "highway",
    "subcategory": "unclassified",
    "latitude": 33.36375968625,
    "longitude": 73.46784125,
    "id": 1197401623
  },
  {
    "name": "residential",
    "category": "highway",
    "subcategory": "residential",
    "latitude": 33.3591022,
    "longitude": 73.45669805,
    "id": 1197401624
  },
  {
    "name": "residential",
    "category": "highway",
    "subcategory": "residential",
    "latitude": 33.3592472,
    "longitude": 73.45664764,
    "id": 1197401625
  },
  {
    "name": "residential",
    "category": "highway",
    "subcategory": "residential",
    "latitude": 33.357737150000005,
    "longitude": 73.45922780000001,
    "id": 1197401626
  },
  {
    "name": "residential",
    "category": "highway",
    "subcategory": "residential",
    "latitude": 33.35756405,
    "longitude": 73.45853685,
    "id": 1197401627
  },
  {
    "name": "residential",
    "category": "highway",
    "subcategory": "residential",
    "latitude": 33.357321633333335,
    "longitude": 73.458252,
    "id": 1197401628
  },
  {
    "name": "residential",
    "category": "highway",
    "subcategory": "residential",
    "latitude": 33.357680083333335,
    "longitude": 73.45843789999999,
    "id": 1197401629
  },
  {
    "name": "residential",
    "category": "highway",
    "subcategory": "residential",
    "latitude": 33.35720840588235,
    "longitude": 73.456817,
    "id": 1197401630
  },
  {
    "name": "residential",
    "category": "highway",
    "subcategory": "residential",
    "latitude": 33.35967108,
    "longitude": 73.45595538,
    "id": 1197401631
  },
  {
    "name": "residential",
    "category": "highway",
    "subcategory": "residential",
    "latitude": 33.35998145,
    "longitude": 73.45791270000001,
    "id": 1197401632
  },
  {
    "name": "residential",
    "category": "highway",
    "subcategory": "residential",
    "latitude": 33.3596453,
    "longitude": 73.45898785,
    "id": 1197401633
  },
  {
    "name": "unclassified",
    "category": "highway",
    "subcategory": "unclassified",
    "latitude": 33.36137301774193,
    "longitude": 73.45510467258065,
    "id": 1197401634
  },
  {
    "name": "residential",
    "category": "highway",
    "subcategory": "residential",
    "latitude": 33.364419014999996,
    "longitude": 73.4594192925,
    "id": 1197401635
  },
  {
    "name": "living_street",
    "category": "highway",
    "subcategory": "living_street",
    "latitude": 33.36696379285714,
    "longitude": 73.4594195607143,
    "id": 1197401636
  },
  {
    "name": "residential",
    "category": "highway",
    "subcategory": "residential",
    "latitude": 33.368901892105264,
    "longitude": 73.46050149473683,
    "id": 1197401637
  },
  {
    "name": "unclassified",
    "category": "highway",
    "subcategory": "unclassified",
    "latitude": 33.36547943,
    "longitude": 73.46199186,
    "id": 1197401638
  },
  {
    "name": "living_street",
    "category": "highway",
    "subcategory": "living_street",
    "latitude": 33.366216873584904,
    "longitude": 73.46224241698113,
    "id": 1197401639
  },
  {
    "name": "living_street",
    "category": "highway",
    "subcategory": "living_street",
    "latitude": 33.3670983,
    "longitude": 73.4610650375,
    "id": 1197401640
  },
  {
    "name": "residential",
    "category": "highway",
    "subcategory": "residential",
    "latitude": 33.36673198235294,
    "longitude": 73.46264664117648,
    "id": 1197401641
  },
  {
    "name": "residential",
    "category": "highway",
    "subcategory": "residential",
    "latitude": 33.367505085185186,
    "longitude": 73.46231897222222,
    "id": 1197401642
  },
  {
    "name": "residential",
    "category": "highway",
    "subcategory": "residential",
    "latitude": 33.37067035,
    "longitude": 73.4612162,
    "id": 1197401643
  },
  {
    "name": "residential",
    "category": "highway",
    "subcategory": "residential",
    "latitude": 33.36992407142857,
    "longitude": 73.46002814285714,
    "id": 1197401644
  },
  {
    "name": "residential",
    "category": "highway",
    "subcategory": "residential",
    "latitude": 33.370192599999996,
    "longitude": 73.45979735,
    "id": 1197401645
  },
  {
    "name": "residential",
    "category": "highway",
    "subcategory": "residential",
    "latitude": 33.370358904166665,
    "longitude": 73.4603392,
    "id": 1197401646
  },
  {
    "name": "residential",
    "category": "highway",
    "subcategory": "residential",
    "latitude": 33.37017314848485,
    "longitude": 73.46144825151515,
    "id": 1197401647
  },
  {
    "name": "residential",
    "category": "highway",
    "subcategory": "residential",
    "latitude": 33.369749667647056,
    "longitude": 73.46349407941177,
    "id": 1197401648
  },
  {
    "name": "residential",
    "category": "highway",
    "subcategory": "residential",
    "latitude": 33.37232093387097,
    "longitude": 73.46225174193549,
    "id": 1197401649
  },
  {
    "name": "residential",
    "category": "highway",
    "subcategory": "residential",
    "latitude": 33.37198713191489,
    "longitude": 73.46413681914893,
    "id": 1197401650
  },
  {
    "name": "living_street",
    "category": "highway",
    "subcategory": "living_street",
    "latitude": 33.37611999285714,
    "longitude": 73.46114783571429,
    "id": 1197401651
  },
  {
    "name": "residential",
    "category": "highway",
    "subcategory": "residential",
    "latitude": 33.37394070847458,
    "longitude": 73.46510607627118,
    "id": 1197401652
  },
  {
    "name": "living_street",
    "category": "highway",
    "subcategory": "living_street",
    "latitude": 33.37492974,
    "longitude": 73.46110003,
    "id": 1197401653
  },
  {
    "name": "living_street",
    "category": "highway",
    "subcategory": "living_street",
    "latitude": 33.37470234117647,
    "longitude": 73.46119273529412,
    "id": 1197401654
  },
  {
    "name": "living_street",
    "category": "highway",
    "subcategory": "living_street",
    "latitude": 33.37537873461538,
    "longitude": 73.46048945384615,
    "id": 1197401655
  },
  {
    "name": "residential",
    "category": "highway",
    "subcategory": "residential",
    "latitude": 33.37632199615385,
    "longitude": 73.46094910000001,
    "id": 1197401656
  },
  {
    "name": "unclassified",
    "category": "highway",
    "subcategory": "unclassified",
    "latitude": 33.375844737499996,
    "longitude": 73.4563097,
    "id": 1197401657
  },
  {
    "name": "residential",
    "category": "highway",
    "subcategory": "residential",
    "latitude": 33.35822550370371,
    "longitude": 73.47425694814814,
    "id": 1197401659
  },
  {
    "name": "residential",
    "category": "highway",
    "subcategory": "residential",
    "latitude": 33.35844525,
    "longitude": 73.4700988,
    "id": 1197401660
  },
  {
    "name": "residential",
    "category": "highway",
    "subcategory": "residential",
    "latitude": 33.35890986,
    "longitude": 73.47192628,
    "id": 1197401661
  },
  {
    "name": "residential",
    "category": "highway",
    "subcategory": "residential",
    "latitude": 33.35859338,
    "longitude": 73.47217024,
    "id": 1197401662
  },
  {
    "name": "residential",
    "category": "highway",
    "subcategory": "residential",
    "latitude": 33.358636606666664,
    "longitude": 73.47126521333333,
    "id": 1197401663
  },
  {
    "name": "unclassified",
    "category": "highway",
    "subcategory": "unclassified",
    "latitude": 33.3591663,
    "longitude": 73.47003913333333,
    "id": 1197401664
  },
  {
    "name": "unclassified",
    "category": "highway",
    "subcategory": "unclassified",
    "latitude": 33.36167660666667,
    "longitude": 73.46837856333333,
    "id": 1197468410
  },
  {
    "name": "unclassified",
    "category": "highway",
    "subcategory": "unclassified",
    "latitude": 33.359840815384615,
    "longitude": 73.46656934358975,
    "id": 1197468411
  },
  {
    "name": "residential",
    "category": "highway",
    "subcategory": "residential",
    "latitude": 33.371966150000006,
    "longitude": 73.46475810000001,
    "id": 1197468412
  },
  {
    "name": "track",
    "category": "highway",
    "subcategory": "track",
    "latitude": 33.363909373684216,
    "longitude": 73.46111167894738,
    "id": 1197468413
  },
  {
    "name": "residential",
    "category": "highway",
    "subcategory": "residential",
    "latitude": 33.361232825,
    "longitude": 73.460951775,
    "id": 1197468414
  },
  {
    "name": "residential",
    "category": "highway",
    "subcategory": "residential",
    "latitude": 33.36067636666667,
    "longitude": 73.46137183333333,
    "id": 1197468415
  },
  {
    "name": "residential",
    "category": "highway",
    "subcategory": "residential",
    "latitude": 33.359939463636366,
    "longitude": 73.46163071818182,
    "id": 1197468416
  },
  {
    "name": "residential",
    "category": "highway",
    "subcategory": "residential",
    "latitude": 33.36217056666667,
    "longitude": 73.46155045,
    "id": 1197468417
  },
  {
    "name": "residential",
    "category": "highway",
    "subcategory": "residential",
    "latitude": 33.361338939999996,
    "longitude": 73.46189753,
    "id": 1197468418
  },
  {
    "name": "residential",
    "category": "highway",
    "subcategory": "residential",
    "latitude": 33.36264004375,
    "longitude": 73.4629229375,
    "id": 1197468419
  },
  {
    "name": "residential",
    "category": "highway",
    "subcategory": "residential",
    "latitude": 33.366695108571435,
    "longitude": 73.46552402285714,
    "id": 1197468420
  },
  {
    "name": "residential",
    "category": "highway",
    "subcategory": "residential",
    "latitude": 33.368835573333335,
    "longitude": 73.46562124,
    "id": 1197468421
  },
  {
    "name": "residential",
    "category": "highway",
    "subcategory": "residential",
    "latitude": 33.36907128571429,
    "longitude": 73.46644524285715,
    "id": 1197468422
  },
  {
    "name": "track",
    "category": "highway",
    "subcategory": "track",
    "latitude": 33.37114057878788,
    "longitude": 73.46815969696969,
    "id": 1197468423
  },
  {
    "name": "residential",
    "category": "highway",
    "subcategory": "residential",
    "latitude": 33.37164305,
    "longitude": 73.46923985,
    "id": 1197468424
  },
  {
    "name": "residential",
    "category": "highway",
    "subcategory": "residential",
    "latitude": 33.375360931578946,
    "longitude": 73.47024595263159,
    "id": 1197468425
  },
  {
    "name": "residential",
    "category": "highway",
    "subcategory": "residential",
    "latitude": 33.374771,
    "longitude": 73.46864123333334,
    "id": 1197468426
  },
  {
    "name": "residential",
    "category": "highway",
    "subcategory": "residential",
    "latitude": 33.372773207692305,
    "longitude": 73.46851288461538,
    "id": 1197468427
  },
  {
    "name": "residential",
    "category": "highway",
    "subcategory": "residential",
    "latitude": 33.37230967575758,
    "longitude": 73.46968088787878,
    "id": 1197468428
  },
  {
    "name": "residential",
    "category": "highway",
    "subcategory": "residential",
    "latitude": 33.372611058333334,
    "longitude": 73.46812262499999,
    "id": 1197468429
  },
  {
    "name": "residential",
    "category": "highway",
    "subcategory": "residential",
    "latitude": 33.37189364285714,
    "longitude": 73.46637195714285,
    "id": 1197468430
  },
  {
    "name": "residential",
    "category": "highway",
    "subcategory": "residential",
    "latitude": 33.373174411538464,
    "longitude": 73.46670554615385,
    "id": 1197468431
  },
  {
    "name": "living_street",
    "category": "highway",
    "subcategory": "living_street",
    "latitude": 33.37326090909091,
    "longitude": 73.46502519090909,
    "id": 1197468432
  },
  {
    "name": "unclassified",
    "category": "highway",
    "subcategory": "unclassified",
    "latitude": 33.342201155,
    "longitude": 73.52554938,
    "id": 1201174403
  },
  {
    "name": "unclassified",
    "category": "highway",
    "subcategory": "unclassified",
    "latitude": 33.340961155,
    "longitude": 73.52499216,
    "id": 1201174404
  },
  {
    "name": "unclassified",
    "category": "highway",
    "subcategory": "unclassified",
    "latitude": 33.34025461449276,
    "longitude": 73.51939249347825,
    "id": 1201174405
  },
  {
    "name": "living_street",
    "category": "highway",
    "subcategory": "living_street",
    "latitude": 33.34327913333333,
    "longitude": 73.51742259999999,
    "id": 1201174406
  },
  {
    "name": "track",
    "category": "highway",
    "subcategory": "track",
    "latitude": 33.344353204347826,
    "longitude": 73.5191991173913,
    "id": 1201174407
  },
  {
    "name": "living_street",
    "category": "highway",
    "subcategory": "living_street",
    "latitude": 33.3454585,
    "longitude": 73.51874965454546,
    "id": 1201174408
  },
  {
    "name": "living_street",
    "category": "highway",
    "subcategory": "living_street",
    "latitude": 33.346384969999995,
    "longitude": 73.52084201,
    "id": 1201174409
  },
  {
    "name": "living_street",
    "category": "highway",
    "subcategory": "living_street",
    "latitude": 33.3452366,
    "longitude": 73.5206288,
    "id": 1201174410
  },
  {
    "name": "living_street",
    "category": "highway",
    "subcategory": "living_street",
    "latitude": 33.345684322222226,
    "longitude": 73.52134024444445,
    "id": 1201174411
  },
  {
    "name": "living_street",
    "category": "highway",
    "subcategory": "living_street",
    "latitude": 33.346394000000004,
    "longitude": 73.52196245,
    "id": 1201174412
  },