[
  {
    "name": "Old Gurudwara Chaki Sahib",
    "category": "tourism",
    "subcategory": "attraction",
    "latitude": 32.0417145,
    "longitude": 74.2615047,
    "id": 9886024552
  },
  {
    "name": "Old Gurdwara Sri Chakki Sahib",
    "category": "tourism",
    "subcategory": "attraction",
    "latitude": 32.0421895,
    "longitude": 74.2600257,
    "id": 9886024553
  },
  {
    "name": "لودھی دور کی مسجد",
    "category": "tourism",
    "subcategory": "attraction",
    "latitude": 32.0384177,
    "longitude": 74.2687527,
    "id": 9886024554
  },
  {
    "name": "old Hindu Shamshan Ghat",
    "category": "tourism",
    "subcategory": "attraction",
    "latitude": 32.0386123,
    "longitude": 74.2666504,
    "id": 9886024556
  },
  {
    "name": "Old Hindu Temple",
    "category": "tourism",
    "subcategory": "attraction",
    "latitude": 32.0449724,
    "longitude": 74.2609468,
    "id": 9886024557
  },
  {
    "name": "Old Hindu Temple",
    "category": "tourism",
    "subcategory": "attraction",
    "latitude": 32.0418748,
    "longitude": 74.2607249,
    "id": 9886024558
  },
  {
    "name": "Old Hindu Temple",
    "category": "tourism",
    "subcategory": "attraction",
    "latitude": 32.0444478,
    "longitude": 74.2585126,
    "id": 9886024559
  },
  {
    "name": "Old Hindu Temple",
    "category": "tourism",
    "subcategory": "attraction",
    "latitude": 32.0444497,
    "longitude": 74.2612978,
    "id": 9886047365
  },
  {
    "name": "Old Shivalaya",
    "category": "tourism",
    "subcategory": "attraction",
    "latitude": 32.0443361,
    "longitude": 74.2610205,
    "id": 9886047366
  },
  {
    "name": "Old Hindu Temple",
    "category": "tourism",
    "subcategory": "attraction",
    "latitude": 32.0409215,
    "longitude": 74.2622604,
    "id": 9886047367
  },
  {
    "name": "Haveli of Seth Dewan Amarnath Chopra",
    "category": "tourism",
    "subcategory": "attraction",
    "latitude": 32.0432973,
    "longitude": 74.2608233,
    "id": 9886067098
  },
  {
    "name": "Dakh Chowki",
    "category": "tourism",
    "subcategory": "attraction",
    "latitude": 32.0412832,
    "longitude": 74.2564417,
    "id": 9886081817
  }
]