[
  {
    "name": "جامعہ عبد الولی خان مردان",
    "category": "amenity",
    "subcategory": "university",
    "latitude": 34.190682,
    "longitude": 72.036798,
    "id": 3072544364
  },
  {
    "name": "Cricket Ground Masjid",
    "category": "amenity",
    "subcategory": "place_of_worship",
    "latitude": 34.1966697,
    "longitude": 72.0415968,
    "id": 3456940873
  },
  {
    "name": "Cricket Ground",
    "category": "leisure",
    "subcategory": "pitch",
    "latitude": 34.1970095,
    "longitude": 72.0418165,
    "id": 3456940874
  },
  {
    "name": "Al Maroof Plaza",
    "category": "shop",
    "subcategory": "mall",
    "latitude": 34.1966275,
    "longitude": 72.041221,
    "id": 3456940875
  },
  {
    "name": "Gen Post office",
    "category": "amenity",
    "subcategory": "post_office",
    "latitude": 34.1974483,
    "longitude": 72.0390164,
    "id": 3456952097
  },
  {
    "name": "Jehangir Market",
    "category": "amenity",
    "subcategory": "marketplace",
    "latitude": 34.1961244,
    "longitude": 72.0386818,
    "id": 3456952103
  },
  {
    "name": "Bickut Gunj Market",
    "category": "amenity",
    "subcategory": "marketplace",
    "latitude": 34.1956609,
    "longitude": 72.0387798,
    "id": 3456955029
  },
  {
    "name": "Dr. Abdul Qadeer Chowk",
    "category": "tourism",
    "subcategory": "attraction",
    "latitude": 34.1958536,
    "longitude": 72.0328881,
    "id": 3456955187
  },
  {
    "name": "Nehar masjid / نہر مسجد",
    "category": "amenity",
    "subcategory": "place_of_worship",
    "latitude": 34.1940263,
    "longitude": 72.0281765,
    "id": 3456962105
  },
  {
    "name": "Govt Centtenial Model High School No.3 Mardan",
    "category": "amenity",
    "subcategory": "school",
    "latitude": 34.198805,
    "longitude": 72.0532475,
    "id": 4251840798
  },
  {
    "name": "Govt High and Secondary School No.2 Mardan",
    "category": "amenity",
    "subcategory": "school",
    "latitude": 34.1984989,
    "longitude": 72.0536456,
    "id": 4251864789
  },
  {
    "name": "نیشنل بینک آف پاکستان",
    "category": "amenity",
    "subcategory": "bank",
    "latitude": 34.1965407,
    "longitude": 72.041999,
    "id": 4831790621
  },
  {
    "name": "Raj Hardware Store",
    "category": "shop",
    "subcategory": "hardware",
    "latitude": 34.1974703,
    "longitude": 72.0522736,
    "id": 4940520021
  },
  {
    "name": "Aziz Bhatti Shaheed Army Public School & College",
    "category": "amenity",
    "subcategory": "school",
    "latitude": 34.2066932,
    "longitude": 72.0389401,
    "id": 5468179921
  },
  {
    "name": "Zeeshan Medical Centre",
    "category": "amenity",
    "subcategory": "clinic",
    "latitude": 34.1915199,
    "longitude": 72.0475934,
    "id": 5750492721
  },
  {
    "name": "Khan Amirzadah Khan’s House",
    "category": "tourism",
    "subcategory": "motel",
    "latitude": 34.1928818,
    "longitude": 72.0324548,
    "id": 6110380785
  },
  {
    "name": "Patiala Jeweller’s",
    "category": "shop",
    "subcategory": "jewelry",
    "latitude": 34.1941778,
    "longitude": 72.0449063,
    "id": 6187997685
  },
  {
    "name": "Abdul Samad Khan's House",
    "category": "amenity",
    "subcategory": "courthouse",
    "latitude": 34.201418,
    "longitude": 71.9929696,
    "id": 6266366585
  },
  {
    "name": "F.G School",
    "category": "amenity",
    "subcategory": "school",
    "latitude": 34.2077446,
    "longitude": 72.0381013,
    "id": 6341638797
  },
  {
    "name": "Sheen Gul Restaurant",
    "category": "amenity",
    "subcategory": "restaurant",
    "latitude": 34.2075556,
    "longitude": 72.0340927,
    "id": 6341638798
  },
  {
    "name": "Defence Colony",
    "category": "tourism",
    "subcategory": "viewpoint",
    "latitude": 34.2061305,
    "longitude": 72.028623,
    "id": 6356444485
  },
  {
    "name": "Dr.Samad Hemopathic Clinic",
    "category": "amenity",
    "subcategory": "clinic",
    "latitude": 34.1956528,
    "longitude": 71.9958934,
    "id": 6416453485
  },
  {
    "name": "Gustoso Café",
    "category": "amenity",
    "subcategory": "cafe",
    "latitude": 34.1979124,
    "longitude": 72.0426482,
    "id": 6431421595
  },
  {
    "name": "Abid Ali Hair Dresser",
    "category": "shop",
    "subcategory": "hairdresser",
    "latitude": 34.1944636,
    "longitude": 72.0291107,
    "id": 6493235485
  },
  {
    "name": "Pakistan State Oil Filling Station",
    "category": "amenity",
    "subcategory": "fuel",
    "latitude": 34.207406,
    "longitude": 72.026516,
    "id": 6493235486
  },
  {
    "name": "Police Lines Mardan",
    "category": "amenity",
    "subcategory": "police",
    "latitude": 34.1944022,
    "longitude": 72.0304925,
    "id": 6493235585
  },
  {
    "name": "District Head Q",
    "category": "amenity",
    "subcategory": "hospital",
    "latitude": 34.1914888,
    "longitude": 72.0458214,
    "id": 7105268185
  },
  {
    "name": "Sardar Ali Khan’s House",
    "category": "tourism",
    "subcategory": "attraction",
    "latitude": 34.192604,
    "longitude": 72.0330124,
    "id": 7271375590
  },
  {
    "name": "Bakhshali Patwar Khana",
    "category": "tourism",
    "subcategory": "attraction",
    "latitude": 34.1925793,
    "longitude": 72.0396394,
    "id": 7271406387
  },
  {
    "name": "J M  Mobiles",
    "category": "shop",
    "subcategory": "mobile_phone",
    "latitude": 34.1916428,
    "longitude": 72.0254589,
    "id": 7437710385
  },
  {
    "name": "Shaheen Bus Terminal",
    "category": "amenity",
    "subcategory": "bus_station",
    "latitude": 34.2000233,
    "longitude": 72.025451,
    "id": 8274087117
  },
  {
    "name": "Government Girls Primary School",
    "category": "amenity",
    "subcategory": "school",
    "latitude": 34.1927089,
    "longitude": 72.0484692,
    "id": 8280575118
  },
  {
    "name": "Makka Eye Hospital",
    "category": "amenity",
    "subcategory": "hospital",
    "latitude": 34.1897462,
    "longitude": 72.0325957,
    "id": 8280575121
  },
  {
    "name": "Bata",
    "category": "shop",
    "subcategory": "shoes",
    "latitude": 34.1894618,
    "longitude": 72.0341084,
    "id": 8280575228
  },
  {
    "name": "Borjan",
    "category": "shop",
    "subcategory": "shoes",
    "latitude": 34.1963751,
    "longitude": 72.0408189,
    "id": 8280575229
  },
  {
    "name": "شیل",
    "category": "amenity",
    "subcategory": "fuel",
    "latitude": 34.2027294,
    "longitude": 72.0289122,
    "id": 8280575319
  },
  {
    "name": "Gujjaro Garhai",
    "category": "tourism",
    "subcategory": "attraction",
    "latitude": 34.2301304,
    "longitude": 72.0073375,
    "id": 8280575420
  },
  {
    "name": "Askari Bank",
    "category": "amenity",
    "subcategory": "bank",
    "latitude": 34.1988506,
    "longitude": 72.039865,
    "id": 8280575424
  },
  {
    "name": "Discount Mart",
    "category": "shop",
    "subcategory": "convenience",
    "latitude": 34.1899861,
    "longitude": 72.0323766,
    "id": 8280575426
  },
  {
    "name": "Umar Shopping Plaza",
    "category": "tourism",
    "subcategory": "artwork",
    "latitude": 34.1907244,
    "longitude": 72.034269,
    "id": 8280575427
  },
  {
    "name": "Saddat Bus Terminal",
    "category": "amenity",
    "subcategory": "bus_station",
    "latitude": 34.1926549,
    "longitude": 72.0340808,
    "id": 8280575428
  },
  {
    "name": "Mehtab Arcade",
    "category": "shop",
    "subcategory": "supermarket",
    "latitude": 34.1994543,
    "longitude": 72.0412056,
    "id": 8280575429
  },
  {
    "name": "پاکستان اسٹیٹ آئل",
    "category": "amenity",
    "subcategory": "fuel",
    "latitude": 34.1958784,
    "longitude": 72.038041,
    "id": 8280575430
  },
  {
    "name": "HBL Bank",
    "category": "amenity",
    "subcategory": "bank",
    "latitude": 34.1962533,
    "longitude": 72.0407565,
    "id": 8280575431
  },
  {
    "name": "Allied Bank",
    "category": "amenity",
    "subcategory": "bank",
    "latitude": 34.1963663,
    "longitude": 72.0407576,
    "id": 8280575432
  },
  {
    "name": "MCB",
    "category": "amenity",
    "subcategory": "bank",
    "latitude": 34.1918285,
    "longitude": 72.0490844,
    "id": 8280575517
  },
  {
    "name": "Marhaba Sweet and Baker",
    "category": "shop",
    "subcategory": "bakery",
    "latitude": 34.1919271,
    "longitude": 72.0343511,
    "id": 8280575917
  },
  {
    "name": "Allied Bank",
    "category": "amenity",
    "subcategory": "bank",
    "latitude": 34.1922434,
    "longitude": 72.0396592,
    "id": 8380396021
  },
  {
    "name": "Mardan Children Hospital",
    "category": "amenity",
    "subcategory": "hospital",
    "latitude": 34.1916901,
    "longitude": 72.0485264,
    "id": 8624885418
  },
  {
    "name": "Adil Ustad Denter",
    "category": "shop",
    "subcategory": "car_repair",
    "latitude": 34.1976463,
    "longitude": 72.0165054,
    "id": 8624886618
  },
  {
    "name": "Mano Beauty Palour",
    "category": "shop",
    "subcategory": "cosmetics",
    "latitude": 34.1935864,
    "longitude": 72.0439929,
    "id": 8805073017
  },
  {
    "name": "Sabzi Mandi",
    "category": "amenity",
    "subcategory": "marketplace",
    "latitude": 34.2005574,
    "longitude": 72.0472223,
    "id": 8922418135
  },
  {
    "name": "Sheikh Yaseen Medical Centre",
    "category": "amenity",
    "subcategory": "clinic",
    "latitude": 34.1921706,
    "longitude": 72.0438772,
    "id": 9297674018
  },
  {
    "name": "Dr.Hameed ur Rehman Cardiologist’s Clinic",
    "category": "amenity",
    "subcategory": "clinic",
    "latitude": 34.1910581,
    "longitude": 72.0303437,
    "id": 9610802717
  },
  {
    "name": "Dr. Syed Ashfaq Ali Psychiatrist’s Clinic",
    "category": "amenity",
    "subcategory": "doctors",
    "latitude": 34.1923143,
    "longitude": 72.0438788,
    "id": 9610802817
  },
  {
    "name": "Phones Master",
    "category": "shop",
    "subcategory": "mobile_phone",
    "latitude": 34.195573,
    "longitude": 72.0389749,
    "id": 10134067167
  },
  {
    "name": "Tarkan Baba Graveyard",
    "category": "amenity",
    "subcategory": "grave_yard",
    "latitude": 34.1903458,
    "longitude": 72.031044,
    "id": 10143012248
  },
  {
    "name": "Malako Boutique",
    "category": "shop",
    "subcategory": "clothes",
    "latitude": 34.1965185,
    "longitude": 72.0434325,
    "id": 11074189321
  },
  {
    "name": "National Savings Centre",
    "category": "amenity",
    "subcategory": "bank",
    "latitude": 34.2005479,
    "longitude": 72.041313,
    "id": 11801445172
  }
]