[
  {
    "name": "مردان",
    "category": "place",
    "subcategory": "city",
    "latitude": 34.1937969,
    "longitude": 72.0451467,
    "id": 279649847
  },
  {
    "name": "Muqam Chowk",
    "category": "highway",
    "subcategory": "traffic_signals",
    "latitude": 34.2065569,
    "longitude": 72.0273438,
    "id": 299115103
  },
  {
    "name": "Baghdada Chowk",
    "category": "highway",
    "subcategory": "traffic_signals",
    "latitude": 34.208467,
    "longitude": 72.0383468,
    "id": 299115108
  },
  {
    "name": "بغدادہ‎",
    "category": "place",
    "subcategory": "town",
    "latitude": 34.2293375,
    "longitude": 72.0159365,
    "id": 850069267
  },
  {
    "name": "جھنڈی",
    "category": "place",
    "subcategory": "village",
    "latitude": 34.2452954,
    "longitude": 71.9842968,
    "id": 881510479
  },
  {
    "name": "bus_stop",
    "category": "highway",
    "subcategory": "bus_stop",
    "latitude": 34.1984908,
    "longitude": 72.0441719,
    "id": 1043998868
  },
  {
    "name": "Topu Chowk",
    "category": "highway",
    "subcategory": "traffic_signals",
    "latitude": 34.1989942,
    "longitude": 72.040932,
    "id": 1944498065
  },
  {
    "name": "Bacha Khan Chowk",
    "category": "highway",
    "subcategory": "traffic_signals",
    "latitude": 34.1920332,
    "longitude": 72.0347219,
    "id": 2932155125
  },
  {
    "name": "Pakistan Chowk",
    "category": "highway",
    "subcategory": "bus_stop",
    "latitude": 34.1988392,
    "longitude": 72.0454437,
    "id": 3072498165
  },
  {
    "name": "جامعہ عبد الولی خان مردان",
    "category": "amenity",
    "subcategory": "university",
    "latitude": 34.190682,
    "longitude": 72.036798,
    "id": 3072544364
  },
  {
    "name": "Bacha Khan Monument",
    "category": "historic",
    "subcategory": "monument",
    "latitude": 34.1918347,
    "longitude": 72.0347189,
    "id": 3072544375
  },
  {
    "name": "College Chowk",
    "category": "highway",
    "subcategory": "bus_stop",
    "latitude": 34.1926134,
    "longitude": 72.0344145,
    "id": 3072544376
  },
  {
    "name": "Mardan Gate Memorial",
    "category": "historic",
    "subcategory": "memorial",
    "latitude": 34.1922504,
    "longitude": 72.0346623,
    "id": 3072544377
  },
  {
    "name": "Charsadda Chowk",
    "category": "highway",
    "subcategory": "traffic_signals",
    "latitude": 34.1979786,
    "longitude": 72.0264973,
    "id": 3074051186
  },
  {
    "name": "Dr. Abdul Qadeer Chowk",
    "category": "highway",
    "subcategory": "traffic_signals",
    "latitude": 34.1957881,
    "longitude": 72.0328927,
    "id": 3154832581
  },
  {
    "name": "place_of_worship",
    "category": "amenity",
    "subcategory": "place_of_worship",
    "latitude": 34.198258,
    "longitude": 72.0417369,
    "id": 3456940872
  },
  {
    "name": "Cricket Ground Masjid",
    "category": "amenity",
    "subcategory": "place_of_worship",
    "latitude": 34.1966697,
    "longitude": 72.0415968,
    "id": 3456940873
  },
  {
    "name": "Cricket Ground",
    "category": "leisure",
    "subcategory": "pitch",
    "latitude": 34.1970095,
    "longitude": 72.0418165,
    "id": 3456940874
  },
  {
    "name": "Al Maroof Plaza",
    "category": "shop",
    "subcategory": "mall",
    "latitude": 34.1966275,
    "longitude": 72.041221,
    "id": 3456940875
  },
  {
    "name": "Gen Post office",
    "category": "amenity",
    "subcategory": "post_office",
    "latitude": 34.1974483,
    "longitude": 72.0390164,
    "id": 3456952097
  },
  {
    "name": "Jehangir Market",
    "category": "amenity",
    "subcategory": "marketplace",
    "latitude": 34.1961244,
    "longitude": 72.0386818,
    "id": 3456952103
  },
  {
    "name": "Bickut Gunj Market",
    "category": "amenity",
    "subcategory": "marketplace",
    "latitude": 34.1956609,
    "longitude": 72.0387798,
    "id": 3456955029
  },
  {
    "name": "Kachehri Chowk",
    "category": "highway",
    "subcategory": "traffic_signals",
    "latitude": 34.1956745,
    "longitude": 72.0376631,
    "id": 3456955041
  },
  {
    "name": "Dr. Abdul Qadeer Chowk",
    "category": "tourism",
    "subcategory": "attraction",
    "latitude": 34.1958536,
    "longitude": 72.0328881,
    "id": 3456955187
  },
  {
    "name": "Nehar masjid / نہر مسجد",
    "category": "amenity",
    "subcategory": "place_of_worship",
    "latitude": 34.1940263,
    "longitude": 72.0281765,
    "id": 3456962105
  },
  {
    "name": "Govt Centtenial Model High School No.3 Mardan",
    "category": "amenity",
    "subcategory": "school",
    "latitude": 34.198805,
    "longitude": 72.0532475,
    "id": 4251840798
  },
  {
    "name": "Govt High and Secondary School No.2 Mardan",
    "category": "amenity",
    "subcategory": "school",
    "latitude": 34.1984989,
    "longitude": 72.0536456,
    "id": 4251864789
  },
  {
    "name": "place_of_worship",
    "category": "amenity",
    "subcategory": "place_of_worship",
    "latitude": 34.199145,
    "longitude": 72.0412238,
    "id": 4733065738
  },
  {
    "name": "Mardan District Courts",
    "category": "office",
    "subcategory": "lawyer",
    "latitude": 34.1957806,
    "longitude": 72.0373087,
    "id": 4798451124
  },
  {
    "name": "Irrigation Office",
    "category": "office",
    "subcategory": "government",
    "latitude": 34.1951743,
    "longitude": 72.0327104,
    "id": 4817977722
  },
  {
    "name": "نیشنل بینک آف پاکستان",
    "category": "amenity",
    "subcategory": "bank",
    "latitude": 34.1965407,
    "longitude": 72.041999,
    "id": 4831790621
  },
  {
    "name": "Raj Hardware Store",
    "category": "shop",
    "subcategory": "hardware",
    "latitude": 34.1974703,
    "longitude": 72.0522736,
    "id": 4940520021
  },
  {
    "name": "Mardan District Courts",
    "category": "office",
    "subcategory": "lawyer",
    "latitude": 34.195843,
    "longitude": 72.0370473,
    "id": 5107377723
  },
  {
    "name": "Tehsil Mardan",
    "category": "office",
    "subcategory": "government",
    "latitude": 34.1922656,
    "longitude": 72.0484445,
    "id": 5107401822
  },
  {
    "name": "Aziz Bhatti Shaheed Army Public School & College",
    "category": "amenity",
    "subcategory": "school",
    "latitude": 34.2066932,
    "longitude": 72.0389401,
    "id": 5468179921
  },
  {
    "name": "Shah Trade and Marketing",
    "category": "office",
    "subcategory": "company",
    "latitude": 34.1942983,
    "longitude": 72.0332824,
    "id": 5638452429
  },
  {
    "name": "Zeeshan Medical Centre",
    "category": "amenity",
    "subcategory": "clinic",
    "latitude": 34.1915199,
    "longitude": 72.0475934,
    "id": 5750492721
  },
  {
    "name": "Khan Amirzadah Khan’s House",
    "category": "tourism",
    "subcategory": "motel",
    "latitude": 34.1928818,
    "longitude": 72.0324548,
    "id": 6110380785
  },
  {
    "name": "MARDAN",
    "category": "highway",
    "subcategory": "bus_stop",
    "latitude": 34.1919212,
    "longitude": 72.0347136,
    "id": 6186446785
  },
  {
    "name": "Patiala Jeweller’s",
    "category": "shop",
    "subcategory": "jewelry",
    "latitude": 34.1941778,
    "longitude": 72.0449063,
    "id": 6187997685
  },
  {
    "name": "Secretariat",
    "category": "office",
    "subcategory": "government",
    "latitude": 34.1951083,
    "longitude": 72.0363281,
    "id": 6187997785
  },
  {
    "name": "Abdul Samad Khan's House",
    "category": "amenity",
    "subcategory": "courthouse",
    "latitude": 34.201418,
    "longitude": 71.9929696,
    "id": 6266366585
  },
  {
    "name": "F.G School",
    "category": "amenity",
    "subcategory": "school",
    "latitude": 34.2077446,
    "longitude": 72.0381013,
    "id": 6341638797
  },
  {
    "name": "Sheen Gul Restaurant",
    "category": "amenity",
    "subcategory": "restaurant",
    "latitude": 34.2075556,
    "longitude": 72.0340927,
    "id": 6341638798
  },
  {
    "name": "Defence Colony",
    "category": "tourism",
    "subcategory": "viewpoint",
    "latitude": 34.2061305,
    "longitude": 72.028623,
    "id": 6356444485
  },
  {
    "name": "Dr.Samad Hemopathic Clinic",
    "category": "amenity",
    "subcategory": "clinic",
    "latitude": 34.1956528,
    "longitude": 71.9958934,
    "id": 6416453485
  },
  {
    "name": "Gustoso Café",
    "category": "amenity",
    "subcategory": "cafe",
    "latitude": 34.1979124,
    "longitude": 72.0426482,
    "id": 6431421595
  },
  {
    "name": "Abid Ali Hair Dresser",
    "category": "shop",
    "subcategory": "hairdresser",
    "latitude": 34.1944636,
    "longitude": 72.0291107,
    "id": 6493235485
  },
  {
    "name": "Pakistan State Oil Filling Station",
    "category": "amenity",
    "subcategory": "fuel",
    "latitude": 34.207406,
    "longitude": 72.026516,
    "id": 6493235486
  },
  {
    "name": "Police Lines Mardan",
    "category": "amenity",
    "subcategory": "police",
    "latitude": 34.1944022,
    "longitude": 72.0304925,
    "id": 6493235585
  },
  {
    "name": "office",
    "category": "amenity",
    "subcategory": "office",
    "latitude": 34.1981342,
    "longitude": 72.0394823,
    "id": 6601147830
  },
  {
    "name": "crossing",
    "category": "highway",
    "subcategory": "crossing",
    "latitude": 34.1956985,
    "longitude": 72.0376237,
    "id": 6601147832
  },
  {
    "name": "crossing",
    "category": "highway",
    "subcategory": "crossing",
    "latitude": 34.19787,
    "longitude": 72.0397689,
    "id": 6601147833
  },
  {
    "name": "District Collector Mardan Office",
    "category": "office",
    "subcategory": "government",
    "latitude": 34.1957084,
    "longitude": 72.0367401,
    "id": 6873526685
  },
  {
    "name": "Service Delivery Centre",
    "category": "office",
    "subcategory": "government",
    "latitude": 34.1956444,
    "longitude": 72.0366166,
    "id": 6877701885
  },
  {
    "name": "District Head Q",
    "category": "amenity",
    "subcategory": "hospital",
    "latitude": 34.1914888,
    "longitude": 72.0458214,
    "id": 7105268185
  },
  {
    "name": "Sardar Ali Khan’s House",
    "category": "tourism",
    "subcategory": "attraction",
    "latitude": 34.192604,
    "longitude": 72.0330124,
    "id": 7271375590
  },
  {
    "name": "Commissioner Mardan Division Mardan",
    "category": "office",
    "subcategory": "government",
    "latitude": 34.1946316,
    "longitude": 72.035925,
    "id": 7271394987
  },
  {
    "name": "Bakhshali Patwar Khana",
    "category": "tourism",
    "subcategory": "attraction",
    "latitude": 34.1925793,
    "longitude": 72.0396394,
    "id": 7271406387
  },
  {
    "name": "J M  Mobiles",
    "category": "shop",
    "subcategory": "mobile_phone",
    "latitude": 34.1916428,
    "longitude": 72.0254589,
    "id": 7437710385
  },
  {
    "name": "townhall",
    "category": "amenity",
    "subcategory": "townhall",
    "latitude": 34.1930701,
    "longitude": 72.0357287,
    "id": 7603513141
  },
  {
    "name": "Educaion Consultants",
    "category": "office",
    "subcategory": "consulting",
    "latitude": 34.1987265,
    "longitude": 72.0315278,
    "id": 8058030945
  },
  {
    "name": "Shaheen Bus Terminal",
    "category": "amenity",
    "subcategory": "bus_station",
    "latitude": 34.2000233,
    "longitude": 72.025451,
    "id": 8274087117
  },
  {
    "name": "Government Girls Primary School",
    "category": "amenity",
    "subcategory": "school",
    "latitude": 34.1927089,
    "longitude": 72.0484692,
    "id": 8280575118
  },
  {
    "name": "Makka Eye Hospital",
    "category": "amenity",
    "subcategory": "hospital",
    "latitude": 34.1897462,
    "longitude": 72.0325957,
    "id": 8280575121
  },
  {
    "name": "Bata",
    "category": "shop",
    "subcategory": "shoes",
    "latitude": 34.1894618,
    "longitude": 72.0341084,
    "id": 8280575228
  },
  {
    "name": "Borjan",
    "category": "shop",
    "subcategory": "shoes",
    "latitude": 34.1963751,
    "longitude": 72.0408189,
    "id": 8280575229
  },
  {
    "name": "شیل",
    "category": "amenity",
    "subcategory": "fuel",
    "latitude": 34.2027294,
    "longitude": 72.0289122,
    "id": 8280575319
  },
  {
    "name": "Gujjaro Garhai",
    "category": "tourism",
    "subcategory": "attraction",
    "latitude": 34.2301304,
    "longitude": 72.0073375,
    "id": 8280575420
  },
  {
    "name": "Askari Bank",
    "category": "amenity",
    "subcategory": "bank",
    "latitude": 34.1988506,
    "longitude": 72.039865,
    "id": 8280575424
  },
  {
    "name": "Discount Mart",
    "category": "shop",
    "subcategory": "convenience",
    "latitude": 34.1899861,
    "longitude": 72.0323766,
    "id": 8280575426
  },
  {
    "name": "Umar Shopping Plaza",
    "category": "tourism",
    "subcategory": "artwork",
    "latitude": 34.1907244,
    "longitude": 72.034269,
    "id": 8280575427
  },
  {
    "name": "Saddat Bus Terminal",
    "category": "amenity",
    "subcategory": "bus_station",
    "latitude": 34.1926549,
    "longitude": 72.0340808,
    "id": 8280575428
  },
  {
    "name": "Mehtab Arcade",
    "category": "shop",
    "subcategory": "supermarket",
    "latitude": 34.1994543,
    "longitude": 72.0412056,
    "id": 8280575429
  },
  {
    "name": "پاکستان اسٹیٹ آئل",
    "category": "amenity",
    "subcategory": "fuel",
    "latitude": 34.1958784,
    "longitude": 72.038041,
    "id": 8280575430
  },
  {
    "name": "HBL Bank",
    "category": "amenity",
    "subcategory": "bank",
    "latitude": 34.1962533,
    "longitude": 72.0407565,
    "id": 8280575431
  },
  {
    "name": "Allied Bank",
    "category": "amenity",
    "subcategory": "bank",
    "latitude": 34.1963663,
    "longitude": 72.0407576,
    "id": 8280575432
  },
  {
    "name": "MCB",
    "category": "amenity",
    "subcategory": "bank",
    "latitude": 34.1918285,
    "longitude": 72.0490844,
    "id": 8280575517
  },
  {
    "name": "TCS Courier",
    "category": "office",
    "subcategory": "company",
    "latitude": 34.1913751,
    "longitude": 72.0345277,
    "id": 8280575826
  },
  {
    "name": "Marhaba Sweet and Baker",
    "category": "shop",
    "subcategory": "bakery",
    "latitude": 34.1919271,
    "longitude": 72.0343511,
    "id": 8280575917
  },
  {
    "name": "Allied Bank",
    "category": "amenity",
    "subcategory": "bank",
    "latitude": 34.1922434,
    "longitude": 72.0396592,
    "id": 8380396021
  },
  {
    "name": "Mardan Children Hospital",
    "category": "amenity",
    "subcategory": "hospital",
    "latitude": 34.1916901,
    "longitude": 72.0485264,
    "id": 8624885418
  },
  {
    "name": "Adil Ustad Denter",
    "category": "shop",
    "subcategory": "car_repair",
    "latitude": 34.1976463,
    "longitude": 72.0165054,
    "id": 8624886618
  },
  {
    "name": "Mano Beauty Palour",
    "category": "shop",
    "subcategory": "cosmetics",
    "latitude": 34.1935864,
    "longitude": 72.0439929,
    "id": 8805073017
  },
  {
    "name": "شنکر",
    "category": "place",
    "subcategory": "village",
    "latitude": 34.2503322,
    "longitude": 72.0485201,
    "id": 8884062670
  },
  {
    "name": "نصیر کلے",
    "category": "place",
    "subcategory": "village",
    "latitude": 34.2599471,
    "longitude": 72.0425403,
    "id": 8884062675
  },
  {
    "name": "شیخ کلے",
    "category": "place",
    "subcategory": "hamlet",
    "latitude": 34.2643452,
    "longitude": 72.0418236,
    "id": 8884062691
  },
  {
    "name": "ساجد اکبر کلے",
    "category": "place",
    "subcategory": "village",
    "latitude": 34.2613091,
    "longitude": 72.0337129,
    "id": 8884062692
  },
  {
    "name": "غانی شیخ کلے",
    "category": "place",
    "subcategory": "hamlet",
    "latitude": 34.2668966,
    "longitude": 72.0356451,
    "id": 8884062693
  },
  {
    "name": "غزکلے",
    "category": "place",
    "subcategory": "village",
    "latitude": 34.2531173,
    "longitude": 72.0253029,
    "id": 8884062703
  },
  {
    "name": "چیل بانڈہ",
    "category": "place",
    "subcategory": "hamlet",
    "latitude": 34.2344068,
    "longitude": 71.9910201,
    "id": 8884062715
  },
  {
    "name": "میرامان کلے",
    "category": "place",
    "subcategory": "hamlet",
    "latitude": 34.23796,
    "longitude": 71.9812195,
    "id": 8884062716
  },
  {
    "name": "Sabzi Mandi",
    "category": "amenity",
    "subcategory": "marketplace",
    "latitude": 34.2005574,
    "longitude": 72.0472223,
    "id": 8922418135
  },
  {
    "name": "Sheikh Yaseen Medical Centre",
    "category": "amenity",
    "subcategory": "clinic",
    "latitude": 34.1921706,
    "longitude": 72.0438772,
    "id": 9297674018
  },
  {
    "name": "مياگانو کلے",
    "category": "place",
    "subcategory": "village",
    "latitude": 34.2628172,
    "longitude": 72.0106355,
    "id": 9552574778
  },
  {
    "name": "سواتیانوں کلے",
    "category": "place",
    "subcategory": "village",
    "latitude": 34.2596939,
    "longitude": 72.0119945,
    "id": 9552574796
  },
  {
    "name": "قاضی کلے",
    "category": "place",
    "subcategory": "village",
    "latitude": 34.2648349,
    "longitude": 71.9795703,
    "id": 9552574825
  },
  {
    "name": "Dr.Hameed ur Rehman Cardiologist’s Clinic",
    "category": "amenity",
    "subcategory": "clinic",
    "latitude": 34.1910581,
    "longitude": 72.0303437,
    "id": 9610802717
  },
  {
    "name": "Dr. Syed Ashfaq Ali Psychiatrist’s Clinic",
    "category": "amenity",
    "subcategory": "doctors",
    "latitude": 34.1923143,
    "longitude": 72.0438788,
    "id": 9610802817
  },
  {
    "name": "Phones Master",
    "category": "shop",
    "subcategory": "mobile_phone",
    "latitude": 34.195573,
    "longitude": 72.0389749,
    "id": 10134067167
  },
  {
    "name": "Tarkan Baba Graveyard",
    "category": "amenity",
    "subcategory": "grave_yard",
    "latitude": 34.1903458,
    "longitude": 72.031044,
    "id": 10143012248
  },
  {
    "name": "Malako Boutique",
    "category": "shop",
    "subcategory": "clothes",
    "latitude": 34.1965185,
    "longitude": 72.0434325,
    "id": 11074189321
  },
  {
    "name": "National Savings Centre",
    "category": "amenity",
    "subcategory": "bank",
    "latitude": 34.2005479,
    "longitude": 72.041313,
    "id": 11801445172
  },
  {
    "name": "bus_station",
    "category": "amenity",
    "subcategory": "bus_station",
    "latitude": 34.1974676,
    "longitude": 72.0282374,
    "id": 13109983201
  },
  {
    "name": "museum",
    "category": "tourism",
    "subcategory": "museum",
    "latitude": 34.1970095,
    "longitude": 72.0187331,
    "id": 13109983301
  },
  {
    "name": "bus_station",
    "category": "amenity",
    "subcategory": "bus_station",
    "latitude": 34.1987125,
    "longitude": 72.0256263,
    "id": 13109983401
  },
  {
    "name": "guest_house",
    "category": "tourism",
    "subcategory": "guest_house",
    "latitude": 34.2113257,
    "longitude": 72.0262755,
    "id": 13373277601
  },
  {
    "name": "Khatam Jan Kalay",
    "category": "place",
    "subcategory": "village",
    "latitude": 34.2614335,
    "longitude": 71.9820689,
    "id": 13414414745
  },
  {
    "name": "Mirbaz Ghaz Kalay",
    "category": "place",
    "subcategory": "village",
    "latitude": 34.2620167,
    "longitude": 71.9873699,
    "id": 13414414746
  },
  {
    "name": "Jahangirabad",
    "category": "place",
    "subcategory": "village",
    "latitude": 34.254902,
    "longitude": 71.990569,
    "id": 13414414747
  },
  {
    "name": "Qamargai",
    "category": "place",
    "subcategory": "village",
    "latitude": 34.2510411,
    "longitude": 71.9850423,
    "id": 13414414748
  },
  {
    "name": "Masjid Muhammad Hussain Koruna",
    "category": "place",
    "subcategory": "hamlet",
    "latitude": 34.2585333,
    "longitude": 71.9784653,
    "id": 13420679152
  },
  {
    "name": "ڈپٹی کلے",
    "category": "place",
    "subcategory": "village",
    "latitude": 34.2254396,
    "longitude": 71.9812406,
    "id": 13420679156
  },
  {
    "name": "Baja Kalay",
    "category": "place",
    "subcategory": "village",
    "latitude": 34.2122188,
    "longitude": 71.9920798,
    "id": 13420679158
  },
  {
    "name": "Zakirabad",
    "category": "place",
    "subcategory": "village",
    "latitude": 34.2124144,
    "longitude": 72.0005134,
    "id": 13420679159
  },
  {
    "name": "Khanzadgul Kalay",
    "category": "place",
    "subcategory": "village",
    "latitude": 34.2096979,
    "longitude": 71.989195,
    "id": 13420679160
  },
  {
    "name": "Sattarabad",
    "category": "place",
    "subcategory": "village",
    "latitude": 34.2070514,
    "longitude": 71.9894566,
    "id": 13420679161
  },
  {
    "name": "مردان - مالاکنڈ روڈ",
    "category": "highway",
    "subcategory": "trunk",
    "latitude": 34.248337127999996,
    "longitude": 71.97690361,
    "id": 25654392
  },
  {
    "name": "Baghdada-Par Hoti Road",
    "category": "highway",
    "subcategory": "primary",
    "latitude": 34.209119650000005,
    "longitude": 72.04099645,
    "id": 28054277
  },
  {
    "name": "Baghdada-Par Hoti Road",
    "category": "highway",
    "subcategory": "primary",
    "latitude": 34.20797888181818,
    "longitude": 72.05482601636363,
    "id": 28054280
  },
  {
    "name": "Bypass Road",
    "category": "highway",
    "subcategory": "primary",
    "latitude": 34.17868257714285,
    "longitude": 72.02581544857144,
    "id": 28054334
  },
  {
    "name": "trunk",
    "category": "highway",
    "subcategory": "trunk",
    "latitude": 34.19719494473684,
    "longitude": 72.01631817894737,
    "id": 28248572
  },
  {
    "name": "Bypass Road",
    "category": "highway",
    "subcategory": "primary",
    "latitude": 34.21197626666667,
    "longitude": 72.02174533750001,
    "id": 28250610
  },
  {
    "name": "Bank Road",
    "category": "highway",
    "subcategory": "secondary",
    "latitude": 34.196899464285714,
    "longitude": 72.04159742142858,
    "id": 31546891
  },
  {
    "name": "مردان - مالاکنڈ روڈ",
    "category": "highway",
    "subcategory": "trunk",
    "latitude": 34.19024278333333,
    "longitude": 72.0343825,
    "id": 35464503
  },
  {
    "name": "Nisatta Road",
    "category": "highway",
    "subcategory": "secondary",
    "latitude": 34.1939709,
    "longitude": 72.0282556,
    "id": 45610976
  },
  {
    "name": "Nisatta Road",
    "category": "highway",
    "subcategory": "secondary",
    "latitude": 34.193522362500005,
    "longitude": 72.027124875,
    "id": 45610977
  },
  {
    "name": "residential",
    "category": "highway",
    "subcategory": "residential",
    "latitude": 34.21232553703704,
    "longitude": 71.99786323703704,
    "id": 45610978
  },
  {
    "name": "unclassified",
    "category": "highway",
    "subcategory": "unclassified",
    "latitude": 34.2081034,
    "longitude": 72.02280350000001,
    "id": 45610979
  },
  {
    "name": "unclassified",
    "category": "highway",
    "subcategory": "unclassified",
    "latitude": 34.207844,
    "longitude": 72.02450346,
    "id": 45610980
  },
  {
    "name": "unclassified",
    "category": "highway",
    "subcategory": "unclassified",
    "latitude": 34.198125499999996,
    "longitude": 72.02101023333334,
    "id": 54638105
  },
  {
    "name": "unclassified",
    "category": "highway",
    "subcategory": "unclassified",
    "latitude": 34.1985562,
    "longitude": 72.01933825,
    "id": 54638106
  },
  {
    "name": "living_street",
    "category": "highway",
    "subcategory": "living_street",
    "latitude": 34.193779075,
    "longitude": 72.022222125,
    "id": 54638107
  },
  {
    "name": "living_street",
    "category": "highway",
    "subcategory": "living_street",
    "latitude": 34.19448807777778,
    "longitude": 72.02251002222222,
    "id": 54638108
  },
  {
    "name": "unclassified",
    "category": "highway",
    "subcategory": "unclassified",
    "latitude": 34.19889665714286,
    "longitude": 72.03569355714286,
    "id": 70951273
  },
  {
    "name": "residential",
    "category": "highway",
    "subcategory": "residential",
    "latitude": 34.193788075,
    "longitude": 72.0425378,
    "id": 70951275
  },
  {
    "name": "tertiary",
    "category": "highway",
    "subcategory": "tertiary",
    "latitude": 34.23661395714286,
    "longitude": 72.00645906428572,
    "id": 71403324
  },
  {
    "name": "unclassified",
    "category": "highway",
    "subcategory": "unclassified",
    "latitude": 34.234893615,
    "longitude": 72.01414233,
    "id": 71403325
  },
  {
    "name": "living_street",
    "category": "highway",
    "subcategory": "living_street",
    "latitude": 34.22902232,
    "longitude": 72.01845322,
    "id": 71403326
  },
  {
    "name": "unclassified",
    "category": "highway",
    "subcategory": "unclassified",
    "latitude": 34.22105280555556,
    "longitude": 72.0249256,
    "id": 71403329
  },
  {
    "name": "unclassified",
    "category": "highway",
    "subcategory": "unclassified",
    "latitude": 34.2259698,
    "longitude": 72.01861846896551,
    "id": 71403330
  },
  {
    "name": "residential",
    "category": "highway",
    "subcategory": "residential",
    "latitude": 34.23029112,
    "longitude": 72.01221088999999,
    "id": 71403332
  },
  {
    "name": "residential",
    "category": "highway",
    "subcategory": "residential",
    "latitude": 34.230067915999996,
    "longitude": 72.017095156,
    "id": 71403333
  },
  {
    "name": "tertiary",
    "category": "highway",
    "subcategory": "tertiary",
    "latitude": 34.23383590625,
    "longitude": 72.01755484375,
    "id": 71403334
  },
  {
    "name": "unclassified",
    "category": "highway",
    "subcategory": "unclassified",
    "latitude": 34.23061607727273,
    "longitude": 72.0208554,
    "id": 71403337
  },
  {
    "name": "unclassified",
    "category": "highway",
    "subcategory": "unclassified",
    "latitude": 34.23062452,
    "longitude": 72.02233477,
    "id": 71403338
  },
  {
    "name": "unclassified",
    "category": "highway",
    "subcategory": "unclassified",
    "latitude": 34.23041375652174,
    "longitude": 72.03616271304348,
    "id": 71404113
  },
  {
    "name": "residential",
    "category": "landuse",
    "subcategory": "residential",
    "latitude": 34.234618639999994,
    "longitude": 72.03396224000001,
    "id": 71404115
  },
  {
    "name": "residential",
    "category": "landuse",
    "subcategory": "residential",
    "latitude": 34.23041242,
    "longitude": 72.0356424,
    "id": 71404117
  },
  {
    "name": "residential",
    "category": "landuse",
    "subcategory": "residential",
    "latitude": 34.22586177,
    "longitude": 72.03951015999999,
    "id": 71404118
  },
  {
    "name": "unclassified",
    "category": "highway",
    "subcategory": "unclassified",
    "latitude": 34.25163746842105,
    "longitude": 72.01783094736842,
    "id": 71404120
  },
  {
    "name": "unclassified",
    "category": "highway",
    "subcategory": "unclassified",
    "latitude": 34.2154175,
    "longitude": 72.03531463499999,
    "id": 71404121
  },
  {
    "name": "tertiary",
    "category": "highway",
    "subcategory": "tertiary",
    "latitude": 34.21724801388889,
    "longitude": 72.05430740277778,
    "id": 71404123
  },
  {
    "name": "unclassified",
    "category": "highway",
    "subcategory": "unclassified",
    "latitude": 34.244563105,
    "longitude": 72.022259335,
    "id": 71404124
  },
  {
    "name": "unclassified",
    "category": "highway",
    "subcategory": "unclassified",
    "latitude": 34.24351115,
    "longitude": 72.020775625,
    "id": 71404126
  },
  {
    "name": "residential",
    "category": "landuse",
    "subcategory": "residential",
    "latitude": 34.24228699230769,
    "longitude": 72.02132318461538,
    "id": 71404127
  },
  {
    "name": "unclassified",
    "category": "highway",
    "subcategory": "unclassified",
    "latitude": 34.27252129473684,
    "longitude": 72.04258198421053,
    "id": 71404587
  },
  {
    "name": "residential",
    "category": "landuse",
    "subcategory": "residential",
    "latitude": 34.26278405,
    "longitude": 72.05625463,
    "id": 71404598
  },
  {
    "name": "tertiary",
    "category": "highway",
    "subcategory": "tertiary",
    "latitude": 34.26992896,
    "longitude": 72.04898344,
    "id": 71404601
  },
  {
    "name": "residential",
    "category": "landuse",
    "subcategory": "residential",
    "latitude": 34.24902935714285,
    "longitude": 72.04702784285713,
    "id": 71404619
  },
  {
    "name": "residential",
    "category": "landuse",
    "subcategory": "residential",
    "latitude": 34.251233125,
    "longitude": 72.05225814166667,
    "id": 71404620
  },
  {
    "name": "unclassified",
    "category": "highway",
    "subcategory": "unclassified",
    "latitude": 34.25169488888889,
    "longitude": 72.0587763,
    "id": 71404623
  },
  {
    "name": "unclassified",
    "category": "highway",
    "subcategory": "unclassified",
    "latitude": 34.2610214,
    "longitude": 72.05626626,
    "id": 71404624
  },
  {
    "name": "residential",
    "category": "landuse",
    "subcategory": "residential",
    "latitude": 34.235026946153845,
    "longitude": 72.0474380076923,
    "id": 71404626
  },
  {
    "name": "residential",
    "category": "landuse",
    "subcategory": "residential",
    "latitude": 34.23630746,
    "longitude": 72.0441332,
    "id": 71404627
  },
  {
    "name": "residential",
    "category": "landuse",
    "subcategory": "residential",
    "latitude": 34.23652547647059,
    "longitude": 72.04995554705883,
    "id": 71404628
  },
  {
    "name": "residential",
    "category": "highway",
    "subcategory": "residential",
    "latitude": 34.23942536,
    "longitude": 72.04335714999999,
    "id": 71404629
  },
  {
    "name": "residential",
    "category": "highway",
    "subcategory": "residential",
    "latitude": 34.24337137142857,
    "longitude": 72.0402265142857,
    "id": 71404630
  },
  {
    "name": "residential",
    "category": "landuse",
    "subcategory": "residential",
    "latitude": 34.233110571428575,
    "longitude": 72.04554164285715,
    "id": 71404631
  },
  {
    "name": "residential",
    "category": "highway",
    "subcategory": "residential",
    "latitude": 34.22178337142857,
    "longitude": 72.01106111428571,
    "id": 71445111
  },
  {
    "name": "residential",
    "category": "highway",
    "subcategory": "residential",
    "latitude": 34.22383345,
    "longitude": 72.01310745,
    "id": 71445112
  },
  {
    "name": "residential",
    "category": "highway",
    "subcategory": "residential",
    "latitude": 34.225601142857144,
    "longitude": 72.00695242857144,
    "id": 71445116
  },
  {
    "name": "unclassified",
    "category": "highway",
    "subcategory": "unclassified",
    "latitude": 34.2223081,
    "longitude": 72.01378763636363,
    "id": 71445121
  },
  {
    "name": "residential",
    "category": "landuse",
    "subcategory": "residential",
    "latitude": 34.244965916666665,
    "longitude": 71.98771065,
    "id": 71447730
  },
  {
    "name": "residential",
    "category": "landuse",
    "subcategory": "residential",
    "latitude": 34.24721337647059,
    "longitude": 71.98830591764705,
    "id": 71447741
  },
  {
    "name": "residential",
    "category": "highway",
    "subcategory": "residential",
    "latitude": 34.24708375454546,
    "longitude": 71.98783912727272,
    "id": 71447757
  },
  {
    "name": "residential",
    "category": "highway",
    "subcategory": "residential",
    "latitude": 34.25282851071429,
    "longitude": 71.98736927857144,
    "id": 71447773
  },
  {
    "name": "unclassified",
    "category": "highway",
    "subcategory": "unclassified",
    "latitude": 34.25186339565217,
    "longitude": 71.98059763043479,
    "id": 71447781
  },
  {
    "name": "residential",
    "category": "landuse",
    "subcategory": "residential",
    "latitude": 34.2409970125,
    "longitude": 71.9948958625,
    "id": 71447795
  },
  {
    "name": "residential",
    "category": "landuse",
    "subcategory": "residential",
    "latitude": 34.24229634,
    "longitude": 71.98994263333334,
    "id": 71447805
  },
  {
    "name": "unclassified",
    "category": "highway",
    "subcategory": "unclassified",
    "latitude": 34.25772595147059,
    "longitude": 71.98085863235295,
    "id": 71447820
  },
  {
    "name": "residential",
    "category": "landuse",
    "subcategory": "residential",
    "latitude": 34.24529405217391,
    "longitude": 71.98481769565217,
    "id": 71447835
  },
  {
    "name": "residential",
    "category": "landuse",
    "subcategory": "residential",
    "latitude": 34.242867520000004,
    "longitude": 71.9845031,
    "id": 71447842
  },
  {
    "name": "unclassified",
    "category": "highway",
    "subcategory": "unclassified",
    "latitude": 34.22646190666667,
    "longitude": 72.01192701333333,
    "id": 71447858
  },
  {
    "name": "residential",
    "category": "highway",
    "subcategory": "residential",
    "latitude": 34.22482472,
    "longitude": 72.01307916,
    "id": 71447865
  },
  {
    "name": "residential",
    "category": "landuse",
    "subcategory": "residential",
    "latitude": 34.23918067142857,
    "longitude": 72.00209318571429,
    "id": 71447881
  },
  {
    "name": "unclassified",
    "category": "highway",
    "subcategory": "unclassified",
    "latitude": 34.24172399705883,
    "longitude": 71.99291128529411,
    "id": 71447893
  },
  {
    "name": "unclassified",
    "category": "highway",
    "subcategory": "unclassified",
    "latitude": 34.256507,
    "longitude": 71.98926138,
    "id": 71448398
  },
  {
    "name": "trunk",
    "category": "highway",
    "subcategory": "trunk",
    "latitude": 34.19392483684211,
    "longitude": 71.9752576263158,
    "id": 72005124
  },
  {
    "name": "residential",
    "category": "highway",
    "subcategory": "residential",
    "latitude": 34.18853362,
    "longitude": 72.05146241,
    "id": 72161016
  },
  {
    "name": "residential",
    "category": "landuse",
    "subcategory": "residential",
    "latitude": 34.26447061666667,
    "longitude": 72.042076,
    "id": 72195110
  },
  {
    "name": "residential",
    "category": "landuse",
    "subcategory": "residential",
    "latitude": 34.25006699473684,
    "longitude": 72.03640664210526,
    "id": 72195116
  },
  {
    "name": "residential",
    "category": "landuse",
    "subcategory": "residential",
    "latitude": 34.25987326,
    "longitude": 72.04284198666667,
    "id": 72195157
  },
  {
    "name": "tertiary",
    "category": "highway",
    "subcategory": "tertiary",
    "latitude": 34.258371026666666,
    "longitude": 72.01903638,
    "id": 72195253
  },
  {
    "name": "unclassified",
    "category": "highway",
    "subcategory": "unclassified",
    "latitude": 34.263272666666666,
    "longitude": 72.04189173333333,
    "id": 72195296
  },
  {
    "name": "tertiary",
    "category": "highway",
    "subcategory": "tertiary",
    "latitude": 34.25038202692308,
    "longitude": 72.04062824615384,
    "id": 72195301
  },
  {
    "name": "tertiary",
    "category": "highway",
    "subcategory": "tertiary",
    "latitude": 34.197788,
    "longitude": 72.05405612857143,
    "id": 72300102
  },
  {
    "name": "Younus Stadium",
    "category": "leisure",
    "subcategory": "pitch",
    "latitude": 34.200468625,
    "longitude": 72.045784925,
    "id": 72300106
  },
  {
    "name": "tertiary",
    "category": "highway",
    "subcategory": "tertiary",
    "latitude": 34.1988869375,
    "longitude": 72.0508351,
    "id": 72300133
  },
  {
    "name": "unclassified",
    "category": "highway",
    "subcategory": "unclassified",
    "latitude": 34.257116008,
    "longitude": 71.999151164,
    "id": 72353075
  },
  {
    "name": "unclassified",
    "category": "highway",
    "subcategory": "unclassified",
    "latitude": 34.244491576,
    "longitude": 72.006189056,
    "id": 72353078
  },
  {
    "name": "tertiary",
    "category": "highway",
    "subcategory": "tertiary",
    "latitude": 34.26781006764706,
    "longitude": 72.00355470588235,
    "id": 72353083
  },
  {
    "name": "residential",
    "category": "landuse",
    "subcategory": "residential",
    "latitude": 34.26386413636364,
    "longitude": 72.01072791818181,
    "id": 72353084
  },
  {
    "name": "residential",
    "category": "landuse",
    "subcategory": "residential",
    "latitude": 34.265547142857145,
    "longitude": 72.00646567142857,
    "id": 72353085
  },
  {
    "name": "unclassified",
    "category": "highway",
    "subcategory": "unclassified",
    "latitude": 34.278808925,
    "longitude": 72.0116564625,
    "id": 72353145
  },
  {
    "name": "tertiary",
    "category": "highway",
    "subcategory": "tertiary",
    "latitude": 34.27405408571428,
    "longitude": 72.01792715,
    "id": 72353171
  },
  {
    "name": "tertiary",
    "category": "highway",
    "subcategory": "tertiary",
    "latitude": 34.23034255,
    "longitude": 72.00583165,
    "id": 72519593
  },
  {
    "name": "tertiary",
    "category": "highway",
    "subcategory": "tertiary",
    "latitude": 34.2267941125,
    "longitude": 71.9901665375,
    "id": 72519594
  },
  {
    "name": "tertiary",
    "category": "highway",
    "subcategory": "tertiary",
    "latitude": 34.23198824666667,
    "longitude": 71.98091731999999,
    "id": 72519607
  },
  {
    "name": "Shahzad - Par Hoti Road",
    "category": "highway",
    "subcategory": "tertiary",
    "latitude": 34.215960445,
    "longitude": 72.05994629,
    "id": 72524965
  },
  {
    "name": "tertiary",
    "category": "highway",
    "subcategory": "tertiary",
    "latitude": 34.243024685,
    "longitude": 72.06434003000001,
    "id": 72524967
  },
  {
    "name": "residential",
    "category": "highway",
    "subcategory": "residential",
    "latitude": 34.198146666666666,
    "longitude": 72.0392661,
    "id": 72571305
  },
  {
    "name": "tertiary",
    "category": "highway",
    "subcategory": "tertiary",
    "latitude": 34.18940364,
    "longitude": 71.99996598,
    "id": 72622867
  },
  {
    "name": "unclassified",
    "category": "highway",
    "subcategory": "unclassified",
    "latitude": 34.1909096,
    "longitude": 71.9929523,
    "id": 72622896
  },
  {
    "name": "tertiary",
    "category": "highway",
    "subcategory": "tertiary",
    "latitude": 34.203874073076925,
    "longitude": 71.99187886153847,
    "id": 72622919
  },
  {
    "name": "tertiary",
    "category": "highway",
    "subcategory": "tertiary",
    "latitude": 34.2202763,
    "longitude": 71.98406718999999,
    "id": 72622921
  },
  {
    "name": "residential",
    "category": "highway",
    "subcategory": "residential",
    "latitude": 34.1888841,
    "longitude": 72.0529704,
    "id": 72663729
  },
  {
    "name": "residential",
    "category": "highway",
    "subcategory": "residential",
    "latitude": 34.19586138,
    "longitude": 72.04420812,
    "id": 72663733
  },
  {
    "name": "tertiary",
    "category": "highway",
    "subcategory": "tertiary",
    "latitude": 34.19961474545455,
    "longitude": 72.04855633636363,
    "id": 72663735
  },
  {
    "name": "unclassified",
    "category": "highway",
    "subcategory": "unclassified",
    "latitude": 34.199647722222224,
    "longitude": 72.04980446666667,
    "id": 72663736
  },
  {
    "name": "residential",
    "category": "highway",
    "subcategory": "residential",
    "latitude": 34.19943038461538,
    "longitude": 72.05180426153846,
    "id": 72663737
  },
  {
    "name": "residential",
    "category": "highway",
    "subcategory": "residential",
    "latitude": 34.200231933333335,
    "longitude": 72.04819542222222,
    "id": 72663738
  },
  {
    "name": "Eid Gah road",
    "category": "highway",
    "subcategory": "tertiary",
    "latitude": 34.19423027692308,
    "longitude": 72.04776354615385,
    "id": 72663739
  },
  {
    "name": "Company Park",
    "category": "leisure",
    "subcategory": "park",
    "latitude": 34.19748990833333,
    "longitude": 72.04166171666667,
    "id": 72663742
  },
  {
    "name": "tertiary",
    "category": "highway",
    "subcategory": "tertiary",
    "latitude": 34.20462981,
    "longitude": 72.051728325,
    "id": 72663745
  },
  {
    "name": "residential",
    "category": "highway",
    "subcategory": "residential",
    "latitude": 34.193547625,
    "longitude": 72.041653075,
    "id": 72663753
  },
  {
    "name": "residential",
    "category": "highway",
    "subcategory": "residential",
    "latitude": 34.193885375,
    "longitude": 72.0410857625,
    "id": 72663756
  },
  {
    "name": "residential",
    "category": "highway",
    "subcategory": "residential",
    "latitude": 34.19348615,
    "longitude": 72.039675875,
    "id": 72663759
  },
  {
    "name": "Shamsi Road",
    "category": "highway",
    "subcategory": "primary",
    "latitude": 34.19250882105263,
    "longitude": 72.0387675368421,
    "id": 72663771
  },
  {
    "name": "جامعہ عبد الولی خان مردان",
    "category": "amenity",
    "subcategory": "college",
    "latitude": 34.19100803333333,
    "longitude": 72.03710455,
    "id": 72663776
  },
  {
    "name": "pitch",
    "category": "leisure",
    "subcategory": "pitch",
    "latitude": 34.19048026666667,
    "longitude": 72.03844508571429,
    "id": 72663779
  },
  {
    "name": "residential",
    "category": "highway",
    "subcategory": "residential",
    "latitude": 34.1908665875,
    "longitude": 72.0447482875,
    "id": 72663788
  },
  {
    "name": "residential",
    "category": "highway",
    "subcategory": "residential",
    "latitude": 34.190926983333334,
    "longitude": 72.0433006,
    "id": 72663792
  },
  {
    "name": "residential",
    "category": "highway",
    "subcategory": "residential",
    "latitude": 34.1907854,
    "longitude": 72.04250006666666,
    "id": 72663795
  },
  {
    "name": "Said Jalal e Bukhari Graveyard",
    "category": "landuse",
    "subcategory": "cemetery",
    "latitude": 34.19779870952381,
    "longitude": 72.05477497142857,
    "id": 72663803
  },
  {
    "name": "water",
    "category": "natural",
    "subcategory": "water",
    "latitude": 34.20052542610838,
    "longitude": 72.05750650049261,
    "id": 72663826
  },
  {
    "name": "residential",
    "category": "highway",
    "subcategory": "residential",
    "latitude": 34.18807804769231,
    "longitude": 72.05805622615385,
    "id": 72663828
  },
  {
    "name": "residential",
    "category": "landuse",
    "subcategory": "residential",
    "latitude": 34.186230869999996,
    "longitude": 71.998302625,
    "id": 72664660
  },
  {
    "name": "residential",
    "category": "landuse",
    "subcategory": "residential",
    "latitude": 34.19134055,
    "longitude": 71.9988650625,
    "id": 72664662
  },
  {
    "name": "residential",
    "category": "landuse",
    "subcategory": "residential",
    "latitude": 34.18823935555556,
    "longitude": 71.99323527777777,
    "id": 72664670
  },
  {
    "name": "tertiary",
    "category": "highway",
    "subcategory": "tertiary",
    "latitude": 34.19643179642857,
    "longitude": 71.97258800714286,
    "id": 72664679
  },
  {
    "name": "unclassified",
    "category": "highway",
    "subcategory": "unclassified",
    "latitude": 34.18671834285714,
    "longitude": 72.00433826428572,
    "id": 72664692
  },
  {
    "name": "unclassified",
    "category": "highway",
    "subcategory": "unclassified",
    "latitude": 34.19710565,
    "longitude": 72.0047041375,
    "id": 72666184
  },
  {
    "name": "unclassified",
    "category": "highway",
    "subcategory": "unclassified",
    "latitude": 34.20188784736842,
    "longitude": 72.00722832105264,
    "id": 72666185
  },
  {
    "name": "unclassified",
    "category": "highway",
    "subcategory": "unclassified",
    "latitude": 34.235370610000004,
    "longitude": 71.99405748000001,
    "id": 72666187
  },
  {
    "name": "unclassified",
    "category": "highway",
    "subcategory": "unclassified",
    "latitude": 34.231411783333336,
    "longitude": 71.99543201666667,
    "id": 72666188
  },
  {
    "name": "کینال روڈ",
    "category": "highway",
    "subcategory": "tertiary",
    "latitude": 34.203812985714286,
    "longitude": 72.02434174285715,
    "id": 72666189
  },
  {
    "name": "unclassified",
    "category": "highway",
    "subcategory": "unclassified",
    "latitude": 34.20814083928572,
    "longitude": 72.016697075,
    "id": 72666190
  },
  {
    "name": "residential",
    "category": "highway",
    "subcategory": "residential",
    "latitude": 34.263813975000005,
    "longitude": 71.97803945,
    "id": 72667070
  },
  {
    "name": "residential",
    "category": "highway",
    "subcategory": "residential",
    "latitude": 34.2666944,
    "longitude": 71.98122261111111,
    "id": 72667072
  },
  {
    "name": "unclassified",
    "category": "highway",
    "subcategory": "unclassified",
    "latitude": 34.238578511111115,
    "longitude": 71.97382999999999,
    "id": 72667120
  },
  {
    "name": "unclassified",
    "category": "highway",
    "subcategory": "unclassified",
    "latitude": 34.23601011666667,
    "longitude": 71.98721656666667,
    "id": 72667134
  },
  {
    "name": "unclassified",
    "category": "highway",
    "subcategory": "unclassified",
    "latitude": 34.23770211428571,
    "longitude": 71.97988091428572,
    "id": 72667137
  },
  {
    "name": "residential",
    "category": "highway",
    "subcategory": "residential",
    "latitude": 34.2107187,
    "longitude": 72.00006886666667,
    "id": 72767198
  },
  {
    "name": "residential",
    "category": "highway",
    "subcategory": "residential",
    "latitude": 34.208841888888884,
    "longitude": 71.98476597222222,
    "id": 72767200
  },
  {
    "name": "residential",
    "category": "highway",
    "subcategory": "residential",
    "latitude": 34.212625175,
    "longitude": 71.98165148333334,
    "id": 72767203
  },
  {
    "name": "residential",
    "category": "highway",
    "subcategory": "residential",
    "latitude": 34.21282632,
    "longitude": 71.97761184,
    "id": 72767206
  },
  {
    "name": "residential",
    "category": "highway",
    "subcategory": "residential",
    "latitude": 34.21350959615385,
    "longitude": 72.01149118461538,
    "id": 72767239
  },
  {
    "name": "residential",
    "category": "landuse",
    "subcategory": "residential",
    "latitude": 34.266673149999995,
    "longitude": 71.99553550357143,
    "id": 73490365
  },
  {
    "name": "unclassified",
    "category": "highway",
    "subcategory": "unclassified",
    "latitude": 34.26176448,
    "longitude": 71.99709614,
    "id": 73490367
  },
  {
    "name": "residential",
    "category": "highway",
    "subcategory": "residential",
    "latitude": 34.26525225,
    "longitude": 71.995100225,
    "id": 73490369
  },
  {
    "name": "water",
    "category": "natural",
    "subcategory": "water",
    "latitude": 34.25367090689655,
    "longitude": 72.0095316137931,
    "id": 73492251
  },
  {
    "name": "water",
    "category": "natural",
    "subcategory": "water",
    "latitude": 34.246387350943394,
    "longitude": 72.01169414339623,
    "id": 73492260
  },
  {
    "name": "residential",
    "category": "highway",
    "subcategory": "residential",
    "latitude": 34.2228748,
    "longitude": 72.00857548333333,
    "id": 73494443
  },
  {
    "name": "farmland",
    "category": "landuse",
    "subcategory": "farmland",
    "latitude": 34.22527139230769,
    "longitude": 72.00156578846153,
    "id": 73494447
  },
  {
    "name": "farmland",
    "category": "landuse",
    "subcategory": "farmland",
    "latitude": 34.21991435333334,
    "longitude": 72.00640621333334,
    "id": 73494450
  },
  {
    "name": "farmland",
    "category": "landuse",
    "subcategory": "farmland",
    "latitude": 34.221944615,
    "longitude": 71.995169255,
    "id": 73494452
  },
  {
    "name": "farmland",
    "category": "landuse",
    "subcategory": "farmland",
    "latitude": 34.22206038,
    "longitude": 72.01534907,
    "id": 73494454
  },
  {
    "name": "living_street",
    "category": "highway",
    "subcategory": "living_street",
    "latitude": 34.2310106,
    "longitude": 72.01495155,
    "id": 73494457
  },
  {
    "name": "residential",
    "category": "highway",
    "subcategory": "residential",
    "latitude": 34.220881850000005,
    "longitude": 72.01615825,
    "id": 73494463
  },
  {
    "name": "residential",
    "category": "highway",
    "subcategory": "residential",
    "latitude": 34.22398985,
    "longitude": 72.00812939166667,
    "id": 73494464
  },
  {
    "name": "living_street",
    "category": "highway",
    "subcategory": "living_street",
    "latitude": 34.23036374,
    "longitude": 72.01130579999999,
    "id": 73494466
  },
  {
    "name": "unclassified",
    "category": "highway",
    "subcategory": "unclassified",
    "latitude": 34.238138985714286,
    "longitude": 72.00253418571428,
    "id": 73494470
  },
  {
    "name": "living_street",
    "category": "highway",
    "subcategory": "living_street",
    "latitude": 34.2287722,
    "longitude": 72.01407423333332,
    "id": 73494471
  },
  {
    "name": "living_street",
    "category": "highway",
    "subcategory": "living_street",
    "latitude": 34.226963336842104,
    "longitude": 72.01822861052631,
    "id": 73494474
  },
  {
    "name": "living_street",
    "category": "highway",
    "subcategory": "living_street",
    "latitude": 34.231103024999996,
    "longitude": 72.012940825,
    "id": 73494476
  },
  {
    "name": "living_street",
    "category": "highway",
    "subcategory": "living_street",
    "latitude": 34.2314676,
    "longitude": 72.0144459,
    "id": 73494478
  },
  {
    "name": "living_street",
    "category": "highway",
    "subcategory": "living_street",
    "latitude": 34.2288867375,
    "longitude": 72.017045,
    "id": 73494481
  },
  {
    "name": "residential",
    "category": "highway",
    "subcategory": "residential",
    "latitude": 34.22568068333333,
    "longitude": 72.01178553333334,
    "id": 73494482
  },
  {
    "name": "residential",
    "category": "highway",
    "subcategory": "residential",
    "latitude": 34.22506308333333,
    "longitude": 72.0118034,
    "id": 73494483
  },
  {
    "name": "residential",
    "category": "highway",
    "subcategory": "residential",
    "latitude": 34.2325874,
    "longitude": 72.0191743875,
    "id": 73494484
  },
  {
    "name": "living_street",
    "category": "highway",
    "subcategory": "living_street",
    "latitude": 34.22599821666667,
    "longitude": 72.01718480000001,
    "id": 73494485
  },
  {
    "name": "living_street",
    "category": "highway",
    "subcategory": "living_street",
    "latitude": 34.22896488947369,
    "longitude": 72.0159838,
    "id": 73494489
  },
  {
    "name": "living_street",
    "category": "highway",
    "subcategory": "living_street",
    "latitude": 34.23042653,
    "longitude": 72.01376212,
    "id": 73494491
  },
  {
    "name": "living_street",
    "category": "highway",
    "subcategory": "living_street",
    "latitude": 34.228749875,
    "longitude": 72.01279565,
    "id": 73494493
  },
  {
    "name": "residential",
    "category": "landuse",
    "subcategory": "residential",
    "latitude": 34.21146718888889,
    "longitude": 72.0082626111111,
    "id": 73498648
  },
  {
    "name": "unclassified",
    "category": "highway",
    "subcategory": "unclassified",
    "latitude": 34.21435750714286,
    "longitude": 72.00459211428571,
    "id": 73498650
  },
  {
    "name": "residential",
    "category": "landuse",
    "subcategory": "residential",
    "latitude": 34.2072317,
    "longitude": 72.0147648875,
    "id": 73498651
  },
  {
    "name": "residential",
    "category": "landuse",
    "subcategory": "residential",
    "latitude": 34.21209347666667,
    "longitude": 71.99182136666667,
    "id": 73498655
  },
  {
    "name": "residential",
    "category": "landuse",
    "subcategory": "residential",
    "latitude": 34.21309315,
    "longitude": 71.9972514125,
    "id": 73498656
  },
  {
    "name": "residential",
    "category": "landuse",
    "subcategory": "residential",
    "latitude": 34.21263870909091,
    "longitude": 72.00289731818181,
    "id": 73498658
  },
  {
    "name": "residential",
    "category": "landuse",
    "subcategory": "residential",
    "latitude": 34.21104032,
    "longitude": 71.99959750000001,
    "id": 73498659
  },
  {
    "name": "residential",
    "category": "landuse",
    "subcategory": "residential",
    "latitude": 34.211878766666665,
    "longitude": 72.00629626666667,
    "id": 73498660
  },
  {
    "name": "residential",
    "category": "landuse",
    "subcategory": "residential",
    "latitude": 34.21227738571428,
    "longitude": 71.98117214285715,
    "id": 73498663
  },
  {
    "name": "residential",
    "category": "landuse",
    "subcategory": "residential",
    "latitude": 34.2151162,
    "longitude": 71.98734306,
    "id": 73498665
  },
  {
    "name": "residential",
    "category": "landuse",
    "subcategory": "residential",
    "latitude": 34.192646116666666,
    "longitude": 72.01135208333334,
    "id": 74839961
  },
  {
    "name": "residential",
    "category": "landuse",
    "subcategory": "residential",
    "latitude": 34.20339468571429,
    "longitude": 71.99218824285714,
    "id": 74839977
  },
  {
    "name": "industrial",
    "category": "landuse",
    "subcategory": "industrial",
    "latitude": 34.200723520000004,
    "longitude": 72.03797584,
    "id": 74840056
  },
  {
    "name": "residential",
    "category": "landuse",
    "subcategory": "residential",
    "latitude": 34.26653345625,
    "longitude": 71.97893281875,
    "id": 74840074
  },
  {
    "name": "residential",
    "category": "landuse",
    "subcategory": "residential",
    "latitude": 34.25478869677419,
    "longitude": 71.9908983,
    "id": 74840076
  },
  {
    "name": "residential",
    "category": "landuse",
    "subcategory": "residential",
    "latitude": 34.25152565714286,
    "longitude": 71.9847769,
    "id": 74840077
  },
  {
    "name": "residential",
    "category": "landuse",
    "subcategory": "residential",
    "latitude": 34.261876693333335,
    "longitude": 71.98750685333333,
    "id": 74840080
  },
  {
    "name": "residential",
    "category": "landuse",
    "subcategory": "residential",
    "latitude": 34.26191467058824,
    "longitude": 71.98310140000001,
    "id": 74840081
  },
  {
    "name": "residential",
    "category": "landuse",
    "subcategory": "residential",
    "latitude": 34.26135863333334,
    "longitude": 72.02577945,
    "id": 74840082
  },
  {
    "name": "residential",
    "category": "landuse",
    "subcategory": "residential",
    "latitude": 34.2638414,
    "longitude": 72.02391263333334,
    "id": 74840083
  },
  {
    "name": "residential",
    "category": "landuse",
    "subcategory": "residential",
    "latitude": 34.25655254285714,
    "longitude": 72.01723314285714,
    "id": 74840084
  },
  {
    "name": "tertiary",
    "category": "highway",
    "subcategory": "tertiary",
    "latitude": 34.260934204347826,
    "longitude": 72.02661179130435,
    "id": 74840085
  },
  {
    "name": "residential",
    "category": "landuse",
    "subcategory": "residential",
    "latitude": 34.264932725,
    "longitude": 72.01940010833333,
    "id": 74840086
  },
  {
    "name": "unclassified",
    "category": "highway",
    "subcategory": "unclassified",
    "latitude": 34.257716525,
    "longitude": 72.01327280000001,
    "id": 80889355
  },
  {
    "name": "unclassified",
    "category": "highway",
    "subcategory": "unclassified",
    "latitude": 34.253442459999995,
    "longitude": 72.024392925,
    "id": 80889468
  },
  {
    "name": "tertiary",
    "category": "highway",
    "subcategory": "tertiary",
    "latitude": 34.24640899,
    "longitude": 72.04534525,
    "id": 80889652
  },
  {
    "name": "trunk",
    "category": "highway",
    "subcategory": "trunk",
    "latitude": 34.19457035,
    "longitude": 71.98383615,
    "id": 184008977
  },
  {
    "name": "Cantt Road",
    "category": "highway",
    "subcategory": "tertiary",
    "latitude": 34.20452845,
    "longitude": 72.04057264375,
    "id": 184012386
  },
  {
    "name": "Nisatta Road",
    "category": "highway",
    "subcategory": "secondary",
    "latitude": 34.19449371666666,
    "longitude": 72.02951698333334,
    "id": 184012387
  },
  {
    "name": "secondary",
    "category": "highway",
    "subcategory": "secondary",
    "latitude": 34.21435670434783,
    "longitude": 72.0308304521739,
    "id": 184012388
  },
  {
    "name": "Shamsi Road",
    "category": "highway",
    "subcategory": "primary",
    "latitude": 34.192385077272725,
    "longitude": 72.0391916090909,
    "id": 184012393
  },
  {
    "name": "Cantt Road",
    "category": "highway",
    "subcategory": "secondary",
    "latitude": 34.199950333333334,
    "longitude": 72.04110150000001,
    "id": 184012394
  },
  {
    "name": "secondary",
    "category": "highway",
    "subcategory": "secondary",
    "latitude": 34.20127608571429,
    "longitude": 72.04297982857143,
    "id": 184012395
  },
  {
    "name": "residential",
    "category": "highway",
    "subcategory": "residential",
    "latitude": 34.18908127647059,
    "longitude": 72.03977644117647,
    "id": 289666620
  },
  {
    "name": "trunk",
    "category": "highway",
    "subcategory": "trunk",
    "latitude": 34.19183401363636,
    "longitude": 72.03470114090909,
    "id": 289666621
  },
  {
    "name": "مردان - مالاکنڈ روڈ",
    "category": "highway",
    "subcategory": "trunk",
    "latitude": 34.194271,
    "longitude": 72.03350555,
    "id": 289666622
  },
  {
    "name": "مردان - مالاکنڈ روڈ",
    "category": "highway",
    "subcategory": "trunk",
    "latitude": 34.23420245263158,
    "longitude": 71.99467173421053,
    "id": 289666623
  },
  {
    "name": "trunk_link",
    "category": "highway",
    "subcategory": "trunk_link",
    "latitude": 34.19245185,
    "longitude": 72.0346511,
    "id": 289666624
  },
  {
    "name": "primary",
    "category": "highway",
    "subcategory": "primary",
    "latitude": 34.199049015,
    "longitude": 72.04102347,
    "id": 302935858
  },
  {
    "name": "Zara Adda Road",
    "category": "highway",
    "subcategory": "primary",
    "latitude": 34.19872202727272,
    "longitude": 72.04336039090909,
    "id": 302935859
  },
  {
    "name": "Qazi Bashir Road",
    "category": "highway",
    "subcategory": "secondary",
    "latitude": 34.19765267272727,
    "longitude": 72.03736494545454,
    "id": 302966240
  },
  {
    "name": "Mardan - Malakand",
    "category": "highway",
    "subcategory": "trunk",
    "latitude": 34.20622454782609,
    "longitude": 72.02726817391304,
    "id": 302966241
  },
  {
    "name": "Shaheedan Bazar Road",
    "category": "highway",
    "subcategory": "primary",
    "latitude": 34.197550166666666,
    "longitude": 72.05092742777778,
    "id": 302966242
  },
  {
    "name": "مال روڈ",
    "category": "highway",
    "subcategory": "primary",
    "latitude": 34.19373542380953,
    "longitude": 72.03589400476191,
    "id": 302966244
  },
  {
    "name": "مال روڈ",
    "category": "highway",
    "subcategory": "primary",
    "latitude": 34.19426115,
    "longitude": 72.03647390714285,
    "id": 302966245
  },
  {
    "name": "residential",
    "category": "highway",
    "subcategory": "residential",
    "latitude": 34.1973124,
    "longitude": 72.04006985999999,
    "id": 302966246
  },
  {
    "name": "مال روڈ",
    "category": "highway",
    "subcategory": "primary",
    "latitude": 34.19830475714286,
    "longitude": 72.04018647142857,
    "id": 302966247
  },
  {
    "name": "Nisatta Road",
    "category": "highway",
    "subcategory": "secondary",
    "latitude": 34.1880646137931,
    "longitude": 72.01413141379311,
    "id": 302966745
  },
  {
    "name": "primary_link",
    "category": "highway",
    "subcategory": "primary_link",
    "latitude": 34.198633475,
    "longitude": 72.04028607500001,
    "id": 302966869
  },
  {
    "name": "Nisatta Road",
    "category": "highway",
    "subcategory": "secondary",
    "latitude": 34.19467836,
    "longitude": 72.0301377,
    "id": 302966870
  },
  {
    "name": "مردان - مالاکنڈ روڈ",
    "category": "highway",
    "subcategory": "trunk",
    "latitude": 34.1940568,
    "longitude": 72.03371205555555,
    "id": 302966871
  },
  {
    "name": "residential",
    "category": "highway",
    "subcategory": "residential",
    "latitude": 34.19767524444445,
    "longitude": 72.04072635555556,
    "id": 302966936
  },
  {
    "name": "Combined Military Hospital",
    "category": "amenity",
    "subcategory": "hospital",
    "latitude": 34.19969918888889,
    "longitude": 72.04398206666667,
    "id": 302967762
  },
  {
    "name": "golf_course",
    "category": "leisure",
    "subcategory": "golf_course",
    "latitude": 34.20405878787879,
    "longitude": 72.0434542090909,
    "id": 302967763
  },
  {
    "name": "secondary",
    "category": "highway",
    "subcategory": "secondary",
    "latitude": 34.20622858461539,
    "longitude": 72.04468024615385,
    "id": 302970108
  },
  {
    "name": "tertiary",
    "category": "highway",
    "subcategory": "tertiary",
    "latitude": 34.19956486666667,
    "longitude": 72.0461796,
    "id": 302970109
  },
  {
    "name": "secondary",
    "category": "highway",
    "subcategory": "secondary",
    "latitude": 34.203275399999995,
    "longitude": 72.04742955,
    "id": 302970110
  },
  {
    "name": "tertiary",
    "category": "highway",
    "subcategory": "tertiary",
    "latitude": 34.201397675,
    "longitude": 72.047207325,
    "id": 302970111
  },
  {
    "name": "tertiary",
    "category": "highway",
    "subcategory": "tertiary",
    "latitude": 34.2023578,
    "longitude": 72.0479488,
    "id": 302970112
  },
  {
    "name": "tertiary",
    "category": "highway",
    "subcategory": "tertiary",
    "latitude": 34.20329184,
    "longitude": 72.0488972,
    "id": 302970113
  },
  {
    "name": "residential",
    "category": "highway",
    "subcategory": "residential",
    "latitude": 34.20544114210526,
    "longitude": 72.05532207368421,
    "id": 302970114
  },
  {
    "name": "tertiary",
    "category": "highway",
    "subcategory": "tertiary",
    "latitude": 34.206321377777776,
    "longitude": 72.04947788888889,
    "id": 302970115
  },
  {
    "name": "tertiary",
    "category": "highway",
    "subcategory": "tertiary",
    "latitude": 34.20310246666667,
    "longitude": 72.04801386666666,
    "id": 302970116
  },
  {
    "name": "Katlang Road",
    "category": "highway",
    "subcategory": "primary",
    "latitude": 34.239688820000005,
    "longitude": 72.0462728,
    "id": 302972042
  },
  {
    "name": "secondary",
    "category": "highway",
    "subcategory": "secondary",
    "latitude": 34.20132841111111,
    "longitude": 72.04555528888889,
    "id": 303102520
  },
  {
    "name": "residential",
    "category": "highway",
    "subcategory": "residential",
    "latitude": 34.202030875000005,
    "longitude": 72.04260665,
    "id": 303102521
  },
  {
    "name": "کینال روڈ",
    "category": "highway",
    "subcategory": "tertiary",
    "latitude": 34.191759912500004,
    "longitude": 72.03040348125,
    "id": 303102522
  },
  {
    "name": "residential",
    "category": "highway",
    "subcategory": "residential",
    "latitude": 34.18725852666667,
    "longitude": 72.02910995333333,
    "id": 303103153
  },
  {
    "name": "tertiary",
    "category": "highway",
    "subcategory": "tertiary",
    "latitude": 34.20623075,
    "longitude": 72.05412609999999,
    "id": 303103154
  },
  {
    "name": "tertiary",
    "category": "highway",
    "subcategory": "tertiary",
    "latitude": 34.20659245,
    "longitude": 72.05405744999999,
    "id": 303103155
  },
  {
    "name": "tertiary",
    "category": "highway",
    "subcategory": "tertiary",
    "latitude": 34.20703025,
    "longitude": 72.053988,
    "id": 303103156
  },
  {
    "name": "residential",
    "category": "highway",
    "subcategory": "residential",
    "latitude": 34.208278840000006,
    "longitude": 72.03003834,
    "id": 303105134
  },
  {
    "name": "Rahim Abad Katlang Road",
    "category": "landuse",
    "subcategory": "residential",
    "latitude": 34.25881365555556,
    "longitude": 72.05162086666667,
    "id": 317410736
  },
  {
    "name": "Khaksar Street",
    "category": "highway",
    "subcategory": "residential",
    "latitude": 34.19619164,
    "longitude": 72.04498499,
    "id": 338587091
  },
  {
    "name": "Memorial Park",
    "category": "leisure",
    "subcategory": "park",
    "latitude": 34.198342,
    "longitude": 72.04090691111111,
    "id": 338587093
  },
  {
    "name": "Cantt Plaza",
    "category": "shop",
    "subcategory": "mall",
    "latitude": 34.19826248,
    "longitude": 72.03957969000001,
    "id": 338587096
  },
  {
    "name": "Old District Jail Mardan",
    "category": "amenity",
    "subcategory": "prison",
    "latitude": 34.19677133333334,
    "longitude": 72.03787623333334,
    "id": 338587501
  },
  {
    "name": "Bicket Gunj",
    "category": "highway",
    "subcategory": "residential",
    "latitude": 34.19354025714286,
    "longitude": 72.03917632857143,
    "id": 338587841
  },
  {
    "name": "City Police Station",
    "category": "amenity",
    "subcategory": "police",
    "latitude": 34.1953145,
    "longitude": 72.03765252000001,
    "id": 338587842
  },
  {
    "name": "WAPDA Offices",
    "category": "office",
    "subcategory": "government",
    "latitude": 34.19474856,
    "longitude": 72.0318958,
    "id": 338588052
  },
  {
    "name": "Nisatta Road",
    "category": "highway",
    "subcategory": "secondary",
    "latitude": 34.1939243,
    "longitude": 72.02828653333334,
    "id": 338588068
  },
  {
    "name": "Nisatta Road",
    "category": "highway",
    "subcategory": "secondary",
    "latitude": 34.1933728625,
    "longitude": 72.0269528125,
    "id": 338588069
  },
  {
    "name": "District Head Quarter Hospital",
    "category": "amenity",
    "subcategory": "hospital",
    "latitude": 34.19069146,
    "longitude": 72.04571646,
    "id": 338589000
  },
  {
    "name": "District Head Quarter Hospital",
    "category": "amenity",
    "subcategory": "hospital",
    "latitude": 34.1927426,
    "longitude": 72.0464770875,
    "id": 338589001
  },
  {
    "name": "بابو محلہ",
    "category": "place",
    "subcategory": "neighbourhood",
    "latitude": 34.1951823,
    "longitude": 72.05505202857144,
    "id": 338589335
  },
  {
    "name": "unclassified",
    "category": "highway",
    "subcategory": "unclassified",
    "latitude": 34.23486334444445,
    "longitude": 72.04746951111112,
    "id": 352116818
  },
  {
    "name": "Sahibzada Filling Station  صاحبزادہ فلنگ اسٹیشن",
    "category": "amenity",
    "subcategory": "fuel",
    "latitude": 34.25916266,
    "longitude": 72.05098294,
    "id": 405072587
  },
  {
    "name": "مردان - مالاکنڈ روڈ",
    "category": "highway",
    "subcategory": "trunk",
    "latitude": 34.19029322,
    "longitude": 72.03457354,
    "id": 406608924
  },
  {
    "name": "Katlang Road",
    "category": "highway",
    "subcategory": "primary",
    "latitude": 34.2595472368421,
    "longitude": 72.05079225789474,
    "id": 415930963
  },
  {
    "name": "Katlang Road",
    "category": "highway",
    "subcategory": "primary",
    "latitude": 34.24807903,
    "longitude": 72.04816955,
    "id": 415930964
  },
  {
    "name": "Katlang Road",
    "category": "highway",
    "subcategory": "primary",
    "latitude": 34.24389428333333,
    "longitude": 72.04723415,
    "id": 415930965
  },
  {
    "name": "Katlang Road",
    "category": "highway",
    "subcategory": "primary",
    "latitude": 34.22247389591837,
    "longitude": 72.04417548163265,
    "id": 415930966
  },
  {
    "name": "Charsadah Road",
    "category": "highway",
    "subcategory": "living_street",
    "latitude": 34.2048189,
    "longitude": 72.01797955,
    "id": 427696157
  },
  {
    "name": "unclassified",
    "category": "highway",
    "subcategory": "unclassified",
    "latitude": 34.2020244125,
    "longitude": 72.01908543125,
    "id": 427696159
  },
  {
    "name": "unclassified",
    "category": "highway",
    "subcategory": "unclassified",
    "latitude": 34.22568666585366,
    "longitude": 72.03107644634146,
    "id": 468001895
  },
  {
    "name": "tertiary",
    "category": "highway",
    "subcategory": "tertiary",
    "latitude": 34.220314904,
    "longitude": 72.050845364,
    "id": 468001897
  },
  {
    "name": "unclassified",
    "category": "highway",
    "subcategory": "unclassified",
    "latitude": 34.22248737428571,
    "longitude": 72.05088408857144,
    "id": 468001898
  },
  {
    "name": "unclassified",
    "category": "highway",
    "subcategory": "unclassified",
    "latitude": 34.23106545,
    "longitude": 72.0459016875,
    "id": 468001899
  },
  {
    "name": "tertiary",
    "category": "highway",
    "subcategory": "tertiary",
    "latitude": 34.218107411764706,
    "longitude": 72.04233095882353,
    "id": 468001901
  },
  {
    "name": "unclassified",
    "category": "highway",
    "subcategory": "unclassified",
    "latitude": 34.21139515,
    "longitude": 72.05101295,
    "id": 468001903
  },
  {
    "name": "living_street",
    "category": "highway",
    "subcategory": "living_street",
    "latitude": 34.2063873,
    "longitude": 72.03564285714286,
    "id": 468001904
  },
  {
    "name": "residential",
    "category": "highway",
    "subcategory": "residential",
    "latitude": 34.2027498,
    "longitude": 72.0337122,
    "id": 468001905
  },
  {
    "name": "living_street",
    "category": "highway",
    "subcategory": "living_street",
    "latitude": 34.18780576666666,
    "longitude": 72.02944453333333,
    "id": 468001906
  },
  {
    "name": "living_street",
    "category": "highway",
    "subcategory": "living_street",
    "latitude": 34.19622793333333,
    "longitude": 72.02183906666666,
    "id": 468001910
  },
  {
    "name": "living_street",
    "category": "highway",
    "subcategory": "living_street",
    "latitude": 34.1968973,
    "longitude": 72.02279870000001,
    "id": 468001911
  },
  {
    "name": "living_street",
    "category": "highway",
    "subcategory": "living_street",
    "latitude": 34.19558175,
    "longitude": 72.0237545,
    "id": 468001912
  },
  {
    "name": "living_street",
    "category": "highway",
    "subcategory": "living_street",
    "latitude": 34.20649533333333,
    "longitude": 72.0178679,
    "id": 468008069
  },
  {
    "name": "residential",
    "category": "highway",
    "subcategory": "residential",
    "latitude": 34.21785303695652,
    "longitude": 71.99191489130435,
    "id": 468008072
  },
  {
    "name": "residential",
    "category": "highway",
    "subcategory": "residential",
    "latitude": 34.2216539,
    "longitude": 71.9801889,
    "id": 468008073
  },
  {
    "name": "residential",
    "category": "highway",
    "subcategory": "residential",
    "latitude": 34.21774896666667,
    "longitude": 71.97832373333334,
    "id": 468008074
  },
  {
    "name": "residential",
    "category": "highway",
    "subcategory": "residential",
    "latitude": 34.218072199999995,
    "longitude": 71.9847012,
    "id": 468008075
  },
  {
    "name": "residential",
    "category": "highway",
    "subcategory": "residential",
    "latitude": 34.21916563333333,
    "longitude": 71.98172563333334,
    "id": 468008076
  },
  {
    "name": "residential",
    "category": "highway",
    "subcategory": "residential",
    "latitude": 34.216610679999995,
    "longitude": 71.97928166,
    "id": 468008077
  },
  {
    "name": "Qazi Bashir Road",
    "category": "highway",
    "subcategory": "secondary",
    "latitude": 34.19781567692308,
    "longitude": 72.0379444846154,
    "id": 480107622
  },
  {
    "name": "مال روڈ",
    "category": "highway",
    "subcategory": "primary",
    "latitude": 34.198282475,
    "longitude": 72.040248375,
    "id": 480107623
  },
  {
    "name": "Qazi Bashir Road",
    "category": "highway",
    "subcategory": "secondary",
    "latitude": 34.1989901,
    "longitude": 72.0408093,
    "id": 480107624
  },
  {
    "name": "مال روڈ",
    "category": "highway",
    "subcategory": "primary",
    "latitude": 34.19882345,
    "longitude": 72.04075275,
    "id": 480107625
  },
  {
    "name": "primary_link",
    "category": "highway",
    "subcategory": "primary_link",
    "latitude": 34.19871055,
    "longitude": 72.04053579999999,
    "id": 480107626
  },
  {
    "name": "residential",
    "category": "highway",
    "subcategory": "residential",
    "latitude": 34.201757424,
    "longitude": 72.048301544,
    "id": 480302956
  },
  {
    "name": "residential",
    "category": "highway",
    "subcategory": "residential",
    "latitude": 34.19825455,
    "longitude": 72.04145224999999,
    "id": 480306061
  },
  {
    "name": "Government Girls College",
    "category": "amenity",
    "subcategory": "college",
    "latitude": 34.19316232,
    "longitude": 72.03644712,
    "id": 480306062
  },
  {
    "name": "residential",
    "category": "highway",
    "subcategory": "residential",
    "latitude": 34.204296946153846,
    "longitude": 72.03897473846153,
    "id": 480306063
  },
  {
    "name": "residential",
    "category": "highway",
    "subcategory": "residential",
    "latitude": 34.204824566666666,
    "longitude": 72.04013020000001,
    "id": 480306064
  },
  {
    "name": "unclassified",
    "category": "highway",
    "subcategory": "unclassified",
    "latitude": 34.205007933333334,
    "longitude": 72.03329493333332,
    "id": 480306065
  },
  {
    "name": "unclassified",
    "category": "highway",
    "subcategory": "unclassified",
    "latitude": 34.20157095,
    "longitude": 72.03806163333333,
    "id": 480306066
  },
  {
    "name": "Baghdada-Par Hoti Road",
    "category": "highway",
    "subcategory": "primary",
    "latitude": 34.207708663157895,
    "longitude": 72.03345812631578,
    "id": 480309556
  },
  {
    "name": "residential",
    "category": "highway",
    "subcategory": "residential",
    "latitude": 34.20941591818182,
    "longitude": 72.0293375909091,
    "id": 480309557
  },
  {
    "name": "residential",
    "category": "highway",
    "subcategory": "residential",
    "latitude": 34.209553758333335,
    "longitude": 72.03295355833333,
    "id": 480309558
  },
  {
    "name": "living_street",
    "category": "highway",
    "subcategory": "living_street",
    "latitude": 34.2114488,
    "longitude": 72.02927251999999,
    "id": 480309559
  },
  {
    "name": "residential",
    "category": "highway",
    "subcategory": "residential",
    "latitude": 34.211012536842105,
    "longitude": 72.03287704210527,
    "id": 480309560
  },
  {
    "name": "residential",
    "category": "highway",
    "subcategory": "residential",
    "latitude": 34.21193977142857,
    "longitude": 72.0388012,
    "id": 480309561
  },
  {
    "name": "residential",
    "category": "highway",
    "subcategory": "residential",
    "latitude": 34.254697942424244,
    "longitude": 72.02998973939394,
    "id": 480309562
  },
  {
    "name": "unclassified",
    "category": "highway",
    "subcategory": "unclassified",
    "latitude": 34.2704086125,
    "longitude": 72.0194131125,
    "id": 480309563
  },
  {
    "name": "commercial",
    "category": "landuse",
    "subcategory": "commercial",
    "latitude": 34.19806999,
    "longitude": 72.04142612000001,
    "id": 480533810
  },
  {
    "name": "residential",
    "category": "highway",
    "subcategory": "residential",
    "latitude": 34.19655753333333,
    "longitude": 72.04805643333333,
    "id": 484373142
  },
  {
    "name": "residential",
    "category": "highway",
    "subcategory": "residential",
    "latitude": 34.195584583333336,
    "longitude": 72.04861743333333,
    "id": 484373144
  },
  {
    "name": "residential",
    "category": "highway",
    "subcategory": "residential",
    "latitude": 34.19924006666667,
    "longitude": 72.0540369,
    "id": 484373145
  },
  {
    "name": "residential",
    "category": "highway",
    "subcategory": "residential",
    "latitude": 34.20032043333333,
    "longitude": 72.05251763333332,
    "id": 484373146
  },
  {
    "name": "unclassified",
    "category": "highway",
    "subcategory": "unclassified",
    "latitude": 34.20228069583333,
    "longitude": 72.05204690000001,
    "id": 484373526
  },
  {
    "name": "tertiary",
    "category": "highway",
    "subcategory": "tertiary",
    "latitude": 34.20294725,
    "longitude": 72.05510865,
    "id": 484373527
  },
  {
    "name": "residential",
    "category": "highway",
    "subcategory": "residential",
    "latitude": 34.204127783333334,
    "longitude": 72.05284384166667,
    "id": 484373528
  },
  {
    "name": "living_street",
    "category": "highway",
    "subcategory": "living_street",
    "latitude": 34.205208999999996,
    "longitude": 72.05335695,
    "id": 484373529
  },
  {
    "name": "unclassified",
    "category": "highway",
    "subcategory": "unclassified",
    "latitude": 34.20559514285714,
    "longitude": 72.05495102857142,
    "id": 484373530
  },
  {
    "name": "unclassified",
    "category": "highway",
    "subcategory": "unclassified",
    "latitude": 34.256370583333336,
    "longitude": 72.05375890833334,
    "id": 484374947
  },
  {
    "name": "unclassified",
    "category": "highway",
    "subcategory": "unclassified",
    "latitude": 34.25326725,
    "longitude": 72.05445275,
    "id": 484374948
  },
  {
    "name": "unclassified",
    "category": "highway",
    "subcategory": "unclassified",
    "latitude": 34.260104115384614,
    "longitude": 72.04614912307692,
    "id": 484374949
  },
  {
    "name": "unclassified",
    "category": "highway",
    "subcategory": "unclassified",
    "latitude": 34.26182004444445,
    "longitude": 72.02534958333334,
    "id": 484374950
  },
  {
    "name": "Ghani Sheikh Kalay",
    "category": "highway",
    "subcategory": "unclassified",
    "latitude": 34.267458684615384,
    "longitude": 72.03531150769231,
    "id": 484375114
  },
  {
    "name": "unclassified",
    "category": "highway",
    "subcategory": "unclassified",
    "latitude": 34.261690557142856,
    "longitude": 71.97305602380952,
    "id": 484385741
  },
  {
    "name": "unclassified",
    "category": "highway",
    "subcategory": "unclassified",
    "latitude": 34.26170747142857,
    "longitude": 71.98683197142857,
    "id": 484386180
  },
  {
    "name": "unclassified",
    "category": "highway",
    "subcategory": "unclassified",
    "latitude": 34.23230295,
    "longitude": 72.01620100000001,
    "id": 484391593
  },
  {
    "name": "unclassified",
    "category": "highway",
    "subcategory": "unclassified",
    "latitude": 34.234168000000004,
    "longitude": 72.026282925,
    "id": 484392128
  },
  {
    "name": "unclassified",
    "category": "highway",
    "subcategory": "unclassified",
    "latitude": 34.2399784,
    "longitude": 72.023106,
    "id": 484392129
  },
  {
    "name": "unclassified",
    "category": "highway",
    "subcategory": "unclassified",
    "latitude": 34.27008436923077,
    "longitude": 72.00407593076923,
    "id": 491085500
  },
  {
    "name": "residential",
    "category": "highway",
    "subcategory": "residential",
    "latitude": 34.221154709090904,
    "longitude": 72.0047627,
    "id": 493939435
  },
  {
    "name": "residential",
    "category": "highway",
    "subcategory": "residential",
    "latitude": 34.2195439,
    "longitude": 72.0022806,
    "id": 493939436
  },
  {
    "name": "مردان رنگ روڈ",
    "category": "highway",
    "subcategory": "trunk",
    "latitude": 34.23147094375,
    "longitude": 71.9780501625,
    "id": 494892882
  },
  {
    "name": "unclassified",
    "category": "highway",
    "subcategory": "unclassified",
    "latitude": 34.25712265,
    "longitude": 72.03279005,
    "id": 494900816
  },
  {
    "name": "unclassified",
    "category": "highway",
    "subcategory": "unclassified",
    "latitude": 34.26180896363636,
    "longitude": 72.03686011818182,
    "id": 494900817
  },
  {
    "name": "tertiary",
    "category": "highway",
    "subcategory": "tertiary",
    "latitude": 34.25705527777778,
    "longitude": 72.06484466296295,
    "id": 494900818
  },
  {
    "name": "tertiary",
    "category": "highway",
    "subcategory": "tertiary",
    "latitude": 34.23184053333333,
    "longitude": 72.01127576666666,
    "id": 494900825
  },
  {
    "name": "tertiary",
    "category": "highway",
    "subcategory": "tertiary",
    "latitude": 34.232276649999996,
    "longitude": 72.01324808333334,
    "id": 494900826
  },
  {
    "name": "tertiary",
    "category": "highway",
    "subcategory": "tertiary",
    "latitude": 34.23653955,
    "longitude": 72.0219062,
    "id": 494900827
  },
  {
    "name": "tertiary",
    "category": "highway",
    "subcategory": "tertiary",
    "latitude": 34.24390153,
    "longitude": 72.020851635,
    "id": 494900828
  },
  {
    "name": "unclassified",
    "category": "highway",
    "subcategory": "unclassified",
    "latitude": 34.252869485714285,
    "longitude": 72.02240928571429,
    "id": 494900829
  },
  {
    "name": "unclassified",
    "category": "highway",
    "subcategory": "unclassified",
    "latitude": 34.25786574,
    "longitude": 72.01997245999999,
    "id": 494900830
  },
  {
    "name": "tertiary",
    "category": "highway",
    "subcategory": "tertiary",
    "latitude": 34.265169549999996,
    "longitude": 72.01801015000001,
    "id": 494900831
  },
  {
    "name": "tertiary",
    "category": "highway",
    "subcategory": "tertiary",
    "latitude": 34.2653413,
    "longitude": 71.9895597,
    "id": 494900832
  },
  {
    "name": "tertiary",
    "category": "highway",
    "subcategory": "tertiary",
    "latitude": 34.26226773333333,
    "longitude": 71.9814274,
    "id": 494900833
  },
  {
    "name": "unclassified",
    "category": "highway",
    "subcategory": "unclassified",
    "latitude": 34.26374811666667,
    "longitude": 71.98568058333333,
    "id": 494900834
  },
  {
    "name": "unclassified",
    "category": "highway",
    "subcategory": "unclassified",
    "latitude": 34.258114533333334,
    "longitude": 71.97817205999999,
    "id": 494900835
  },
  {
    "name": "unclassified",
    "category": "highway",
    "subcategory": "unclassified",
    "latitude": 34.27332698181818,
    "longitude": 71.99522864545455,
    "id": 494900837
  },
  {
    "name": "unclassified",
    "category": "highway",
    "subcategory": "unclassified",
    "latitude": 34.2399992,
    "longitude": 72.00028305000001,
    "id": 494900838
  },
  {
    "name": "unclassified",
    "category": "highway",
    "subcategory": "unclassified",
    "latitude": 34.24434171428572,
    "longitude": 72.00141648571429,
    "id": 494900839
  },
  {
    "name": "tertiary",
    "category": "highway",
    "subcategory": "tertiary",
    "latitude": 34.231047322222224,
    "longitude": 72.00849941111112,
    "id": 494900840
  },
  {
    "name": "tertiary",
    "category": "highway",
    "subcategory": "tertiary",
    "latitude": 34.19885018,
    "longitude": 72.04562824,
    "id": 494900844
  },
  {
    "name": "tertiary",
    "category": "highway",
    "subcategory": "tertiary",
    "latitude": 34.2080853,
    "longitude": 72.05374338749999,
    "id": 494900845
  },
  {
    "name": "unclassified",
    "category": "highway",
    "subcategory": "unclassified",
    "latitude": 34.21981866,
    "longitude": 72.04060052,
    "id": 494900847
  },
  {
    "name": "tertiary",
    "category": "highway",
    "subcategory": "tertiary",
    "latitude": 34.20094775333334,
    "longitude": 72.05028650666667,
    "id": 494900848
  },
  {
    "name": "tertiary",
    "category": "highway",
    "subcategory": "tertiary",
    "latitude": 34.20499872,
    "longitude": 72.05473737,
    "id": 494900849
  },
  {
    "name": "tertiary",
    "category": "highway",
    "subcategory": "tertiary",
    "latitude": 34.20305845,
    "longitude": 72.0558757,
    "id": 494900850
  },
  {
    "name": "tertiary",
    "category": "highway",
    "subcategory": "tertiary",
    "latitude": 34.2029924,
    "longitude": 72.05548325000001,
    "id": 494900851
  },
  {
    "name": "residential",
    "category": "highway",
    "subcategory": "residential",
    "latitude": 34.202678600000006,
    "longitude": 72.05409566666667,
    "id": 494900852
  },
  {
    "name": "unclassified",
    "category": "highway",
    "subcategory": "unclassified",
    "latitude": 34.2018933,
    "longitude": 72.0552702,
    "id": 494900853
  },
  {
    "name": "residential",
    "category": "highway",
    "subcategory": "residential",
    "latitude": 34.20150146666666,
    "longitude": 72.05443936666667,
    "id": 494900854
  },
  {
    "name": "residential",
    "category": "highway",
    "subcategory": "residential",
    "latitude": 34.20111444375,
    "longitude": 72.0534384,
    "id": 494900855
  },
  {
    "name": "residential",
    "category": "highway",
    "subcategory": "residential",
    "latitude": 34.214217649999995,
    "longitude": 72.02518624999999,
    "id": 533034776
  },
  {
    "name": "residential",
    "category": "highway",
    "subcategory": "residential",
    "latitude": 34.21389165,
    "longitude": 72.02477285,
    "id": 533034777
  },
  {
    "name": "residential",
    "category": "highway",
    "subcategory": "residential",
    "latitude": 34.21191455,
    "longitude": 72.0242029,
    "id": 533034778
  },
  {
    "name": "residential",
    "category": "highway",
    "subcategory": "residential",
    "latitude": 34.2138171,
    "longitude": 72.0242533,
    "id": 533034779
  },
  {
    "name": "residential",
    "category": "highway",
    "subcategory": "residential",
    "latitude": 34.212726366666665,
    "longitude": 72.02426296666667,
    "id": 533034780
  },
  {
    "name": "residential",
    "category": "highway",
    "subcategory": "residential",
    "latitude": 34.21223426666666,
    "longitude": 72.0239952,
    "id": 533034781
  },
  {
    "name": "residential",
    "category": "highway",
    "subcategory": "residential",
    "latitude": 34.213083485714286,
    "longitude": 72.02037411428572,
    "id": 533034782
  },
  {
    "name": "residential",
    "category": "highway",
    "subcategory": "residential",
    "latitude": 34.21157186666667,
    "longitude": 72.0214035,
    "id": 533034784
  },
  {
    "name": "residential",
    "category": "highway",
    "subcategory": "residential",
    "latitude": 34.21350403333333,
    "longitude": 72.01778826666667,
    "id": 533034785
  },
  {
    "name": "residential",
    "category": "highway",
    "subcategory": "residential",
    "latitude": 34.214482133333334,
    "longitude": 72.01792336666666,
    "id": 533034786
  },
  {
    "name": "residential",
    "category": "highway",
    "subcategory": "residential",
    "latitude": 34.213851266666666,
    "longitude": 72.01845616666667,
    "id": 533034787
  },
  {
    "name": "residential",
    "category": "highway",
    "subcategory": "residential",
    "latitude": 34.21353365,
    "longitude": 72.01912770000001,
    "id": 533034788
  },
  {
    "name": "residential",
    "category": "highway",
    "subcategory": "residential",
    "latitude": 34.210875333333334,
    "longitude": 72.02056286666668,
    "id": 533034789
  },
  {
    "name": "residential",
    "category": "highway",
    "subcategory": "residential",
    "latitude": 34.21061758,
    "longitude": 72.01987154,
    "id": 533034790
  },
  {
    "name": "residential",
    "category": "highway",
    "subcategory": "residential",
    "latitude": 34.21036,
    "longitude": 72.01858826,
    "id": 533034792
  },
  {
    "name": "residential",
    "category": "highway",
    "subcategory": "residential",
    "latitude": 34.20957344999999,
    "longitude": 72.01880455,
    "id": 533034793
  },
  {
    "name": "residential",
    "category": "highway",
    "subcategory": "residential",
    "latitude": 34.2090887,
    "longitude": 72.02156035,
    "id": 533034794
  },
  {
    "name": "residential",
    "category": "highway",
    "subcategory": "residential",
    "latitude": 34.21037824,
    "longitude": 72.0203808,
    "id": 533034795
  },
  {
    "name": "residential",
    "category": "highway",
    "subcategory": "residential",
    "latitude": 34.209464325,
    "longitude": 72.022258475,
    "id": 533034796
  },
  {
    "name": "residential",
    "category": "highway",
    "subcategory": "residential",
    "latitude": 34.2100838,
    "longitude": 72.02035408,
    "id": 533034797
  },
  {
    "name": "residential",
    "category": "highway",
    "subcategory": "residential",
    "latitude": 34.21140655,
    "longitude": 72.02173545,
    "id": 533034798
  },
  {
    "name": "Street 7",
    "category": "highway",
    "subcategory": "residential",
    "latitude": 34.21531866666667,
    "longitude": 72.02291705,
    "id": 533034799
  },
  {
    "name": "residential",
    "category": "highway",
    "subcategory": "residential",
    "latitude": 34.21637355,
    "longitude": 72.02385794545454,
    "id": 533034800
  },
  {
    "name": "residential",
    "category": "highway",
    "subcategory": "residential",
    "latitude": 34.21502706,
    "longitude": 72.02121328,
    "id": 533034801
  },
  {
    "name": "residential",
    "category": "highway",
    "subcategory": "residential",
    "latitude": 34.21210346666667,
    "longitude": 72.02236993333334,
    "id": 533034802
  },
  {
    "name": "residential",
    "category": "highway",
    "subcategory": "residential",
    "latitude": 34.21171565,
    "longitude": 72.02317400000001,
    "id": 533034803
  },
  {
    "name": "residential",
    "category": "highway",
    "subcategory": "residential",
    "latitude": 34.211468357142856,
    "longitude": 72.02315187142857,
    "id": 533034804
  },
  {
    "name": "residential",
    "category": "highway",
    "subcategory": "residential",
    "latitude": 34.214526414285714,
    "longitude": 72.02366574285715,
    "id": 533034805
  },
  {
    "name": "residential",
    "category": "highway",
    "subcategory": "residential",
    "latitude": 34.2142131,
    "longitude": 72.0214016,
    "id": 533034806
  },
  {
    "name": "residential",
    "category": "highway",
    "subcategory": "residential",
    "latitude": 34.2145284,
    "longitude": 72.02557592000001,
    "id": 534921024
  },
  {
    "name": "residential",
    "category": "highway",
    "subcategory": "residential",
    "latitude": 34.214498625000004,
    "longitude": 72.026316225,
    "id": 534921027
  },
  {
    "name": "residential",
    "category": "highway",
    "subcategory": "residential",
    "latitude": 34.2175692,
    "longitude": 72.02126655,
    "id": 534921029
  },
  {
    "name": "residential",
    "category": "highway",
    "subcategory": "residential",
    "latitude": 34.217074075,
    "longitude": 72.02125815,
    "id": 534921032
  },
  {
    "name": "residential",
    "category": "highway",
    "subcategory": "residential",
    "latitude": 34.21575552857143,
    "longitude": 72.02687575714286,
    "id": 534921034
  },
  {
    "name": "residential",
    "category": "highway",
    "subcategory": "residential",
    "latitude": 34.2115317,
    "longitude": 72.02506062500001,
    "id": 534921035
  },
  {
    "name": "residential",
    "category": "highway",
    "subcategory": "residential",
    "latitude": 34.1922257,
    "longitude": 72.03357505,
    "id": 590592267
  },
  {
    "name": "residential",
    "category": "highway",
    "subcategory": "residential",
    "latitude": 34.192181700000006,
    "longitude": 72.0338131,
    "id": 590592268
  },
  {
    "name": "residential",
    "category": "highway",
    "subcategory": "residential",
    "latitude": 34.192585425000004,
    "longitude": 72.033678275,
    "id": 590592269
  },
  {
    "name": "residential",
    "category": "highway",
    "subcategory": "residential",
    "latitude": 34.1938775,
    "longitude": 72.03277545,
    "id": 590592270
  },
  {
    "name": "residential",
    "category": "highway",
    "subcategory": "residential",
    "latitude": 34.1932997,
    "longitude": 72.03228615,
    "id": 590592271
  },
  {
    "name": "residential",
    "category": "highway",
    "subcategory": "residential",
    "latitude": 34.193721059999994,
    "longitude": 72.03272713999999,
    "id": 590592272
  },
  {
    "name": "residential",
    "category": "highway",
    "subcategory": "residential",
    "latitude": 34.209876425000004,
    "longitude": 72.03543475000001,
    "id": 660558259
  },
  {
    "name": "residential",
    "category": "highway",
    "subcategory": "residential",
    "latitude": 34.21194802,
    "longitude": 72.03017806,
    "id": 660558260
  },
  {
    "name": "residential",
    "category": "highway",
    "subcategory": "residential",
    "latitude": 34.2128604,
    "longitude": 72.0375841625,
    "id": 660558261
  },
  {
    "name": "residential",
    "category": "highway",
    "subcategory": "residential",
    "latitude": 34.208586371428574,
    "longitude": 72.03343734285714,
    "id": 660558262
  },
  {
    "name": "residential",
    "category": "highway",
    "subcategory": "residential",
    "latitude": 34.20904368888889,
    "longitude": 72.03600155555556,
    "id": 660558263
  },
  {
    "name": "residential",
    "category": "highway",
    "subcategory": "residential",
    "latitude": 34.209785,
    "longitude": 72.0339788,
    "id": 660558264
  },
  {
    "name": "residential",
    "category": "highway",
    "subcategory": "residential",
    "latitude": 34.209799347368424,
    "longitude": 72.03552956842105,
    "id": 660558265
  },
  {
    "name": "residential",
    "category": "highway",
    "subcategory": "residential",
    "latitude": 34.21065431875,
    "longitude": 72.03476391875,
    "id": 660558266
  },
  {
    "name": "unclassified",
    "category": "highway",
    "subcategory": "unclassified",
    "latitude": 34.225066758333334,
    "longitude": 72.02617790833334,
    "id": 660558267
  },
  {
    "name": "unclassified",
    "category": "highway",
    "subcategory": "unclassified",
    "latitude": 34.218511033333336,
    "longitude": 72.03121353333333,
    "id": 660558268
  },
  {
    "name": "Bypass Road",
    "category": "highway",
    "subcategory": "primary",
    "latitude": 34.200222100000005,
    "longitude": 72.02569985,
    "id": 663606238
  },
  {
    "name": "Ring Road",
    "category": "highway",
    "subcategory": "trunk",
    "latitude": 34.23293683333333,
    "longitude": 72.00197883333333,
    "id": 685746132
  },
  {
    "name": "Ring Road",
    "category": "highway",
    "subcategory": "trunk",
    "latitude": 34.232835800000004,
    "longitude": 72.00174535,
    "id": 685746133
  },
  {
    "name": "Mardan Ring Road",
    "category": "highway",
    "subcategory": "trunk",
    "latitude": 34.234928833333335,
    "longitude": 71.99876010000001,
    "id": 685746134
  },
  {
    "name": "مردان رنگ روڈ",
    "category": "highway",
    "subcategory": "trunk",
    "latitude": 34.246048349999995,
    "longitude": 72.04655754999999,
    "id": 685746136
  },
  {
    "name": "مردان رنگ روڈ",
    "category": "highway",
    "subcategory": "trunk",
    "latitude": 34.245997349999996,
    "longitude": 72.04532505,
    "id": 685746137
  },
  {
    "name": "secondary",
    "category": "highway",
    "subcategory": "secondary",
    "latitude": 34.202682949999996,
    "longitude": 72.04748705,
    "id": 685746138
  },
  {
    "name": "secondary",
    "category": "highway",
    "subcategory": "secondary",
    "latitude": 34.20140074,
    "longitude": 72.04716228,
    "id": 685746139
  },
  {
    "name": "tertiary",
    "category": "highway",
    "subcategory": "tertiary",
    "latitude": 34.1999462,
    "longitude": 72.044792225,
    "id": 685746140
  },
  {
    "name": "trunk_link",
    "category": "highway",
    "subcategory": "trunk_link",
    "latitude": 34.2463622,
    "longitude": 72.04931003333333,
    "id": 685746141
  },
  {
    "name": "مردان رنگ روڈ",
    "category": "highway",
    "subcategory": "trunk",
    "latitude": 34.24716636428572,
    "longitude": 72.06158056428572,
    "id": 685746142
  },
  {
    "name": "مردان رنگ روڈ",
    "category": "highway",
    "subcategory": "trunk",
    "latitude": 34.2460858,
    "longitude": 72.04768675,
    "id": 685746143
  },
  {
    "name": "trunk_link",
    "category": "highway",
    "subcategory": "trunk_link",
    "latitude": 34.2456856,
    "longitude": 72.04462749999999,
    "id": 685746144
  },
  {
    "name": "trunk_link",
    "category": "highway",
    "subcategory": "trunk_link",
    "latitude": 34.24610464444444,
    "longitude": 72.05081022222222,
    "id": 685746145
  },
  {
    "name": "trunk_link",
    "category": "highway",
    "subcategory": "trunk_link",
    "latitude": 34.2460506,
    "longitude": 72.045103425,
    "id": 685746146
  },
  {
    "name": "trunk_link",
    "category": "highway",
    "subcategory": "trunk_link",
    "latitude": 34.2358568,
    "longitude": 71.99956776,
    "id": 685746156
  },
  {
    "name": "trunk_link",
    "category": "highway",
    "subcategory": "trunk_link",
    "latitude": 34.236541853846155,
    "longitude": 71.99915665384616,
    "id": 685746157
  },
  {
    "name": "مردان رنگ روڈ",
    "category": "highway",
    "subcategory": "trunk",
    "latitude": 34.24564907407407,
    "longitude": 72.02941791481481,
    "id": 685746158
  },
  {
    "name": "trunk_link",
    "category": "highway",
    "subcategory": "trunk_link",
    "latitude": 34.2334574,
    "longitude": 71.99736141111111,
    "id": 685746160
  },
  {
    "name": "residential",
    "category": "highway",
    "subcategory": "residential",
    "latitude": 34.199464166666665,
    "longitude": 72.05308583333333,
    "id": 685751011
  },
  {
    "name": "residential",
    "category": "highway",
    "subcategory": "residential",
    "latitude": 34.1940272,
    "longitude": 72.0401467,
    "id": 686161231
  },
  {
    "name": "residential",
    "category": "highway",
    "subcategory": "residential",
    "latitude": 34.19334935,
    "longitude": 72.0402306,
    "id": 686161232
  },
  {
    "name": "residential",
    "category": "highway",
    "subcategory": "residential",
    "latitude": 34.193074100000004,
    "longitude": 72.04013215,
    "id": 686161233
  },
  {
    "name": "marketplace",
    "category": "amenity",
    "subcategory": "marketplace",
    "latitude": 34.19155816,
    "longitude": 72.04363914000001,
    "id": 686660853
  },
  {
    "name": "gulibagh",
    "category": "landuse",
    "subcategory": "residential",
    "latitude": 34.18947024285714,
    "longitude": 72.04633008571429,
    "id": 686661370
  },
  {
    "name": "کالج روڈ",
    "category": "highway",
    "subcategory": "residential",
    "latitude": 34.1898191,
    "longitude": 72.04088126666666,
    "id": 686662553
  },
  {
    "name": "کالج چوک",
    "category": "landuse",
    "subcategory": "residential",
    "latitude": 34.19014396,
    "longitude": 72.04035409999999,
    "id": 686662710
  },
  {
    "name": "residential",
    "category": "highway",
    "subcategory": "residential",
    "latitude": 34.231784127272725,
    "longitude": 72.01334866363636,
    "id": 687248488
  },
  {
    "name": "residential",
    "category": "highway",
    "subcategory": "residential",
    "latitude": 34.19290364285714,
    "longitude": 72.0530661,
    "id": 689985342
  },
  {
    "name": "residential",
    "category": "highway",
    "subcategory": "residential",
    "latitude": 34.19333708,
    "longitude": 72.05227887999999,
    "id": 689985343
  },