[
  {
    "name": "چک بختاور",
    "category": "place",
    "subcategory": "village",
    "latitude": 32.8296561,
    "longitude": 73.9642875,
    "id": 9408508260
  },
  {
    "name": "Govt Boys High School Bhagwal",
    "category": "office",
    "subcategory": "educational_institution",
    "latitude": 32.8262567,
    "longitude": 73.9598813,
    "id": 11309035818
  },
  {
    "name": "چھپڑ سٹاپ",
    "category": "highway",
    "subcategory": "bus_stop",
    "latitude": 32.8175163,
    "longitude": 73.9584045,
    "id": 11637488694
  },
  {
    "name": "Al Khidmat Block",
    "category": "amenity",
    "subcategory": "school",
    "latitude": 32.8260192,
    "longitude": 73.9596861,
    "id": 11983114226
  },
  {
    "name": "نور مسجد",
    "category": "amenity",
    "subcategory": "place_of_worship",
    "latitude": 32.8268494,
    "longitude": 73.9605552,
    "id": 12846735168
  },
  {
    "name": "Bhagwal - Guliana Link Road",
    "category": "highway",
    "subcategory": "tertiary",
    "latitude": 32.83350567592593,
    "longitude": 73.96193174629629,
    "id": 229848899
  },
  {
    "name": "unclassified",
    "category": "highway",
    "subcategory": "unclassified",
    "latitude": 32.828925041379314,
    "longitude": 73.96705244137931,
    "id": 999208246
  },
  {
    "name": "residential",
    "category": "highway",
    "subcategory": "residential",
    "latitude": 32.833992275,
    "longitude": 73.97060102500001,
    "id": 1044790060
  },
  {
    "name": "Masjid Nimra Road",
    "category": "highway",
    "subcategory": "living_street",
    "latitude": 32.82367305384616,
    "longitude": 73.9570443923077,
    "id": 1221671912
  },
  {
    "name": "residential",
    "category": "highway",
    "subcategory": "residential",
    "latitude": 32.83008784,
    "longitude": 73.96334976,
    "id": 1228886929
  },
  {
    "name": "مسجد نمرہ بھگوال",
    "category": "amenity",
    "subcategory": "place_of_worship",
    "latitude": 32.82358781111111,
    "longitude": 73.95964496666666,
    "id": 1234592177
  },
  {
    "name": "unclassified",
    "category": "highway",
    "subcategory": "unclassified",
    "latitude": 32.82186596785714,
    "longitude": 73.96877277857142,
    "id": 1236948778
  },
  {
    "name": "residential",
    "category": "highway",
    "subcategory": "residential",
    "latitude": 32.82943115,
    "longitude": 73.9638077125,
    "id": 1236948779
  },
  {
    "name": "unclassified",
    "category": "highway",
    "subcategory": "unclassified",
    "latitude": 32.82456658375,
    "longitude": 73.96405726750001,
    "id": 1236948780
  },
  {
    "name": "living_street",
    "category": "highway",
    "subcategory": "living_street",
    "latitude": 32.82292186666667,
    "longitude": 73.95735198333334,
    "id": 1387778437
  },
  {
    "name": "residential",
    "category": "landuse",
    "subcategory": "residential",
    "latitude": 32.83461940444444,
    "longitude": 73.97409255777778,
    "id": 1412959014
  },
  {
    "name": "residential",
    "category": "landuse",
    "subcategory": "residential",
    "latitude": 32.829373784615385,
    "longitude": 73.96475382307692,
    "id": 1412959016
  },
  {
    "name": "residential",
    "category": "landuse",
    "subcategory": "residential",
    "latitude": 32.82161859333333,
    "longitude": 73.96329382666666,
    "id": 1412959017
  },
  {
    "name": "Bhagwal",
    "category": "landuse",
    "subcategory": "residential",
    "latitude": 32.820318798113206,
    "longitude": 73.95601966792452,
    "id": 1412959021
  },
  {
    "name": "مسجد نمرہ بھگوال",
    "category": "amenity",
    "subcategory": "place_of_worship",
    "latitude": 32.82358781111111,
    "longitude": 73.95964496666666,
    "id": 1234592177
  },
  {
    "name": "residential",
    "category": "landuse",
    "subcategory": "residential",
    "latitude": 32.83460382222222,
    "longitude": 73.97409002888888,
    "id": 1412959014
  },
  {
    "name": "residential",
    "category": "landuse",
    "subcategory": "residential",
    "latitude": 32.82931657692308,
    "longitude": 73.96472464358975,
    "id": 1412959016
  },
  {
    "name": "residential",
    "category": "landuse",
    "subcategory": "residential",
    "latitude": 32.82151871333333,
    "longitude": 73.96318508666667,
    "id": 1412959017
  },
  {
    "name": "Bhagwal",
    "category": "landuse",
    "subcategory": "residential",
    "latitude": 32.82024013773585,
    "longitude": 73.95601251698113,
    "id": 1412959021
  }
]