[
  {
    "name": "Total",
    "category": "amenity",
    "subcategory": "fuel",
    "latitude": 24.893615,
    "longitude": 66.975677,
    "id": 253149519
  },
  {
    "name": "Oven Fresh Bakery",
    "category": "shop",
    "subcategory": "bakery",
    "latitude": 24.9383338,
    "longitude": 67.0418258,
    "id": 285993886
  },
  {
    "name": "پاکستان اسٹیٹ آئل",
    "category": "amenity",
    "subcategory": "fuel",
    "latitude": 24.8888641,
    "longitude": 66.9828594,
    "id": 1866256791
  },
  {
    "name": "Al Jeddah Medical Store",
    "category": "amenity",
    "subcategory": "pharmacy",
    "latitude": 24.9156407,
    "longitude": 66.9657386,
    "id": 2446404623
  },
  {
    "name": "Cafe Karachi",
    "category": "amenity",
    "subcategory": "cafe",
    "latitude": 24.8744292,
    "longitude": 67.0301985,
    "id": 2515543958
  },
  {
    "name": "Ziauddin Hospital North Nazimabad",
    "category": "amenity",
    "subcategory": "hospital",
    "latitude": 24.9239276,
    "longitude": 67.0447127,
    "id": 2671409823
  },
  {
    "name": "Pakistan Shipowner's Government College",
    "category": "amenity",
    "subcategory": "college",
    "latitude": 24.9488618,
    "longitude": 67.0409069,
    "id": 3377907545
  },
  {
    "name": "Qudsiya Mosque",
    "category": "amenity",
    "subcategory": "place_of_worship",
    "latitude": 24.9129005,
    "longitude": 67.0422088,
    "id": 3431215530
  },
  {
    "name": "Meezan Bank Limited",
    "category": "amenity",
    "subcategory": "atm",
    "latitude": 24.906664,
    "longitude": 66.9973634,
    "id": 3500533704
  },
  {
    "name": "Meezan Bank Limited SITE Branch",
    "category": "amenity",
    "subcategory": "bank",
    "latitude": 24.9102459,
    "longitude": 67.0109264,
    "id": 3523446760
  },
  {
    "name": "The Bank of Khyber SITE Branch",
    "category": "amenity",
    "subcategory": "bank",
    "latitude": 24.911412,
    "longitude": 67.0126172,
    "id": 3523446761
  },
  {
    "name": "Mustafa",
    "category": "amenity",
    "subcategory": "place_of_worship",
    "latitude": 24.947291,
    "longitude": 67.0263132,
    "id": 3794136618
  },
  {
    "name": "Noor",
    "category": "amenity",
    "subcategory": "place_of_worship",
    "latitude": 24.9303104,
    "longitude": 67.0444489,
    "id": 3813755697
  },
  {
    "name": "Masjid Siddiq e Akbar",
    "category": "amenity",
    "subcategory": "place_of_worship",
    "latitude": 24.9488832,
    "longitude": 67.0415095,
    "id": 3849299413
  },
  {
    "name": "Jama Masjid Shafi",
    "category": "amenity",
    "subcategory": "place_of_worship",
    "latitude": 24.9465858,
    "longitude": 67.0401301,
    "id": 3849310525
  },
  {
    "name": "Saima Pari Mall",
    "category": "shop",
    "subcategory": "mall",
    "latitude": 24.9386061,
    "longitude": 67.0444542,
    "id": 3853876959
  },
  {
    "name": "Pakistan Post",
    "category": "amenity",
    "subcategory": "post_office",
    "latitude": 24.9354814,
    "longitude": 67.0419741,
    "id": 3853878759
  },
  {
    "name": "Hussaini Govt Boys Secondary school",
    "category": "amenity",
    "subcategory": "school",
    "latitude": 24.9121579,
    "longitude": 67.0292216,
    "id": 4115438094
  },
  {
    "name": "Gole Market Jama",
    "category": "amenity",
    "subcategory": "place_of_worship",
    "latitude": 24.9143911,
    "longitude": 67.0235315,
    "id": 4249362997
  },
  {
    "name": "Oommen rose garden",
    "category": "tourism",
    "subcategory": "hostel",
    "latitude": 24.8743876,
    "longitude": 67.0463015,
    "id": 4277538189
  },
  {
    "name": "Azeem Public School",
    "category": "amenity",
    "subcategory": "school",
    "latitude": 24.9307368,
    "longitude": 67.0378233,
    "id": 4319411697
  },
  {
    "name": "Taj Banquet",
    "category": "amenity",
    "subcategory": "community_centre",
    "latitude": 24.9285722,
    "longitude": 67.034397,
    "id": 4331001993
  },
  {
    "name": "Babar CNG",
    "category": "amenity",
    "subcategory": "fuel",
    "latitude": 24.9417365,
    "longitude": 67.0350556,
    "id": 4336539537
  },
  {
    "name": "Police Station Shahrah e Noor Jahan",
    "category": "amenity",
    "subcategory": "police",
    "latitude": 24.9424363,
    "longitude": 67.0351801,
    "id": 4336539539
  },
  {
    "name": "Golimar Market",
    "category": "shop",
    "subcategory": "hardware",
    "latitude": 24.9011071,
    "longitude": 67.0304545,
    "id": 4369173589
  },
  {
    "name": "shakoor & co",
    "category": "shop",
    "subcategory": "outdoor",
    "latitude": 24.9032641,
    "longitude": 66.9768186,
    "id": 4419400889
  },
  {
    "name": "National Food",
    "category": "amenity",
    "subcategory": "fast_food",
    "latitude": 24.910717,
    "longitude": 66.9755315,
    "id": 4467781289
  },
  {
    "name": "مامی ہوم",
    "category": "tourism",
    "subcategory": "guest_house",
    "latitude": 24.8945614,
    "longitude": 67.0164599,
    "id": 4496371190
  },
  {
    "name": "shar shah kabari bazar engine",
    "category": "shop",
    "subcategory": "car_parts",
    "latitude": 24.8830591,
    "longitude": 66.9965339,
    "id": 4554752989
  },
  {
    "name": "Vikor enterprises (pvt) ltd.",
    "category": "tourism",
    "subcategory": "artwork",
    "latitude": 24.8873754,
    "longitude": 66.9716123,
    "id": 4674319092
  },
  {
    "name": "Virtual University Of Pakistan",
    "category": "amenity",
    "subcategory": "school",
    "latitude": 24.9415205,
    "longitude": 67.0458485,
    "id": 4698900699
  },
  {
    "name": "ٹوٹل",
    "category": "amenity",
    "subcategory": "fuel",
    "latitude": 24.8786376,
    "longitude": 67.022407,
    "id": 4710320431
  },
  {
    "name": "Pakistan Post Office",
    "category": "amenity",
    "subcategory": "post_office",
    "latitude": 24.8787848,
    "longitude": 67.0225934,
    "id": 4710320432
  },
  {
    "name": "Platinium Jamat Khana",
    "category": "amenity",
    "subcategory": "place_of_worship",
    "latitude": 24.8845256,
    "longitude": 67.0260792,
    "id": 4710320445
  },
  {
    "name": "Tharo Lane Football Ground",
    "category": "leisure",
    "subcategory": "playground",
    "latitude": 24.8852406,
    "longitude": 67.0258906,
    "id": 4710320446
  },
  {
    "name": "Gole Market",
    "category": "shop",
    "subcategory": "supermarket",
    "latitude": 24.9145251,
    "longitude": 67.0242732,
    "id": 4718748202
  },
  {
    "name": "پاکستان اسٹیٹ آئل",
    "category": "amenity",
    "subcategory": "fuel",
    "latitude": 24.9025116,
    "longitude": 67.030855,
    "id": 4734023565
  },
  {
    "name": "پاکستان اسٹیٹ آئل",
    "category": "amenity",
    "subcategory": "fuel",
    "latitude": 24.9020647,
    "longitude": 67.0292754,
    "id": 4734023566
  },
  {
    "name": "PSO Car Wash",
    "category": "amenity",
    "subcategory": "car_wash",
    "latitude": 24.9024193,
    "longitude": 67.0307007,
    "id": 4734023567
  },
  {
    "name": "PSO Car Wash",
    "category": "amenity",
    "subcategory": "car_wash",
    "latitude": 24.9021416,
    "longitude": 67.0295318,
    "id": 4734023568
  },
  {
    "name": "Bata Shoe store",
    "category": "shop",
    "subcategory": "shoes",
    "latitude": 24.8993958,
    "longitude": 67.0302643,
    "id": 4734023572
  },
  {
    "name": "Service Shoes",
    "category": "shop",
    "subcategory": "shoes",
    "latitude": 24.8994887,
    "longitude": 67.0302455,
    "id": 4734023573
  },
  {
    "name": "یونائیٹڈ بینک لمیٹڈ",
    "category": "amenity",
    "subcategory": "bank",
    "latitude": 24.8999054,
    "longitude": 67.0305725,
    "id": 4734023575
  },
  {
    "name": "فیصل بینک",
    "category": "amenity",
    "subcategory": "bank",
    "latitude": 24.8956532,
    "longitude": 67.0304606,
    "id": 4734023578
  },
  {
    "name": "Wazeer Patti Wala",
    "category": "amenity",
    "subcategory": "clinic",
    "latitude": 24.8927191,
    "longitude": 67.0309852,
    "id": 4734023579
  },
  {
    "name": "بينک الحبيب",
    "category": "amenity",
    "subcategory": "bank",
    "latitude": 24.892013,
    "longitude": 67.031055,
    "id": 4734023580
  },
  {
    "name": "National Bank",
    "category": "amenity",
    "subcategory": "bank",
    "latitude": 24.9021496,
    "longitude": 67.0298852,
    "id": 4734023581
  },
  {
    "name": "شیل",
    "category": "amenity",
    "subcategory": "fuel",
    "latitude": 24.9062772,
    "longitude": 67.0312699,
    "id": 4734023582
  },
  {
    "name": "Ryan CNG Station",
    "category": "amenity",
    "subcategory": "fuel",
    "latitude": 24.9184086,
    "longitude": 67.0320539,
    "id": 4734023584
  },
  {
    "name": "Karachi X-ray",
    "category": "amenity",
    "subcategory": "clinic",
    "latitude": 24.9195806,
    "longitude": 67.0310217,
    "id": 4734023590
  },
  {
    "name": "پاکستان اسٹیٹ آئل",
    "category": "amenity",
    "subcategory": "fuel",
    "latitude": 24.9249763,
    "longitude": 67.0311288,
    "id": 4734023591
  },
  {
    "name": "PSO Car Wash",
    "category": "amenity",
    "subcategory": "car_wash",
    "latitude": 24.9251554,
    "longitude": 67.0309469,
    "id": 4734023592
  },
  {
    "name": "Dil Pasand",
    "category": "shop",
    "subcategory": "confectionery",
    "latitude": 24.9261656,
    "longitude": 67.032188,
    "id": 4734023593
  },
  {
    "name": "Meat One",
    "category": "shop",
    "subcategory": "butcher",
    "latitude": 24.9265844,
    "longitude": 67.0326626,
    "id": 4734023594
  },
  {
    "name": "Bata Shoe Store",
    "category": "shop",
    "subcategory": "shoes",
    "latitude": 24.9266418,
    "longitude": 67.0327114,
    "id": 4734023595
  },
  {
    "name": "Quaid e Azam Rangers Public School & College",
    "category": "amenity",
    "subcategory": "school",
    "latitude": 24.9297508,
    "longitude": 67.0309361,
    "id": 4734023596
  },
  {
    "name": "Safi Hospital",
    "category": "amenity",
    "subcategory": "hospital",
    "latitude": 24.9314545,
    "longitude": 67.0383043,
    "id": 4734023597
  },
  {
    "name": "پاکستان اسٹیٹ آئل",
    "category": "amenity",
    "subcategory": "fuel",
    "latitude": 24.9407335,
    "longitude": 67.0012119,
    "id": 4734023599
  },
  {
    "name": "PSO Car Wash",
    "category": "amenity",
    "subcategory": "car_wash",
    "latitude": 24.9409688,
    "longitude": 67.0014068,
    "id": 4734023600
  },
  {
    "name": "Post Office",
    "category": "amenity",
    "subcategory": "post_office",
    "latitude": 24.9452985,
    "longitude": 67.0042043,
    "id": 4734023601
  },
  {
    "name": "Aziz Bakery",
    "category": "shop",
    "subcategory": "bakery",
    "latitude": 24.9513709,
    "longitude": 66.9971386,
    "id": 4734023605
  },
  {
    "name": "سی این جی",
    "category": "amenity",
    "subcategory": "fuel",
    "latitude": 24.8882558,
    "longitude": 67.0317882,
    "id": 4734370164
  },
  {
    "name": "Allah Wali",
    "category": "amenity",
    "subcategory": "place_of_worship",
    "latitude": 24.8887721,
    "longitude": 67.0316214,
    "id": 4734370165
  },
  {
    "name": "Noman",
    "category": "amenity",
    "subcategory": "place_of_worship",
    "latitude": 24.8874509,
    "longitude": 67.0335238,
    "id": 4734370166
  },
  {
    "name": "Mr Burger",
    "category": "amenity",
    "subcategory": "fast_food",
    "latitude": 24.9015136,
    "longitude": 67.0291531,
    "id": 4734370167
  },
  {
    "name": "بينک الحبيب",
    "category": "amenity",
    "subcategory": "bank",
    "latitude": 24.9014661,
    "longitude": 67.0294056,
    "id": 4734370168
  },
  {
    "name": "Fancy Lawn",
    "category": "amenity",
    "subcategory": "community_centre",
    "latitude": 24.9019465,
    "longitude": 67.0260362,
    "id": 4734370169
  },
  {
    "name": "Lamcy Lawn",
    "category": "amenity",
    "subcategory": "community_centre",
    "latitude": 24.901984,
    "longitude": 67.025747,
    "id": 4734370170
  },
  {
    "name": "Mini Market",
    "category": "shop",
    "subcategory": "convenience",
    "latitude": 24.9008417,
    "longitude": 67.030113,
    "id": 4734370173
  },
  {
    "name": "پاکستان اسٹیٹ آئل",
    "category": "amenity",
    "subcategory": "fuel",
    "latitude": 24.9036076,
    "longitude": 67.0171315,
    "id": 4734370175
  },
  {
    "name": "بينک الحبيب",
    "category": "amenity",
    "subcategory": "bank",
    "latitude": 24.903108,
    "longitude": 67.0177761,
    "id": 4734370176
  },
  {
    "name": "Honda Site",
    "category": "shop",
    "subcategory": "car",
    "latitude": 24.9067884,
    "longitude": 67.0158159,
    "id": 4734370178
  },
  {
    "name": "پاکستان اسٹیٹ آئل",
    "category": "amenity",
    "subcategory": "fuel",
    "latitude": 24.9117913,
    "longitude": 67.0140423,
    "id": 4734370180
  },
  {
    "name": "METRO Supermarket",
    "category": "shop",
    "subcategory": "supermarket",
    "latitude": 24.9197091,
    "longitude": 67.0149476,
    "id": 4734370182
  },
  {
    "name": "Byco Petrol Station and CNG",
    "category": "amenity",
    "subcategory": "fuel",
    "latitude": 24.9190239,
    "longitude": 67.0142883,
    "id": 4734370183
  },
  {
    "name": "Midway Hospital",
    "category": "amenity",
    "subcategory": "hospital",
    "latitude": 24.9204202,
    "longitude": 67.0310582,
    "id": 4738010732
  },
  {
    "name": "Abbasi Shaheed Trauma Centre",
    "category": "amenity",
    "subcategory": "hospital",
    "latitude": 24.9211529,
    "longitude": 67.0296122,
    "id": 4738010733
  },
  {
    "name": "PC Lawn",
    "category": "amenity",
    "subcategory": "community_centre",
    "latitude": 24.9238608,
    "longitude": 67.0292172,
    "id": 4738010740
  },
  {
    "name": "Jinnah Marriage Hall",
    "category": "amenity",
    "subcategory": "community_centre",
    "latitude": 24.9253737,
    "longitude": 67.0305047,
    "id": 4738038629
  },
  {
    "name": "Sabih",
    "category": "amenity",
    "subcategory": "place_of_worship",
    "latitude": 24.9257289,
    "longitude": 67.0301077,
    "id": 4738038630
  },
  {
    "name": "شیل",
    "category": "amenity",
    "subcategory": "fuel",
    "latitude": 24.9260986,
    "longitude": 67.0310143,
    "id": 4738038632
  },
  {
    "name": "ایم سی بی بینک",
    "category": "amenity",
    "subcategory": "bank",
    "latitude": 24.9261746,
    "longitude": 67.0308466,
    "id": 4738038633
  },
  {
    "name": "Dip Shop",
    "category": "amenity",
    "subcategory": "ice_cream",
    "latitude": 24.9261399,
    "longitude": 67.0316795,
    "id": 4738038635
  },
  {
    "name": "Dehli Nehari House",
    "category": "amenity",
    "subcategory": "restaurant",
    "latitude": 24.9263914,
    "longitude": 67.0324829,
    "id": 4738038637
  },
  {
    "name": "Fish & Chips",
    "category": "amenity",
    "subcategory": "fast_food",
    "latitude": 24.926271,
    "longitude": 67.0323862,
    "id": 4738038638
  },
  {
    "name": "Hanif Hospital Diagnostic Centre",
    "category": "amenity",
    "subcategory": "hospital",
    "latitude": 24.9249885,
    "longitude": 67.0332063,
    "id": 4738085528
  },
  {
    "name": "Asghar Hospital",
    "category": "amenity",
    "subcategory": "hospital",
    "latitude": 24.925186,
    "longitude": 67.034245,
    "id": 4738085531
  },
  {
    "name": "Taimuria Bakery",
    "category": "shop",
    "subcategory": "bakery",
    "latitude": 24.9258038,
    "longitude": 67.0339164,
    "id": 4738085532
  },
  {
    "name": "Al-Markaz",
    "category": "amenity",
    "subcategory": "place_of_worship",
    "latitude": 24.9245413,
    "longitude": 67.0350926,
    "id": 4738085533
  },
  {
    "name": "Ali Murtaza",
    "category": "amenity",
    "subcategory": "place_of_worship",
    "latitude": 24.9235258,
    "longitude": 67.0337769,
    "id": 4738085534
  },
  {
    "name": "ڈنکن ڈونٹس",
    "category": "amenity",
    "subcategory": "fast_food",
    "latitude": 24.9269387,
    "longitude": 67.0329501,
    "id": 4738085536
  },
  {
    "name": "Habib Metro Bank",
    "category": "amenity",
    "subcategory": "bank",
    "latitude": 24.9271862,
    "longitude": 67.0331748,
    "id": 4738085537
  },
  {
    "name": "میزان بینک",
    "category": "amenity",
    "subcategory": "bank",
    "latitude": 24.9272513,
    "longitude": 67.0332224,
    "id": 4738085538
  },
  {
    "name": "بینک الفلاح",
    "category": "amenity",
    "subcategory": "bank",
    "latitude": 24.9273359,
    "longitude": 67.0332773,
    "id": 4738085539
  },
  {
    "name": "Feroza Banquet",
    "category": "amenity",
    "subcategory": "community_centre",
    "latitude": 24.9270307,
    "longitude": 67.0342276,
    "id": 4738085541
  },
  {
    "name": "Meri Kong",
    "category": "amenity",
    "subcategory": "restaurant",
    "latitude": 24.927657,
    "longitude": 67.0329495,
    "id": 4738098677
  },
  {
    "name": "سب وے",
    "category": "amenity",
    "subcategory": "fast_food",
    "latitude": 24.9277518,
    "longitude": 67.0331265,
    "id": 4738098678
  },
  {
    "name": "Kababjees",
    "category": "amenity",
    "subcategory": "restaurant",
    "latitude": 24.9279793,
    "longitude": 67.0338749,
    "id": 4738098679
  },
  {
    "name": "Mehran Welfare Complex",
    "category": "amenity",
    "subcategory": "community_centre",
    "latitude": 24.928186,
    "longitude": 67.0326665,
    "id": 4738098680
  },
  {
    "name": "Creek Inn",
    "category": "amenity",
    "subcategory": "restaurant",
    "latitude": 24.9284013,
    "longitude": 67.0321756,
    "id": 4738098681
  },
  {
    "name": "Pizza King",
    "category": "amenity",
    "subcategory": "restaurant",
    "latitude": 24.9287831,
    "longitude": 67.0325325,
    "id": 4738098682
  },
  {
    "name": "Khanjee",
    "category": "amenity",
    "subcategory": "restaurant",
    "latitude": 24.9288367,
    "longitude": 67.0326263,
    "id": 4738098683
  },
  {
    "name": "Sawadee",
    "category": "amenity",
    "subcategory": "restaurant",
    "latitude": 24.9286956,
    "longitude": 67.0324654,
    "id": 4738098684
  },
  {
    "name": "Burger Octane",
    "category": "amenity",
    "subcategory": "fast_food",
    "latitude": 24.9284901,
    "longitude": 67.0321099,
    "id": 4738098685
  },
  {
    "name": "Hot Bite",
    "category": "amenity",
    "subcategory": "fast_food",
    "latitude": 24.928763,
    "longitude": 67.031711,
    "id": 4738119447
  },
  {
    "name": "Hi Tea 99",
    "category": "amenity",
    "subcategory": "fast_food",
    "latitude": 24.9285659,
    "longitude": 67.0319698,
    "id": 4738119448
  },
  {
    "name": "14 Street Pizza",
    "category": "amenity",
    "subcategory": "fast_food",
    "latitude": 24.9280977,
    "longitude": 67.0322475,
    "id": 4738119449
  },
  {
    "name": "Fancy Bakery",
    "category": "shop",
    "subcategory": "bakery",
    "latitude": 24.9283191,
    "longitude": 67.0322796,
    "id": 4738119450
  },
  {
    "name": "Cafe Al Mehran",
    "category": "amenity",
    "subcategory": "fast_food",
    "latitude": 24.9282497,
    "longitude": 67.032411,
    "id": 4738119451
  },
  {
    "name": "Manahil Food",
    "category": "amenity",
    "subcategory": "restaurant",
    "latitude": 24.9280248,
    "longitude": 67.032867,
    "id": 4738119452
  },
  {
    "name": "Afridi Inn",
    "category": "amenity",
    "subcategory": "restaurant",
    "latitude": 24.9282291,
    "longitude": 67.0330735,
    "id": 4738119453
  },
  {
    "name": "Nida Fast Food Center",
    "category": "amenity",
    "subcategory": "fast_food",
    "latitude": 24.9283239,
    "longitude": 67.0331741,
    "id": 4738119454
  },
  {
    "name": "Chai Session",
    "category": "shop",
    "subcategory": "tea",
    "latitude": 24.9278448,
    "longitude": 67.0329932,
    "id": 4738119455
  },
  {
    "name": "Mini Market",
    "category": "shop",
    "subcategory": "convenience",
    "latitude": 24.9283891,
    "longitude": 67.033218,
    "id": 4738119456
  },
  {
    "name": "Pizza King",
    "category": "amenity",
    "subcategory": "restaurant",
    "latitude": 24.9285943,
    "longitude": 67.0329425,
    "id": 4738119457
  },
  {
    "name": "Lab Test Clinical Laboratory",
    "category": "amenity",
    "subcategory": "clinic",
    "latitude": 24.9284022,
    "longitude": 67.0342363,
    "id": 4738135538
  },
  {
    "name": "Faisal Bank",
    "category": "amenity",
    "subcategory": "bank",
    "latitude": 24.9281483,
    "longitude": 67.0351724,
    "id": 4738135539
  },
  {
    "name": "Paradise Commerce College",
    "category": "amenity",
    "subcategory": "college",
    "latitude": 24.9288476,
    "longitude": 67.0358362,
    "id": 4738135541
  },
  {
    "name": "لائف لائن ہسپتال",
    "category": "amenity",
    "subcategory": "hospital",
    "latitude": 24.9291492,
    "longitude": 67.0361313,
    "id": 4738135542
  },
  {
    "name": "Meerath Famous Kabab Paratha",
    "category": "amenity",
    "subcategory": "restaurant",
    "latitude": 24.9289295,
    "longitude": 67.0347351,
    "id": 4738135544
  },
  {
    "name": "Dadabhouy Institute",
    "category": "amenity",
    "subcategory": "college",
    "latitude": 24.9298283,
    "longitude": 67.0354941,
    "id": 4738158530
  },
  {
    "name": "Zamin CNG Station",
    "category": "amenity",
    "subcategory": "fuel",
    "latitude": 24.9305928,
    "longitude": 67.0362091,
    "id": 4738158531
  },
  {
    "name": "Splended Banquet",
    "category": "amenity",
    "subcategory": "community_centre",
    "latitude": 24.9307582,
    "longitude": 67.0387035,
    "id": 4738158533
  },
  {
    "name": "Beaconhouse School System Primary IV - North Nazimabad",
    "category": "amenity",
    "subcategory": "school",
    "latitude": 24.9300869,
    "longitude": 67.038898,
    "id": 4738158534
  },
  {
    "name": "Suzuki North Motors",
    "category": "shop",
    "subcategory": "car",
    "latitude": 24.9299138,
    "longitude": 67.0392037,
    "id": 4738158535
  },
  {
    "name": "KDA Plant Nursery",
    "category": "shop",
    "subcategory": "florist",
    "latitude": 24.9320387,
    "longitude": 67.0380705,
    "id": 4738187727
  },
  {
    "name": "Chase Up",
    "category": "shop",
    "subcategory": "department_store",
    "latitude": 24.9320419,
    "longitude": 67.0386573,
    "id": 4738187731
  },
  {
    "name": "سمٹ بینک",
    "category": "amenity",
    "subcategory": "bank",
    "latitude": 24.9339877,
    "longitude": 67.0403496,
    "id": 4738187732
  },
  {
    "name": "Dolman Mall Hyderi",
    "category": "shop",
    "subcategory": "mall",
    "latitude": 24.9354357,
    "longitude": 67.0404768,
    "id": 4738187733
  },
  {
    "name": "Sindbad-Dolmen Mall Hyderi",
    "category": "tourism",
    "subcategory": "theme_park",
    "latitude": 24.9355323,
    "longitude": 67.0405516,
    "id": 4738187734
  },
  {
    "name": "Hydri Police Station",
    "category": "amenity",
    "subcategory": "police",
    "latitude": 24.9375669,
    "longitude": 67.0408456,
    "id": 4738187736
  },
  {
    "name": "Hydri Commerical Market",
    "category": "amenity",
    "subcategory": "marketplace",
    "latitude": 24.937714,
    "longitude": 67.0417693,
    "id": 4738214980
  },
  {
    "name": "Blue Ribbon Bakery",
    "category": "shop",
    "subcategory": "bakery",
    "latitude": 24.9383017,
    "longitude": 67.0428019,
    "id": 4738218413
  },
  {
    "name": "Nando's",
    "category": "amenity",
    "subcategory": "fast_food",
    "latitude": 24.939827,
    "longitude": 67.0444085,
    "id": 4738238041
  },
  {
    "name": "Hamza Nagori Milk Shop",
    "category": "shop",
    "subcategory": "dairy",
    "latitude": 24.9351124,
    "longitude": 67.0452807,
    "id": 4739781670
  },
  {
    "name": "Annadil Burhaniyah Ground",
    "category": "leisure",
    "subcategory": "sports_centre",
    "latitude": 24.938934,
    "longitude": 67.036528,
    "id": 4739869912
  },
  {
    "name": "Agha Khan Diagnostic Center",
    "category": "amenity",
    "subcategory": "hospital",
    "latitude": 24.9384972,
    "longitude": 67.0337553,
    "id": 4739903920
  },
  {
    "name": "Tota Park",
    "category": "leisure",
    "subcategory": "park",
    "latitude": 24.9377269,
    "longitude": 67.0334295,
    "id": 4739911373
  },
  {
    "name": "Ilyas Biryani",
    "category": "amenity",
    "subcategory": "restaurant",
    "latitude": 24.9371966,
    "longitude": 67.0332363,
    "id": 4739926356
  },
  {
    "name": "Habib Restaurant",
    "category": "amenity",
    "subcategory": "restaurant",
    "latitude": 24.9371918,
    "longitude": 67.0336091,
    "id": 4739926357
  },
  {
    "name": "Chicken Corn Soup",
    "category": "amenity",
    "subcategory": "restaurant",
    "latitude": 24.9370994,
    "longitude": 67.033483,
    "id": 4739926358
  },
  {
    "name": "Rahmaniya",
    "category": "amenity",
    "subcategory": "place_of_worship",
    "latitude": 24.9360024,
    "longitude": 67.0334267,
    "id": 4739930149
  },
  {
    "name": "Nursery",
    "category": "leisure",
    "subcategory": "nature_reserve",
    "latitude": 24.9357518,
    "longitude": 67.0310837,
    "id": 4741246322
  },
  {
    "name": "Hasrat Mohani Libary",
    "category": "amenity",
    "subcategory": "library",
    "latitude": 24.936123,
    "longitude": 67.0307233,
    "id": 4741273129
  },
  {
    "name": "مسجد بلال",
    "category": "amenity",
    "subcategory": "place_of_worship",
    "latitude": 24.9360136,
    "longitude": 67.0294841,
    "id": 4741273130
  },
  {
    "name": "SKB School",
    "category": "amenity",
    "subcategory": "school",
    "latitude": 24.9352985,
    "longitude": 67.0278882,
    "id": 4741273131
  },
  {
    "name": "Batool Park",
    "category": "leisure",
    "subcategory": "park",
    "latitude": 24.9363638,
    "longitude": 67.0271425,
    "id": 4741273132
  },
  {
    "name": "Saeed Park",
    "category": "leisure",
    "subcategory": "park",
    "latitude": 24.9360598,
    "longitude": 67.0267321,
    "id": 4741273133
  },
  {
    "name": "Taj Bakery",
    "category": "shop",
    "subcategory": "bakery",
    "latitude": 24.9342412,
    "longitude": 67.0284408,
    "id": 4741273135
  },
  {
    "name": "ایچ بی ایل پاکستان",
    "category": "amenity",
    "subcategory": "bank",
    "latitude": 24.9332064,
    "longitude": 67.0267456,
    "id": 4741273136
  },
  {
    "name": "Baktihari Youth Center",
    "category": "leisure",
    "subcategory": "playground",
    "latitude": 24.9323687,
    "longitude": 67.0236181,
    "id": 4741273137
  },
  {
    "name": "KDA Cricket Ground",
    "category": "leisure",
    "subcategory": "pitch",
    "latitude": 24.9319552,
    "longitude": 67.0219927,
    "id": 4741273138
  },
  {
    "name": "Government Girls Degree College",
    "category": "amenity",
    "subcategory": "college",
    "latitude": 24.9429028,
    "longitude": 67.0274805,
    "id": 4741278057
  },
  {
    "name": "Nizari Jamat Khana",
    "category": "amenity",
    "subcategory": "place_of_worship",
    "latitude": 24.9392507,
    "longitude": 67.0342669,
    "id": 4741278059
  },
  {
    "name": "مسجد بلال",
    "category": "amenity",
    "subcategory": "place_of_worship",
    "latitude": 24.9384001,
    "longitude": 67.0382119,
    "id": 4741278060
  },
  {
    "name": "Ashraf",
    "category": "amenity",
    "subcategory": "place_of_worship",
    "latitude": 24.9407372,
    "longitude": 67.0373783,
    "id": 4741278061
  },
  {
    "name": "Technical Training College",
    "category": "amenity",
    "subcategory": "college",
    "latitude": 24.9394147,
    "longitude": 67.0393953,
    "id": 4741301595
  },
  {
    "name": "Rex Banquet",
    "category": "amenity",
    "subcategory": "community_centre",
    "latitude": 24.9396359,
    "longitude": 67.0442484,
    "id": 4741344718
  },
  {
    "name": "The Beginners School",
    "category": "amenity",
    "subcategory": "school",
    "latitude": 24.9448016,
    "longitude": 67.0449882,
    "id": 4741344833
  },
  {
    "name": "National Girls Govt. School",
    "category": "amenity",
    "subcategory": "school",
    "latitude": 24.9420182,
    "longitude": 67.043547,
    "id": 4741344834
  },
  {
    "name": "Badri High School",
    "category": "amenity",
    "subcategory": "school",
    "latitude": 24.9356594,
    "longitude": 67.0358662,
    "id": 4741389748
  },
  {
    "name": "Iqbal Market",
    "category": "amenity",
    "subcategory": "marketplace",
    "latitude": 24.9350091,
    "longitude": 67.0436442,
    "id": 4741413273
  },
  {
    "name": "Village Inn",
    "category": "amenity",
    "subcategory": "restaurant",
    "latitude": 24.9099485,
    "longitude": 67.0106047,
    "id": 4757902878
  },
  {
    "name": "FBL Offsite ATM",
    "category": "amenity",
    "subcategory": "bank",
    "latitude": 24.9198665,
    "longitude": 67.0169429,
    "id": 4757902880
  },
  {
    "name": "Sindh Social Scurity Hospital",
    "category": "amenity",
    "subcategory": "hospital",
    "latitude": 24.926006,
    "longitude": 67.0152528,
    "id": 4757902881
  },
  {
    "name": "Euro Classic",
    "category": "tourism",
    "subcategory": "apartment",
    "latitude": 24.9347802,
    "longitude": 67.0410466,
    "id": 4757970751
  },
  {
    "name": "Kulsum Bai Valika Hospital",
    "category": "amenity",
    "subcategory": "hospital",
    "latitude": 24.9272234,
    "longitude": 67.0155671,
    "id": 4757978642
  },
  {
    "name": "مسجد بلال",
    "category": "amenity",
    "subcategory": "place_of_worship",
    "latitude": 24.9301054,
    "longitude": 67.0208756,
    "id": 4757978644
  },
  {
    "name": "Paposh Qabristan",
    "category": "amenity",
    "subcategory": "grave_yard",
    "latitude": 24.9263518,
    "longitude": 67.0227357,
    "id": 4757978645
  },
  {
    "name": "State Bank of Pakistan",
    "category": "amenity",
    "subcategory": "bank",
    "latitude": 24.9299722,
    "longitude": 67.0253428,
    "id": 4757978646
  },
  {
    "name": "Nazimabad Eid Gah Ground",
    "category": "amenity",
    "subcategory": "place_of_worship",
    "latitude": 24.9116234,
    "longitude": 67.0298084,
    "id": 4757989801
  },
  {
    "name": "State Bank Cricket Ground",
    "category": "leisure",
    "subcategory": "stadium",
    "latitude": 24.9285461,
    "longitude": 67.0272771,
    "id": 4758017028
  },
  {
    "name": "Munno Mian Cooking Cornor & Food Centre",
    "category": "amenity",
    "subcategory": "restaurant",
    "latitude": 24.8732538,
    "longitude": 67.0314434,
    "id": 4769325025
  },
  {
    "name": "Muhammad Shah French Fries",
    "category": "amenity",
    "subcategory": "restaurant",
    "latitude": 24.8739964,
    "longitude": 67.0322844,
    "id": 4769325026
  },
  {
    "name": "Chick INN Conner",
    "category": "amenity",
    "subcategory": "restaurant",
    "latitude": 24.874852,
    "longitude": 67.0319307,
    "id": 4769325027
  },
  {
    "name": "Husaini Medical Store",
    "category": "amenity",
    "subcategory": "pharmacy",
    "latitude": 24.8752316,
    "longitude": 67.0325503,
    "id": 4769325028
  },
  {
    "name": "Soldier Food Corner & Roll Point",
    "category": "amenity",
    "subcategory": "restaurant",
    "latitude": 24.8758034,
    "longitude": 67.032333,
    "id": 4769325029
  },
  {
    "name": "Mehboob Food Centre",
    "category": "amenity",
    "subcategory": "restaurant",
    "latitude": 24.8754603,
    "longitude": 67.032074,
    "id": 4769325030
  },
  {
    "name": "ایچ بی ایل پاکستان",
    "category": "amenity",
    "subcategory": "bank",
    "latitude": 24.8754549,
    "longitude": 67.0314841,
    "id": 4769325031
  },
  {
    "name": "Al HADI DAIRY",
    "category": "amenity",
    "subcategory": "cafe",
    "latitude": 24.8755897,
    "longitude": 67.031109,
    "id": 4769325032
  },
  {
    "name": "Hot Plate Food and Caterers",
    "category": "amenity",
    "subcategory": "restaurant",
    "latitude": 24.8745944,
    "longitude": 67.0300968,
    "id": 4769325034
  },
  {
    "name": "Kanwal Bakers & Mini Mart",
    "category": "amenity",
    "subcategory": "restaurant",
    "latitude": 24.8741282,
    "longitude": 67.0298456,
    "id": 4769325035
  },
  {
    "name": "Al Rehman Biryani Centre",
    "category": "amenity",
    "subcategory": "restaurant",
    "latitude": 24.8759185,
    "longitude": 67.0322583,
    "id": 4769325036
  },
  {
    "name": "میزان بینک",
    "category": "amenity",
    "subcategory": "bank",
    "latitude": 24.8764517,
    "longitude": 67.0330786,
    "id": 4769325037
  },
  {
    "name": "اقبال ہوٹل",
    "category": "amenity",
    "subcategory": "restaurant",
    "latitude": 24.8912079,
    "longitude": 67.0400327,
    "id": 4775014538
  },
  {
    "name": "Quetta Karhai",
    "category": "amenity",
    "subcategory": "restaurant",
    "latitude": 24.8875626,
    "longitude": 67.0325248,
    "id": 4775014539
  },
  {
    "name": "Sabri Nehari",
    "category": "amenity",
    "subcategory": "restaurant",
    "latitude": 24.8871966,
    "longitude": 67.0325425,
    "id": 4775014540
  },
  {
    "name": "جے ایس بینک",
    "category": "amenity",
    "subcategory": "bank",
    "latitude": 24.8858292,
    "longitude": 67.0308051,
    "id": 4775195932
  },
  {
    "name": "Advans Pakistan Microfinance Bank Ltd",
    "category": "amenity",
    "subcategory": "bank",
    "latitude": 24.8859472,
    "longitude": 67.0309352,
    "id": 4775195933
  },
  {
    "name": "Makkah",
    "category": "amenity",
    "subcategory": "place_of_worship",
    "latitude": 24.885983,
    "longitude": 67.0285093,
    "id": 4775195936
  },
  {
    "name": "Jamalo Paratha",
    "category": "amenity",
    "subcategory": "restaurant",
    "latitude": 24.8862945,
    "longitude": 67.0292667,
    "id": 4775195937
  },
  {
    "name": "Masoom Shah",
    "category": "amenity",
    "subcategory": "place_of_worship",
    "latitude": 24.8882838,
    "longitude": 67.0283418,
    "id": 4775195938
  },
  {
    "name": "Fatima",
    "category": "amenity",
    "subcategory": "place_of_worship",
    "latitude": 24.8847539,
    "longitude": 67.0323224,
    "id": 4775195944
  },
  {
    "name": "Agha juice and ice cream",
    "category": "amenity",
    "subcategory": "restaurant",
    "latitude": 24.8844659,
    "longitude": 67.0341409,
    "id": 4775195948
  },
  {
    "name": "Subhani",
    "category": "amenity",
    "subcategory": "place_of_worship",
    "latitude": 24.8839395,
    "longitude": 67.03554,
    "id": 4775195951
  },
  {
    "name": "Mominabad Police Station",
    "category": "amenity",
    "subcategory": "police",
    "latitude": 24.9332692,
    "longitude": 66.9977663,
    "id": 4785718477
  },
  {
    "name": "Garden Traffic Police Station",
    "category": "amenity",
    "subcategory": "police",
    "latitude": 24.8774157,
    "longitude": 67.0217762,
    "id": 4785775160
  },
  {
    "name": "Soldier Bazar Police Station",
    "category": "amenity",
    "subcategory": "police",
    "latitude": 24.8750561,
    "longitude": 67.0288571,
    "id": 4785775165
  },
  {
    "name": "SITE Police Station",
    "category": "amenity",
    "subcategory": "police",
    "latitude": 24.9068299,
    "longitude": 66.9968733,
    "id": 4785775169
  },
  {
    "name": "Gulbahar Police Station",
    "category": "amenity",
    "subcategory": "police",
    "latitude": 24.8937218,
    "longitude": 67.0318737,
    "id": 4785857338
  },
  {
    "name": "Rizvia Police Station",
    "category": "amenity",
    "subcategory": "police",
    "latitude": 24.906036,
    "longitude": 67.0278909,
    "id": 4785884157
  },
  {
    "name": "Orangi Town Police Station",
    "category": "amenity",
    "subcategory": "police",
    "latitude": 24.9384086,
    "longitude": 67.0057284,
    "id": 4785884160
  },
  {
    "name": "KPSIAJ Khoja Family Park",
    "category": "leisure",
    "subcategory": "park",
    "latitude": 24.8739558,
    "longitude": 67.0345922,
    "id": 4793639797
  },
  {
    "name": "Fatimiyah School",
    "category": "amenity",
    "subcategory": "school",
    "latitude": 24.8744924,
    "longitude": 67.0348502,
    "id": 4793639798
  },
  {
    "name": "Zainab Panjwani Memorial Hospital",
    "category": "amenity",
    "subcategory": "hospital",
    "latitude": 24.8743206,
    "longitude": 67.0357634,
    "id": 4793639799
  },
  {
    "name": "Saylani Discount Store",
    "category": "shop",
    "subcategory": "supermarket",
    "latitude": 24.8737855,
    "longitude": 67.0362229,
    "id": 4793639801
  },
  {
    "name": "Jinnah CNG",
    "category": "amenity",
    "subcategory": "fuel",
    "latitude": 24.8756154,
    "longitude": 67.0371429,
    "id": 4793639802
  },
  {
    "name": "شیل",
    "category": "amenity",
    "subcategory": "fuel",
    "latitude": 24.8775426,
    "longitude": 67.0379771,
    "id": 4793639804
  },
  {
    "name": "3 Star Lawn",
    "category": "amenity",
    "subcategory": "community_centre",
    "latitude": 24.8779944,
    "longitude": 67.0459437,
    "id": 4793639819
  },
  {
    "name": "Masjid E Hasanain",
    "category": "amenity",
    "subcategory": "place_of_worship",
    "latitude": 24.8771152,
    "longitude": 67.0462712,
    "id": 4809862087
  },
  {
    "name": "All Pakistan Memon Federation",
    "category": "amenity",
    "subcategory": "community_centre",
    "latitude": 24.8774266,
    "longitude": 67.0463278,
    "id": 4809862088
  },
  {
    "name": "Pizza Next",
    "category": "amenity",
    "subcategory": "restaurant",
    "latitude": 24.9406561,
    "longitude": 67.045167,
    "id": 5008885022
  },
  {
    "name": "یونائیٹڈ بینک لمیٹڈ",
    "category": "amenity",
    "subcategory": "bank",
    "latitude": 24.9249546,
    "longitude": 67.0328424,
    "id": 5066072374
  },
  {
    "name": "Jamia Masjid o Imam Bargah Noor e Iman",
    "category": "amenity",
    "subcategory": "place_of_worship",
    "latitude": 24.9160201,
    "longitude": 67.0282504,
    "id": 5066143324
  },
  {
    "name": "Ziauddin Memorial Hospital",
    "category": "amenity",
    "subcategory": "hospital",
    "latitude": 24.9149546,
    "longitude": 67.0264479,
    "id": 5066143325
  },
  {
    "name": "Nazimabad Gole Market",
    "category": "amenity",
    "subcategory": "marketplace",
    "latitude": 24.9146456,
    "longitude": 67.0242217,
    "id": 5066143328
  },
  {
    "name": "MCB BANK",
    "category": "amenity",
    "subcategory": "bank",
    "latitude": 24.915193,
    "longitude": 67.0244336,
    "id": 5066143329
  },
  {
    "name": "Govt Pilot Secondary School",
    "category": "amenity",
    "subcategory": "school",
    "latitude": 24.9163071,
    "longitude": 67.0241332,
    "id": 5066143334
  },
  {
    "name": "Chandni Chowk",
    "category": "amenity",
    "subcategory": "bus_station",
    "latitude": 24.9215078,
    "longitude": 67.0214054,
    "id": 5066143335
  },
  {
    "name": "Paposh Sarrafa Bazaar",
    "category": "amenity",
    "subcategory": "marketplace",
    "latitude": 24.9219932,
    "longitude": 67.0226827,
    "id": 5066143337
  },
  {
    "name": "Dawoodi Bohra Hussani",
    "category": "amenity",
    "subcategory": "place_of_worship",
    "latitude": 24.9354381,
    "longitude": 67.0391243,
    "id": 5066199388
  },
  {
    "name": "Al Jamea Tus Saifyah",
    "category": "amenity",
    "subcategory": "college",
    "latitude": 24.9335916,
    "longitude": 67.0360503,
    "id": 5066199389
  },
  {
    "name": "Qudsia Masjid",
    "category": "amenity",
    "subcategory": "place_of_worship",
    "latitude": 24.9092841,
    "longitude": 67.0287493,
    "id": 5078966586
  },
  {
    "name": "پاکستان اسٹیٹ آئل",
    "category": "amenity",
    "subcategory": "fuel",
    "latitude": 24.9106464,
    "longitude": 67.0218909,
    "id": 5078966588
  },
  {
    "name": "ایچ بی ایل پاکستان",
    "category": "amenity",
    "subcategory": "bank",
    "latitude": 24.9078269,
    "longitude": 67.0263768,
    "id": 5078966591
  },
  {
    "name": "Friends Mart",
    "category": "shop",
    "subcategory": "supermarket",
    "latitude": 24.9077965,
    "longitude": 67.0260711,
    "id": 5078966592
  },
  {
    "name": "Mulsim Medical Store",
    "category": "amenity",
    "subcategory": "pharmacy",
    "latitude": 24.9069925,
    "longitude": 67.024954,
    "id": 5078966593
  },
  {
    "name": "Chawala Market",
    "category": "leisure",
    "subcategory": "fitness_centre",
    "latitude": 24.9066567,
    "longitude": 67.0257944,
    "id": 5078966594
  },
  {
    "name": "Karachi Cambridge Secondary School",
    "category": "amenity",
    "subcategory": "school",
    "latitude": 24.9064767,
    "longitude": 67.0246696,
    "id": 5078966595
  },
  {
    "name": "Agha Juice",
    "category": "amenity",
    "subcategory": "restaurant",
    "latitude": 24.9051557,
    "longitude": 67.0279138,
    "id": 5078966596
  },
  {
    "name": "بينک الحبيب",
    "category": "amenity",
    "subcategory": "bank",
    "latitude": 24.90558,
    "longitude": 67.0266225,
    "id": 5078966597
  },
  {
    "name": "Ideal Federal High School",
    "category": "amenity",
    "subcategory": "school",
    "latitude": 24.9094623,
    "longitude": 67.028285,
    "id": 5078966608
  },
  {
    "name": "Zeb Medical Center",
    "category": "amenity",
    "subcategory": "hospital",
    "latitude": 24.909232,
    "longitude": 67.0254049,
    "id": 5078966617
  },
  {
    "name": "Elegant Secondary School",
    "category": "amenity",
    "subcategory": "school",
    "latitude": 24.909469,
    "longitude": 67.0235579,
    "id": 5078966618
  },
  {
    "name": "Azizia",
    "category": "amenity",
    "subcategory": "place_of_worship",
    "latitude": 24.9098597,
    "longitude": 67.0232905,
    "id": 5078966619
  },
  {
    "name": "Aslam Bakery",
    "category": "shop",
    "subcategory": "bakery",
    "latitude": 24.904669,
    "longitude": 67.0276261,
    "id": 5078977925
  },
  {
    "name": "Shabbir Usmani Library",
    "category": "amenity",
    "subcategory": "library",
    "latitude": 24.9075909,
    "longitude": 67.0259115,
    "id": 5078977928
  },
  {
    "name": "Nazimabad Post Office",
    "category": "amenity",
    "subcategory": "post_office",
    "latitude": 24.9076797,
    "longitude": 67.0261462,
    "id": 5078977929
  },
  {
    "name": "Prince Bakery",
    "category": "shop",
    "subcategory": "bakery",
    "latitude": 24.9080848,
    "longitude": 67.0268704,
    "id": 5078977930
  },
  {
    "name": "Nayab Cinema",
    "category": "amenity",
    "subcategory": "cinema",
    "latitude": 24.9077758,
    "longitude": 67.028119,
    "id": 5078977931
  },
  {
    "name": "MS Hospital",
    "category": "amenity",
    "subcategory": "hospital",
    "latitude": 24.9041352,
    "longitude": 67.0304887,
    "id": 5078977952
  },
  {
    "name": "Rashid Minhas School",
    "category": "amenity",
    "subcategory": "school",
    "latitude": 24.9036571,
    "longitude": 67.029798,
    "id": 5078977953
  },
  {
    "name": "Millat Bakery and Sweet",
    "category": "shop",
    "subcategory": "bakery",
    "latitude": 24.902802,
    "longitude": 67.0237939,
    "id": 5078977954
  },
  {
    "name": "Honda Nazimabad",
    "category": "shop",
    "subcategory": "car",
    "latitude": 24.9027424,
    "longitude": 67.0242365,
    "id": 5078977955
  },
  {
    "name": "پاکستان اسٹیٹ آئل",
    "category": "amenity",
    "subcategory": "fuel",
    "latitude": 24.9027168,
    "longitude": 67.0244175,
    "id": 5078977956
  },
  {
    "name": "The Central Grammer Secondary School For Boys & Girls",
    "category": "amenity",
    "subcategory": "school",
    "latitude": 24.9027789,
    "longitude": 67.0240769,
    "id": 5078977957
  },
  {
    "name": "Madina Masjid - Nazimabad Block 1",
    "category": "amenity",
    "subcategory": "place_of_worship",
    "latitude": 24.9037898,
    "longitude": 67.0243572,
    "id": 5078977958
  },
  {
    "name": "Chawala Market",
    "category": "amenity",
    "subcategory": "marketplace",
    "latitude": 24.9064451,
    "longitude": 67.0264694,
    "id": 5078977962
  },
  {
    "name": "Bihari Kabab House Block 1",
    "category": "amenity",
    "subcategory": "restaurant",
    "latitude": 24.9053263,
    "longitude": 67.0277366,
    "id": 5078977964
  },
  {
    "name": "KMC Meat Market Block 1",
    "category": "amenity",
    "subcategory": "marketplace",
    "latitude": 24.9061945,
    "longitude": 67.0278749,
    "id": 5078977965
  },
  {
    "name": "Yaqoob Market Block 1",
    "category": "amenity",
    "subcategory": "marketplace",
    "latitude": 24.9058661,
    "longitude": 67.0280465,
    "id": 5078977974
  },
  {
    "name": "Gulzar Center",
    "category": "shop",
    "subcategory": "supermarket",
    "latitude": 24.9046868,
    "longitude": 67.0274665,
    "id": 5078977996
  },
  {
    "name": "Mujahid Ground",
    "category": "leisure",
    "subcategory": "playground",
    "latitude": 24.9059123,
    "longitude": 67.0262066,
    "id": 5078978270
  },
  {
    "name": "Govt Boys Primary School",
    "category": "amenity",
    "subcategory": "school",
    "latitude": 24.9045646,
    "longitude": 67.0334807,
    "id": 5079172410
  },
  {
    "name": "Master Bakery",
    "category": "shop",
    "subcategory": "bakery",
    "latitude": 24.9077709,
    "longitude": 67.0346421,
    "id": 5079172414
  },
  {
    "name": "Aqsa",
    "category": "amenity",
    "subcategory": "place_of_worship",
    "latitude": 24.9049796,
    "longitude": 67.0357443,
    "id": 5079173636
  },
  {
    "name": "Baqai Oncology",
    "category": "amenity",
    "subcategory": "hospital",
    "latitude": 24.907864,
    "longitude": 67.0351047,
    "id": 5079173649
  },
  {
    "name": "Al Murtaza Hospital",
    "category": "amenity",
    "subcategory": "hospital",
    "latitude": 24.9078658,
    "longitude": 67.0357901,
    "id": 5079173650
  },
  {
    "name": "بینک الفلاح",
    "category": "amenity",
    "subcategory": "bank",
    "latitude": 24.9053138,
    "longitude": 67.0305759,
    "id": 5079404670
  },
  {
    "name": "Zamzam",
    "category": "amenity",
    "subcategory": "place_of_worship",
    "latitude": 24.9069316,
    "longitude": 67.0369917,
    "id": 5079404675
  },
  {
    "name": "Haris Sweets",
    "category": "shop",
    "subcategory": "confectionery",
    "latitude": 24.9067443,
    "longitude": 67.035369,
    "id": 5079404676
  },
  {
    "name": "Cafe Ajwa",
    "category": "amenity",
    "subcategory": "cafe",
    "latitude": 24.9059439,
    "longitude": 67.0329631,
    "id": 5079404677
  },
  {
    "name": "Islamabad High School",
    "category": "amenity",
    "subcategory": "school",
    "latitude": 24.9039746,
    "longitude": 67.0332018,
    "id": 5079404678
  },
  {
    "name": "Rose Beauty Parlour",
    "category": "shop",
    "subcategory": "beauty",
    "latitude": 24.9047519,
    "longitude": 67.0316085,
    "id": 5079404679
  },
  {
    "name": "الائیڈ بینک لمیٹڈ",
    "category": "amenity",
    "subcategory": "bank",
    "latitude": 24.9073257,
    "longitude": 67.0330971,
    "id": 5079404681
  },
  {
    "name": "سونیری بینک",
    "category": "amenity",
    "subcategory": "bank",
    "latitude": 24.9075033,
    "longitude": 67.0348379,
    "id": 5079404682
  },
  {
    "name": "Super Asia Bakery",
    "category": "shop",
    "subcategory": "bakery",
    "latitude": 24.9066324,
    "longitude": 67.0344651,
    "id": 5079404683
  },
  {
    "name": "اسٹینڈرڈ چارٹرڈ",
    "category": "amenity",
    "subcategory": "bank",
    "latitude": 24.9181777,
    "longitude": 67.0309702,
    "id": 5079542885
  },
  {
    "name": "بینک اسلامی",
    "category": "amenity",
    "subcategory": "bank",
    "latitude": 24.9156089,
    "longitude": 67.0309219,
    "id": 5079542888
  },
  {
    "name": "SM Public School Main Campus",
    "category": "amenity",
    "subcategory": "school",
    "latitude": 24.9152051,
    "longitude": 67.0308736,
    "id": 5079542889
  },
  {
    "name": "Habib Metro Bank - ATM",
    "category": "amenity",
    "subcategory": "bank",
    "latitude": 24.9148359,
    "longitude": 67.0308781,
    "id": 5079542890
  },
  {
    "name": "فیصل بینک",
    "category": "amenity",
    "subcategory": "bank",
    "latitude": 24.9139718,
    "longitude": 67.0308495,
    "id": 5079542891
  },
  {
    "name": "Pizza Point",
    "category": "amenity",
    "subcategory": "fast_food",
    "latitude": 24.9134099,
    "longitude": 67.0308146,
    "id": 5079542892
  },
  {
    "name": "Ahbab",
    "category": "amenity",
    "subcategory": "place_of_worship",
    "latitude": 24.9191391,
    "longitude": 67.0302921,
    "id": 5079542893
  },
  {
    "name": "Midcity CNG Station",
    "category": "amenity",
    "subcategory": "fuel",
    "latitude": 24.9166574,
    "longitude": 67.0309111,
    "id": 5079542897
  },
  {
    "name": "AO Medical Centre",
    "category": "amenity",
    "subcategory": "hospital",
    "latitude": 24.9141567,
    "longitude": 67.0308307,
    "id": 5079542898
  },
  {
    "name": "Liaquat National Hospital",
    "category": "amenity",
    "subcategory": "hospital",
    "latitude": 24.9139086,
    "longitude": 67.0308414,
    "id": 5079542899
  },
  {
    "name": "Doctors Plaza",
    "category": "amenity",
    "subcategory": "hospital",
    "latitude": 24.9125293,
    "longitude": 67.030777,
    "id": 5079542900
  },
  {
    "name": "Noor-ul-Islam",
    "category": "amenity",
    "subcategory": "place_of_worship",
    "latitude": 24.9178019,
    "longitude": 67.0276726,
    "id": 5079542901
  },
  {
    "name": "Star Bakery",
    "category": "shop",
    "subcategory": "bakery",
    "latitude": 24.9139231,
    "longitude": 67.0262629,
    "id": 5079542905
  },
  {
    "name": "Bappu Burger",
    "category": "amenity",
    "subcategory": "fast_food",
    "latitude": 24.9138015,
    "longitude": 67.0263192,
    "id": 5079542906
  },
  {
    "name": "Agha Khan Jamat Khana",
    "category": "amenity",
    "subcategory": "place_of_worship",
    "latitude": 24.9131581,
    "longitude": 67.027236,
    "id": 5079542909
  },
  {
    "name": "مسجد بلال",
    "category": "amenity",
    "subcategory": "place_of_worship",
    "latitude": 24.9128781,
    "longitude": 67.0259173,
    "id": 5079542910
  },
  {
    "name": "Malik Hospital",
    "category": "amenity",
    "subcategory": "hospital",
    "latitude": 24.9133685,
    "longitude": 67.0221913,
    "id": 5079542915
  },
  {
    "name": "Shahbaz Bakery",
    "category": "shop",
    "subcategory": "bakery",
    "latitude": 24.9160221,
    "longitude": 67.0219521,
    "id": 5079542916
  },
  {
    "name": "Faiz Grammer School",
    "category": "amenity",
    "subcategory": "school",
    "latitude": 24.9157719,
    "longitude": 67.0222262,
    "id": 5079542917
  },
  {
    "name": "FM Public School Campus 1",
    "category": "amenity",
    "subcategory": "school",
    "latitude": 24.9155601,
    "longitude": 67.0222784,
    "id": 5079542918
  },
  {
    "name": "Majestic Restaurant",
    "category": "amenity",
    "subcategory": "restaurant",
    "latitude": 24.9188266,
    "longitude": 67.0309606,
    "id": 5081600525
  },
  {
    "name": "Mini Cucine Italian Kitchen",
    "category": "shop",
    "subcategory": "furniture",
    "latitude": 24.9244297,
    "longitude": 67.0326961,
    "id": 5081736191
  },
  {
    "name": "Happy Day School",
    "category": "amenity",
    "subcategory": "school",
    "latitude": 24.9197768,
    "longitude": 67.0342649,
    "id": 5081767783
  },
  {
    "name": "Chiniot Mother and Child Hospital",
    "category": "amenity",
    "subcategory": "hospital",
    "latitude": 24.9182835,
    "longitude": 67.0345052,
    "id": 5081844141
  },
  {
    "name": "Al Hamid Bakers",
    "category": "shop",
    "subcategory": "bakery",
    "latitude": 24.9157487,
    "longitude": 67.0329497,
    "id": 5081891168
  },
  {
    "name": "Jama Masjid Hadi Market",
    "category": "amenity",
    "subcategory": "place_of_worship",
    "latitude": 24.9151307,
    "longitude": 67.0331761,
    "id": 5081891172
  },
  {
    "name": "A Aziz Chemist",
    "category": "shop",
    "subcategory": "medical_supply",
    "latitude": 24.9155798,
    "longitude": 67.0329369,
    "id": 5081891173
  },
  {
    "name": "Links Lawn",
    "category": "amenity",
    "subcategory": "community_centre",
    "latitude": 24.9149455,
    "longitude": 67.0318993,
    "id": 5081891183
  },
  {
    "name": "Nazimabad Gym",
    "category": "leisure",
    "subcategory": "fitness_centre",
    "latitude": 24.9114273,
    "longitude": 67.0290258,
    "id": 5083582930
  },
  {
    "name": "Muslim Food",
    "category": "amenity",
    "subcategory": "restaurant",
    "latitude": 24.9110354,
    "longitude": 67.0287093,
    "id": 5083582931
  },
  {
    "name": "Zeeshan Haider Shaheed Park",
    "category": "leisure",
    "subcategory": "park",
    "latitude": 24.9101548,
    "longitude": 67.0289882,
    "id": 5083582932
  },
  {
    "name": "Easy Paisa Shop",
    "category": "shop",
    "subcategory": "yes",
    "latitude": 24.9105236,
    "longitude": 67.0269955,
    "id": 5083582934
  },
  {
    "name": "Quetta Tea Restaurant",
    "category": "amenity",
    "subcategory": "restaurant",
    "latitude": 24.9105164,
    "longitude": 67.0272838,
    "id": 5083582935
  },
  {
    "name": "Pakistan Polytechic College",
    "category": "amenity",
    "subcategory": "college",
    "latitude": 24.9105363,
    "longitude": 67.0265377,
    "id": 5083582936
  },
  {
    "name": "ایم سی بی بینک",
    "category": "amenity",
    "subcategory": "bank",
    "latitude": 24.9105444,
    "longitude": 67.0261306,
    "id": 5083582937
  },
  {
    "name": "United Biryani Center",
    "category": "amenity",
    "subcategory": "restaurant",
    "latitude": 24.9110722,
    "longitude": 67.0260627,
    "id": 5083857176
  },
  {
    "name": "AutoZone",
    "category": "shop",
    "subcategory": "car_parts",
    "latitude": 24.9115648,
    "longitude": 67.0250869,
    "id": 5083857178
  },
  {
    "name": "Orangi Fire Station CDGK",
    "category": "amenity",
    "subcategory": "fire_station",
    "latitude": 24.9369468,
    "longitude": 67.0074169,
    "id": 5087779613
  },
  {
    "name": "Noor Jahan Police Station",
    "category": "amenity",
    "subcategory": "police",
    "latitude": 24.9438158,
    "longitude": 67.0323949,
    "id": 5088577345
  },
  {
    "name": "ناشاد میڈیکل سنٹر",
    "category": "amenity",
    "subcategory": "clinic",
    "latitude": 24.9452847,
    "longitude": 67.0296358,
    "id": 5088577346
  },
  {
    "name": "Jama Masjid Bismillah (Near Katti Pahari)",
    "category": "amenity",
    "subcategory": "place_of_worship",
    "latitude": 24.9455669,
    "longitude": 67.0291459,
    "id": 5088577347
  },
  {
    "name": "Easy computers",
    "category": "shop",
    "subcategory": "computer",
    "latitude": 24.9459564,
    "longitude": 67.0279444,
    "id": 5088577348
  },
  {
    "name": "Gul e Sughra Elementary School",
    "category": "amenity",
    "subcategory": "school",
    "latitude": 24.9456226,
    "longitude": 67.0278311,
    "id": 5088577349
  },
  {
    "name": "Qasba Market",
    "category": "amenity",
    "subcategory": "marketplace",
    "latitude": 24.9455419,
    "longitude": 67.0274668,
    "id": 5088577350
  },
  {
    "name": "Pak Grammar High School",
    "category": "amenity",
    "subcategory": "school",
    "latitude": 24.9452876,
    "longitude": 67.0272523,
    "id": 5088577351
  },
  {
    "name": "Shahid Rent A Bike",
    "category": "shop",
    "subcategory": "motorcycle",
    "latitude": 24.9467524,
    "longitude": 67.0267038,
    "id": 5088577352
  },
  {
    "name": "Askari hospital",
    "category": "amenity",
    "subcategory": "hospital",
    "latitude": 24.9469378,
    "longitude": 67.0260307,
    "id": 5088577353
  },
  {
    "name": "Jamia Ayesha tul Binat",
    "category": "amenity",
    "subcategory": "place_of_worship",
    "latitude": 24.9475681,
    "longitude": 67.0263275,
    "id": 5088577354
  },
  {
    "name": "Jamshed Petrol Pump",
    "category": "amenity",
    "subcategory": "fuel",
    "latitude": 24.9485126,
    "longitude": 67.0234947,
    "id": 5088577355
  },
  {
    "name": "یونائیٹڈ بینک لمیٹڈ",
    "category": "amenity",
    "subcategory": "bank",
    "latitude": 24.9488144,
    "longitude": 67.0236893,
    "id": 5088577356
  },
  {
    "name": "Askari Bank LTD Mango Pir Branch",
    "category": "amenity",
    "subcategory": "bank",
    "latitude": 24.9490987,
    "longitude": 67.0239198,
    "id": 5088577357
  },
  {
    "name": "Waziristan Autos",
    "category": "shop",
    "subcategory": "yes",
    "latitude": 24.9465807,
    "longitude": 67.0219248,
    "id": 5088577358
  },
  {
    "name": "Saud Hospital",
    "category": "amenity",
    "subcategory": "hospital",
    "latitude": 24.9465669,
    "longitude": 67.0216023,
    "id": 5088577359
  },
  {
    "name": "Babu Hotel",
    "category": "amenity",
    "subcategory": "restaurant",
    "latitude": 24.9455248,
    "longitude": 67.0210905,
    "id": 5088577360
  },
  {
    "name": "Rabbani Masjid",
    "category": "amenity",
    "subcategory": "place_of_worship",
    "latitude": 24.94497,
    "longitude": 67.0206219,
    "id": 5088577361
  },
  {
    "name": "Rabbani Masjid",
    "category": "amenity",
    "subcategory": "fuel",
    "latitude": 24.9401761,
    "longitude": 67.0197083,
    "id": 5088577362
  },
  {
    "name": "Caltex Petrol Pump",
    "category": "amenity",
    "subcategory": "fuel",
    "latitude": 24.9390032,
    "longitude": 67.0189541,
    "id": 5088577364
  },
  {
    "name": "Owaes Autos",
    "category": "shop",
    "subcategory": "yes",
    "latitude": 24.9385374,
    "longitude": 67.0188373,
    "id": 5088577365
  },
  {
    "name": "Ibrahim Tyre Shop",
    "category": "shop",
    "subcategory": "tyres",
    "latitude": 24.9396321,
    "longitude": 67.0178749,
    "id": 5088577366
  },
  {
    "name": "Baba Farid",
    "category": "amenity",
    "subcategory": "restaurant",
    "latitude": 24.9394957,
    "longitude": 67.0176391,
    "id": 5088577367
  },
  {
    "name": "Rashid Book Center",
    "category": "shop",
    "subcategory": "books",
    "latitude": 24.9396363,
    "longitude": 67.017482,
    "id": 5088577368
  },
  {
    "name": "Zubaida Medical Complex",
    "category": "amenity",
    "subcategory": "hospital",
    "latitude": 24.9392869,
    "longitude": 67.016865,
    "id": 5088577369
  },
  {
    "name": "Toheed",
    "category": "amenity",
    "subcategory": "place_of_worship",
    "latitude": 24.9388784,
    "longitude": 67.016505,
    "id": 5088577370
  },
  {
    "name": "MASHALLAH Genral Store",
    "category": "shop",
    "subcategory": "supermarket",
    "latitude": 24.9396935,
    "longitude": 67.0162631,
    "id": 5088577371
  },
  {
    "name": "Faraz Homeopathic Store",
    "category": "amenity",
    "subcategory": "clinic",
    "latitude": 24.9400078,
    "longitude": 67.0163098,
    "id": 5088577372
  },
  {
    "name": "Quaid e Azam Public Secondary School",
    "category": "amenity",
    "subcategory": "school",
    "latitude": 24.9400723,
    "longitude": 67.0167745,
    "id": 5088577374
  },
  {
    "name": "Mashallah",
    "category": "amenity",
    "subcategory": "restaurant",
    "latitude": 24.9396094,
    "longitude": 67.0140639,
    "id": 5088577375
  },
  {
    "name": "Kaali Pahari",
    "category": "amenity",
    "subcategory": "place_of_worship",
    "latitude": 24.940462,
    "longitude": 67.0151291,
    "id": 5088577376
  },
  {
    "name": "Express Courier Link",
    "category": "amenity",
    "subcategory": "post_office",
    "latitude": 24.9401813,
    "longitude": 67.0130152,
    "id": 5088577377
  },
  {
    "name": "Tameer Microfinance Bank",
    "category": "amenity",
    "subcategory": "bank",
    "latitude": 24.940318,
    "longitude": 67.0127693,
    "id": 5088577378
  },
  {
    "name": "Oasis Tyre Shop",
    "category": "shop",
    "subcategory": "tyres",
    "latitude": 24.9397047,
    "longitude": 67.01388,
    "id": 5088577379
  },
  {
    "name": "شکیل آٹوز",
    "category": "shop",
    "subcategory": "yes",
    "latitude": 24.9393337,
    "longitude": 67.0141509,
    "id": 5088577380
  },
  {
    "name": "Raza Mechinery (Generater Spare Parts)",
    "category": "shop",
    "subcategory": "yes",
    "latitude": 24.9395664,
    "longitude": 67.0137456,
    "id": 5088577381
  },
  {
    "name": "PIZZA ARAB",
    "category": "amenity",
    "subcategory": "fast_food",
    "latitude": 24.9400933,
    "longitude": 67.0127644,
    "id": 5088577382
  },
  {
    "name": "Marhaba Bakers",
    "category": "shop",
    "subcategory": "bakery",
    "latitude": 24.940106,
    "longitude": 67.0124561,
    "id": 5088577383
  },
  {
    "name": "VIP Pulao",
    "category": "amenity",
    "subcategory": "restaurant",
    "latitude": 24.9398773,
    "longitude": 67.0121713,
    "id": 5088577385
  },
  {
    "name": "Hot & Roll Fast Food",
    "category": "amenity",
    "subcategory": "fast_food",
    "latitude": 24.9399171,
    "longitude": 67.0118629,
    "id": 5088577387
  },
  {
    "name": "haji",
    "category": "amenity",
    "subcategory": "restaurant",
    "latitude": 24.9406521,
    "longitude": 67.0121486,
    "id": 5088577388
  },
  {
    "name": "Rehan Sheermal House",
    "category": "amenity",
    "subcategory": "restaurant",
    "latitude": 24.9407037,
    "longitude": 67.0120429,
    "id": 5088577389
  },
  {
    "name": "ڈیٹا آٹوز",
    "category": "shop",
    "subcategory": "yes",
    "latitude": 24.9408425,
    "longitude": 67.0114132,
    "id": 5088685985
  },
  {
    "name": "Marie Stopes Society Clinic",
    "category": "amenity",
    "subcategory": "clinic",
    "latitude": 24.9411303,
    "longitude": 67.0113023,
    "id": 5088685986
  },
  {
    "name": "Jamia Masjid Al Muslimeen",
    "category": "amenity",
    "subcategory": "place_of_worship",
    "latitude": 24.9416324,
    "longitude": 67.0107477,
    "id": 5088685987
  },
  {
    "name": "میزان بینک",
    "category": "amenity",
    "subcategory": "bank",
    "latitude": 24.9413018,
    "longitude": 67.0105283,
    "id": 5088685988
  },
  {
    "name": "National Library Lawn",
    "category": "amenity",
    "subcategory": "community_centre",
    "latitude": 24.9428139,
    "longitude": 67.0085807,
    "id": 5088685993
  },
  {
    "name": "Banaras National Hospital",
    "category": "amenity",
    "subcategory": "hospital",
    "latitude": 24.9430161,
    "longitude": 67.0084993,
    "id": 5088685994
  },
  {
    "name": "Samad Silk",
    "category": "shop",
    "subcategory": "clothes",
    "latitude": 24.9424513,
    "longitude": 67.008379,
    "id": 5088685995
  },
  {
    "name": "Khalil Biryani",
    "category": "amenity",
    "subcategory": "restaurant",
    "latitude": 24.9431592,
    "longitude": 67.0075385,
    "id": 5088733593
  },
  {
    "name": "Shrine of Peer Syed Sher Ali Shah Bukhari",
    "category": "amenity",
    "subcategory": "place_of_worship",
    "latitude": 24.9433903,
    "longitude": 67.0079419,
    "id": 5088733594
  },
  {
    "name": "Huda SILK",
    "category": "shop",
    "subcategory": "clothes",
    "latitude": 24.9433728,
    "longitude": 67.0057618,
    "id": 5088733596
  },
  {
    "name": "Noor Ali Shah Bukhari Mosque",
    "category": "amenity",
    "subcategory": "place_of_worship",
    "latitude": 24.9449916,
    "longitude": 67.0061157,
    "id": 5088733598
  },
  {
    "name": "Tauheed",
    "category": "amenity",
    "subcategory": "place_of_worship",
    "latitude": 24.9445727,
    "longitude": 67.0041937,
    "id": 5088733603
  },
  {
    "name": "Bismillah Bakery",
    "category": "shop",
    "subcategory": "bakery",
    "latitude": 24.9458985,
    "longitude": 67.0052792,
    "id": 5088733604
  },
  {
    "name": "Shakeel General Store",
    "category": "shop",
    "subcategory": "supermarket",
    "latitude": 24.9458183,
    "longitude": 67.0054348,
    "id": 5088733605
  },
  {
    "name": "Social Security Hospital",
    "category": "amenity",
    "subcategory": "hospital",
    "latitude": 24.9479138,
    "longitude": 67.0059951,
    "id": 5088733607
  },
  {
    "name": "Madani",
    "category": "amenity",
    "subcategory": "place_of_worship",
    "latitude": 24.9485709,
    "longitude": 67.006125,
    "id": 5088733611
  },
  {
    "name": "Shahnai Marriage Hall",
    "category": "amenity",
    "subcategory": "community_centre",
    "latitude": 24.9491923,
    "longitude": 67.0071418,
    "id": 5088733612
  },
  {
    "name": "Anwar & Nosheen Gift Shop",
    "category": "shop",
    "subcategory": "gift",
    "latitude": 24.9501805,
    "longitude": 67.0011159,
    "id": 5088733614
  },
  {
    "name": "Brohi",
    "category": "amenity",
    "subcategory": "cafe",
    "latitude": 24.9457308,
    "longitude": 66.9983709,
    "id": 5088820022
  },
  {
    "name": "Star Banquet",
    "category": "amenity",
    "subcategory": "community_centre",
    "latitude": 24.9434027,
    "longitude": 66.9963259,
    "id": 5088820025
  },
  {
    "name": "Nagori Golden Milk Shop",
    "category": "shop",
    "subcategory": "dairy",
    "latitude": 24.9417814,
    "longitude": 66.9984633,
    "id": 5088820044
  },
  {
    "name": "بینک الفلاح",
    "category": "amenity",
    "subcategory": "bank",
    "latitude": 24.9410678,
    "longitude": 66.9998077,
    "id": 5088820045
  },
  {
    "name": "جے ایس بینک",
    "category": "amenity",
    "subcategory": "bank",
    "latitude": 24.941114,
    "longitude": 66.9996736,
    "id": 5088820047
  },
  {
    "name": "Utility Store",
    "category": "shop",
    "subcategory": "supermarket",
    "latitude": 24.9412867,
    "longitude": 67.0017087,
    "id": 5088969198
  },
  {
    "name": "Jumma General Store and Tea",
    "category": "shop",
    "subcategory": "supermarket",
    "latitude": 24.9420491,
    "longitude": 67.0022503,
    "id": 5088969199
  },
  {
    "name": "Mehmood Public Secondary School",
    "category": "amenity",
    "subcategory": "school",
    "latitude": 24.9422413,
    "longitude": 67.0018668,
    "id": 5088969200
  },
  {
    "name": "sheermal and Tandoor",
    "category": "shop",
    "subcategory": "yes",
    "latitude": 24.942161,
    "longitude": 67.0024703,
    "id": 5088969201
  },
  {
    "name": "Ansari Medical Center",
    "category": "amenity",
    "subcategory": "clinic",
    "latitude": 24.9419373,
    "longitude": 67.0026661,
    "id": 5088969202
  },
  {
    "name": "Hilal e Ahmer Pakistan",
    "category": "amenity",
    "subcategory": "hospital",
    "latitude": 24.9397464,
    "longitude": 67.0020979,
    "id": 5089149959
  },
  {
    "name": "Sabir Mobile Mall",
    "category": "shop",
    "subcategory": "mobile_phone",
    "latitude": 24.9396278,
    "longitude": 67.0007984,
    "id": 5089149960
  },
  {
    "name": "کراچی بک سنٹر",
    "category": "shop",
    "subcategory": "bookmaker",
    "latitude": 24.9393603,
    "longitude": 67.0006375,
    "id": 5089149961
  },
  {
    "name": "لائف کیئر میڈیکل سنٹر",
    "category": "amenity",
    "subcategory": "hospital",
    "latitude": 24.9388822,
    "longitude": 67.0052449,
    "id": 5089149962
  },
  {
    "name": "Al Khidmat Hospital Orangi 5",
    "category": "amenity",
    "subcategory": "hospital",
    "latitude": 24.938144,
    "longitude": 67.005069,
    "id": 5089149965
  },
  {
    "name": "Markazi Masjid Wa ImamBargah Haider-e-Karrar",
    "category": "amenity",
    "subcategory": "place_of_worship",
    "latitude": 24.9377949,
    "longitude": 67.0056651,
    "id": 5089149966
  },
  {
    "name": "الفتح ہال",
    "category": "amenity",
    "subcategory": "community_centre",
    "latitude": 24.9364051,
    "longitude": 67.0090842,
    "id": 5089149968
  },
  {
    "name": "Metro Cinema",
    "category": "amenity",
    "subcategory": "cinema",
    "latitude": 24.9358484,
    "longitude": 67.0094257,
    "id": 5089149969
  },
  {
    "name": "یونائیٹڈ بینک لمیٹڈ",
    "category": "amenity",
    "subcategory": "bank",
    "latitude": 24.9356708,
    "longitude": 67.0097494,
    "id": 5089149970
  },
  {
    "name": "Khaybar Masjid",
    "category": "amenity",
    "subcategory": "place_of_worship",
    "latitude": 24.9344502,
    "longitude": 67.010493,
    "id": 5089149971
  },
  {
    "name": "Frontier Public English Secondary School",
    "category": "amenity",
    "subcategory": "school",
    "latitude": 24.9342511,
    "longitude": 67.0108386,
    "id": 5089149972
  },
  {
    "name": "ٹوٹل",
    "category": "amenity",
    "subcategory": "fuel",
    "latitude": 24.9339016,
    "longitude": 67.0118506,
    "id": 5089149973
  },
  {
    "name": "Riaz Mobile Center",
    "category": "shop",
    "subcategory": "mobile_phone",
    "latitude": 24.9335635,
    "longitude": 67.0120632,
    "id": 5089149974
  },
  {
    "name": "Zafri Mobile Refairing Center",
    "category": "shop",
    "subcategory": "mobile_phone",
    "latitude": 24.9333595,
    "longitude": 67.0126732,
    "id": 5089149975
  },
  {
    "name": "Global P S",
    "category": "amenity",
    "subcategory": "fuel",
    "latitude": 24.9338205,
    "longitude": 67.0126609,
    "id": 5089149976
  },
  {
    "name": "Sharja Clothe Center",
    "category": "shop",
    "subcategory": "clothes",
    "latitude": 24.9331137,
    "longitude": 67.0130737,
    "id": 5089149977
  },
  {
    "name": "Meezan House - Head Office",
    "category": "amenity",
    "subcategory": "bank",
    "latitude": 24.8811175,
    "longitude": 66.9730071,
    "id": 5091080685
  },
  {
    "name": "Toyota Western Motors",
    "category": "shop",
    "subcategory": "car",
    "latitude": 24.8807951,
    "longitude": 66.9725054,
    "id": 5091080686
  },
  {
    "name": "Police Station S.I.T.E",
    "category": "amenity",
    "subcategory": "police",
    "latitude": 24.8834748,
    "longitude": 66.9751511,
    "id": 5091080689
  },
  {
    "name": "پاکستان اسٹیٹ آئل",
    "category": "amenity",
    "subcategory": "fuel",
    "latitude": 24.8840717,
    "longitude": 66.9768364,
    "id": 5091080692
  },
  {
    "name": "Suzuki Western Motors",
    "category": "shop",
    "subcategory": "car",
    "latitude": 24.8876171,
    "longitude": 66.9805594,
    "id": 5091080696
  },
  {
    "name": "International Motors",
    "category": "shop",
    "subcategory": "car",
    "latitude": 24.8879085,
    "longitude": 66.9816815,
    "id": 5091080700
  },
  {
    "name": "شیل",
    "category": "amenity",
    "subcategory": "fuel",
    "latitude": 24.8765329,
    "longitude": 66.9670742,
    "id": 5091115180
  },
  {
    "name": "شیر شاہ قبرستان",
    "category": "amenity",
    "subcategory": "grave_yard",
    "latitude": 24.8828949,
    "longitude": 66.9808419,
    "id": 5092080494
  },
  {
    "name": "ایچ بی ایل پاکستان",
    "category": "amenity",
    "subcategory": "bank",
    "latitude": 24.8899506,
    "longitude": 66.9836412,
    "id": 5092080497
  },
  {
    "name": "Haji Abdul Kareem Repair Shop",
    "category": "shop",
    "subcategory": "car_repair",
    "latitude": 24.8898825,
    "longitude": 66.9835044,
    "id": 5092080502
  },
  {
    "name": "Al Bilal",
    "category": "amenity",
    "subcategory": "restaurant",
    "latitude": 24.8899798,
    "longitude": 66.984293,
    "id": 5092080503
  },
  {
    "name": "National Saving Center",
    "category": "amenity",
    "subcategory": "bank",
    "latitude": 24.8900385,
    "longitude": 66.9852611,
    "id": 5092080504
  },
  {
    "name": "Masjid Ghausia",
    "category": "amenity",
    "subcategory": "place_of_worship",
    "latitude": 24.8920335,
    "longitude": 66.9872378,
    "id": 5092080505
  },
  {
    "name": "پاکستان اسٹیٹ آئل",
    "category": "amenity",
    "subcategory": "fuel",
    "latitude": 24.8935457,
    "longitude": 66.9885728,
    "id": 5092080510
  },
  {
    "name": "بینک اسلامی",
    "category": "amenity",
    "subcategory": "bank",
    "latitude": 24.8946526,
    "longitude": 66.9898294,
    "id": 5092117915
  },
  {
    "name": "Fauji Yamaha Centre",
    "category": "shop",
    "subcategory": "motorcycle",
    "latitude": 24.9009257,
    "longitude": 66.9976666,
    "id": 5092152417
  },
  {
    "name": "ایم سی بی بینک",
    "category": "amenity",
    "subcategory": "bank",
    "latitude": 24.9003035,
    "longitude": 66.9982097,
    "id": 5092152420
  },
  {
    "name": "ELPA CNG Station",
    "category": "amenity",
    "subcategory": "fuel",
    "latitude": 24.9006101,
    "longitude": 66.9994488,
    "id": 5092152521
  },
  {
    "name": "Epla Laboratories",
    "category": "amenity",
    "subcategory": "pharmacy",
    "latitude": 24.9009457,
    "longitude": 66.9999458,
    "id": 5092152522
  },
  {
    "name": "Al Makkah Restaurant",
    "category": "amenity",
    "subcategory": "restaurant",
    "latitude": 24.9023335,
    "longitude": 66.990432,
    "id": 5092989963
  },
  {
    "name": "BYCO Petrol Station",
    "category": "amenity",
    "subcategory": "fuel",
    "latitude": 24.9014266,
    "longitude": 66.9912394,
    "id": 5092989964
  },
  {
    "name": "Macter International",
    "category": "amenity",
    "subcategory": "pharmacy",
    "latitude": 24.9043333,
    "longitude": 66.9930847,
    "id": 5092989968
  },
  {
    "name": "Galaxy Knitwear",
    "category": "shop",
    "subcategory": "clothes",
    "latitude": 24.9048758,
    "longitude": 66.9910382,
    "id": 5092989970
  },
  {
    "name": "Salman Surgical Hospital",
    "category": "amenity",
    "subcategory": "hospital",
    "latitude": 24.9051948,
    "longitude": 66.9941817,
    "id": 5092989972
  },
  {
    "name": "FAAS Pharmaceuticals",
    "category": "amenity",
    "subcategory": "pharmacy",
    "latitude": 24.9058468,
    "longitude": 66.9953646,
    "id": 5092989974
  },
  {
    "name": "Site Marriage Lawn",
    "category": "amenity",
    "subcategory": "community_centre",
    "latitude": 24.9065591,
    "longitude": 66.9958098,
    "id": 5093055679
  },
  {
    "name": "الائیڈ بینک لمیٹڈ",
    "category": "amenity",
    "subcategory": "bank",
    "latitude": 24.9062412,
    "longitude": 66.9959972,
    "id": 5093055681
  },
  {
    "name": "فیصل بینک",
    "category": "amenity",
    "subcategory": "bank",
    "latitude": 24.9063191,
    "longitude": 66.9960167,
    "id": 5093055682
  },
  {
    "name": "Al Naimah Foods",
    "category": "amenity",
    "subcategory": "restaurant",
    "latitude": 24.9063704,
    "longitude": 66.9961343,
    "id": 5093055683
  },
  {
    "name": "Binoria Restaurant",
    "category": "amenity",
    "subcategory": "restaurant",
    "latitude": 24.9064195,
    "longitude": 66.9962253,
    "id": 5093055684
  },
  {
    "name": "میزان بینک",
    "category": "amenity",
    "subcategory": "bank",
    "latitude": 24.9063818,
    "longitude": 66.9966209,
    "id": 5093055685
  },
  {
    "name": "Binoria Supermarket",
    "category": "shop",
    "subcategory": "supermarket",
    "latitude": 24.9062991,
    "longitude": 66.9964707,
    "id": 5093055686
  },
  {
    "name": "Al Noor Biryani Centre",
    "category": "amenity",
    "subcategory": "restaurant",
    "latitude": 24.9064767,
    "longitude": 66.9967926,
    "id": 5093055687
  },
  {
    "name": "Al Naz Pakwan & Biryani Centre",
    "category": "amenity",
    "subcategory": "restaurant",
    "latitude": 24.9065667,
    "longitude": 66.9969669,
    "id": 5093055688
  },
  {
    "name": "Hascol Petrol Pump & Arabian CNG",
    "category": "amenity",
    "subcategory": "fuel",
    "latitude": 24.9070189,
    "longitude": 66.9975195,
    "id": 5093055689
  },
  {
    "name": "Masjid e Haleemi",
    "category": "amenity",
    "subcategory": "place_of_worship",
    "latitude": 24.9071552,
    "longitude": 66.9986862,
    "id": 5093055690
  },
  {
    "name": "Jama Binoria Aalimiyah",
    "category": "amenity",
    "subcategory": "place_of_worship",
    "latitude": 24.9080475,
    "longitude": 66.9956795,
    "id": 5093055692
  },
  {
    "name": "SITE Stadium",
    "category": "leisure",
    "subcategory": "stadium",
    "latitude": 24.913999,
    "longitude": 67.0077208,
    "id": 5093071436
  },
  {
    "name": "Govt Primary School",
    "category": "amenity",
    "subcategory": "school",
    "latitude": 24.9104416,
    "longitude": 67.0057762,
    "id": 5093122733
  },
  {
    "name": "HASCOL Petrol Station",
    "category": "amenity",
    "subcategory": "fuel",
    "latitude": 24.9076997,
    "longitude": 67.004538,
    "id": 5093122735
  },
  {
    "name": "Technical Petrol & Service Station",
    "category": "amenity",
    "subcategory": "fuel",
    "latitude": 24.9160954,
    "longitude": 67.0103536,
    "id": 5093122738
  },
  {
    "name": "Khan Restaurant & Juice Center",
    "category": "amenity",
    "subcategory": "restaurant",
    "latitude": 24.9163046,
    "longitude": 67.0105789,
    "id": 5093122739
  },
  {
    "name": "Masjid e Ayyubi",
    "category": "amenity",
    "subcategory": "place_of_worship",
    "latitude": 24.9157427,
    "longitude": 67.0107157,
    "id": 5093122740
  },
  {
    "name": "Skill Autos",
    "category": "shop",
    "subcategory": "car_repair",
    "latitude": 24.9159227,
    "longitude": 67.010595,
    "id": 5093122741
  },
  {
    "name": "Bismillah Cold Drink Nimko & General Store",
    "category": "shop",
    "subcategory": "supermarket",
    "latitude": 24.9444574,
    "longitude": 66.9957739,
    "id": 5097830007
  },
  {
    "name": "Nishan e Haider Tyre Shop",
    "category": "shop",
    "subcategory": "tyres",
    "latitude": 24.9472562,
    "longitude": 66.9941289,
    "id": 5097830010
  },
  {
    "name": "UtileUtility Store",
    "category": "shop",
    "subcategory": "supermarket",
    "latitude": 24.9475529,
    "longitude": 66.9937051,
    "id": 5097830011
  },
  {
    "name": "Sindh Government Hospital",
    "category": "amenity",
    "subcategory": "hospital",
    "latitude": 24.949622,
    "longitude": 67.0009153,
    "id": 5097989030
  },
  {
    "name": "Naveed Brothers Kaaj Button",
    "category": "shop",
    "subcategory": "yes",
    "latitude": 24.9502907,
    "longitude": 67.0009295,
    "id": 5097989032
  },
  {
    "name": "Orangi Town Marriage Hall",
    "category": "amenity",
    "subcategory": "community_centre",
    "latitude": 24.9517293,
    "longitude": 67.0026114,
    "id": 5097989034
  },
  {
    "name": "Mosque",
    "category": "amenity",
    "subcategory": "place_of_worship",
    "latitude": 24.9512875,
    "longitude": 67.0036766,
    "id": 5097989037
  },
  {
    "name": "Grid Station Mosque",
    "category": "amenity",
    "subcategory": "place_of_worship",
    "latitude": 24.9510355,
    "longitude": 67.0059685,
    "id": 5097989039
  },
  {
    "name": "Gulzar-e-Madina",
    "category": "amenity",
    "subcategory": "place_of_worship",
    "latitude": 24.9505194,
    "longitude": 67.0081472,
    "id": 5097989041
  },
  {
    "name": "Tawakel Medical Cenyer",
    "category": "amenity",
    "subcategory": "clinic",
    "latitude": 24.9526437,
    "longitude": 67.0022743,
    "id": 5097989043
  },
  {
    "name": "Millat Book Point",
    "category": "shop",
    "subcategory": "books",
    "latitude": 24.9525818,
    "longitude": 66.9976782,
    "id": 5097989044
  },
  {
    "name": "Mohammadia",
    "category": "amenity",
    "subcategory": "place_of_worship",
    "latitude": 24.9529812,
    "longitude": 66.9981281,
    "id": 5097989045
  },
  {
    "name": "Jamal & Sons Crockery",
    "category": "shop",
    "subcategory": "yes",
    "latitude": 24.9528217,
    "longitude": 66.9982215,
    "id": 5097989046
  },
  {
    "name": "Shrine of Shah Ghazi",
    "category": "amenity",
    "subcategory": "place_of_worship",
    "latitude": 24.9528988,
    "longitude": 66.9950625,
    "id": 5098122926
  },
  {
    "name": "Naeem Electronics",
    "category": "shop",
    "subcategory": "electronics",
    "latitude": 24.9173678,
    "longitude": 67.0122105,
    "id": 5098124074
  },
  {
    "name": "Friends Cotton Products",
    "category": "shop",
    "subcategory": "clothes",
    "latitude": 24.9185111,
    "longitude": 67.0135998,
    "id": 5098124076
  },
  {
    "name": "Makka Masjid  Mosque",
    "category": "amenity",
    "subcategory": "place_of_worship",
    "latitude": 24.9518166,
    "longitude": 66.9748705,
    "id": 5100872901
  },
  {
    "name": "Bait-ul-Mukarram",
    "category": "amenity",
    "subcategory": "place_of_worship",
    "latitude": 24.9512597,
    "longitude": 66.9788833,
    "id": 5100872902
  },
  {
    "name": "Masjid e Quba",
    "category": "amenity",
    "subcategory": "place_of_worship",
    "latitude": 24.9490255,
    "longitude": 66.9827864,
    "id": 5100872904
  },
  {
    "name": "Hajama Center",
    "category": "amenity",
    "subcategory": "clinic",
    "latitude": 24.9487015,
    "longitude": 66.9841144,
    "id": 5100872905
  },
  {
    "name": "Star Cumputer Supply",
    "category": "shop",
    "subcategory": "computer",
    "latitude": 24.9493831,
    "longitude": 66.9826478,
    "id": 5100872906
  },
  {
    "name": "Awami Chowk  Bismillah Palace Marriage Hall",
    "category": "amenity",
    "subcategory": "restaurant",
    "latitude": 24.9477487,
    "longitude": 66.9865322,
    "id": 5100897569
  },
  {
    "name": "Hadees-ul-Islam",
    "category": "amenity",
    "subcategory": "place_of_worship",
    "latitude": 24.9475811,
    "longitude": 66.9877773,
    "id": 5100897570
  },
  {
    "name": "Al Fatha Garden",
    "category": "amenity",
    "subcategory": "community_centre",
    "latitude": 24.9458928,
    "longitude": 66.9919788,
    "id": 5100998367
  },
  {
    "name": "Raza-e-Mustafa",
    "category": "amenity",
    "subcategory": "place_of_worship",
    "latitude": 24.9437748,
    "longitude": 66.9886449,
    "id": 5100998368
  },
  {
    "name": "Miraj-un-Nabi",
    "category": "amenity",
    "subcategory": "place_of_worship",
    "latitude": 24.9410655,
    "longitude": 66.9869577,
    "id": 5100998370
  },
  {
    "name": "Madina Gernal Store Akhlaq Bhai",
    "category": "shop",
    "subcategory": "supermarket",
    "latitude": 24.9414864,
    "longitude": 66.9865384,
    "id": 5101078859
  },
  {
    "name": "Jama masjid Farooqi",
    "category": "amenity",
    "subcategory": "place_of_worship",
    "latitude": 24.9412408,
    "longitude": 66.9855514,
    "id": 5101078860
  },
  {
    "name": "Oliya",
    "category": "amenity",
    "subcategory": "place_of_worship",
    "latitude": 24.9380495,
    "longitude": 66.9846192,
    "id": 5101078862
  },
  {
    "name": "Ghulam Sakhi Oil And Auto Parts",
    "category": "shop",
    "subcategory": "car_parts",
    "latitude": 24.9373538,
    "longitude": 66.9818695,
    "id": 5101078863
  },
  {
    "name": "Ibrahimi",
    "category": "amenity",
    "subcategory": "place_of_worship",
    "latitude": 24.9361224,
    "longitude": 66.9808375,
    "id": 5101078864
  },
  {
    "name": "Mohammadi Hardware electric Store",
    "category": "shop",
    "subcategory": "hardware",
    "latitude": 24.9363601,
    "longitude": 66.9807098,
    "id": 5101078865
  },
  {
    "name": "Tariq Hairdressor and male makeup",
    "category": "shop",
    "subcategory": "hairdresser",
    "latitude": 24.935979,
    "longitude": 66.9800443,
    "id": 5101078866
  },
  {
    "name": "Swat General Store",
    "category": "shop",
    "subcategory": "supermarket",
    "latitude": 24.9355883,
    "longitude": 66.9809314,
    "id": 5101078867
  },
  {
    "name": "Real Bakers",
    "category": "shop",
    "subcategory": "bakery",
    "latitude": 24.9187259,
    "longitude": 67.0303732,
    "id": 5117205305
  },
  {
    "name": "Tabba Heart Institute  Laboratory Collection Unit",
    "category": "amenity",
    "subcategory": "pharmacy",
    "latitude": 24.9185094,
    "longitude": 67.030451,
    "id": 5117205306
  },
  {
    "name": "Ziauddin Hospital Laboratory",
    "category": "amenity",
    "subcategory": "pharmacy",
    "latitude": 24.9184388,
    "longitude": 67.0303786,
    "id": 5117205307
  },
  {
    "name": "Hot Shot Fast Food and BBQ",
    "category": "amenity",
    "subcategory": "restaurant",
    "latitude": 24.9179426,
    "longitude": 67.0299253,
    "id": 5117205309
  },
  {
    "name": "Muhammadi Sheermal and Pakwaan House",
    "category": "shop",
    "subcategory": "bakery",
    "latitude": 24.9178599,
    "longitude": 67.0297456,
    "id": 5117205310
  },
  {
    "name": "جے ایس بینک",
    "category": "amenity",
    "subcategory": "atm;bank",
    "latitude": 24.9173993,
    "longitude": 67.0309541,
    "id": 5117205311
  },
  {
    "name": "دبئی اسلامی بینک",
    "category": "amenity",
    "subcategory": "atm;bank",
    "latitude": 24.9171341,
    "longitude": 67.0309352,
    "id": 5117205312
  },
  {
    "name": "Baqai University Hospital",
    "category": "amenity",
    "subcategory": "hospital",
    "latitude": 24.9160963,
    "longitude": 67.0308507,
    "id": 5117205313
  },
  {
    "name": "میزان بینک",
    "category": "amenity",
    "subcategory": "bank",
    "latitude": 24.9137634,
    "longitude": 67.0308104,
    "id": 5117307658
  },
  {
    "name": "SM Public Govt Boys Schol",
    "category": "amenity",
    "subcategory": "school",
    "latitude": 24.9121722,
    "longitude": 67.0288704,
    "id": 5117307660
  },
  {
    "name": "Hamdard Foundation Pakistan",
    "category": "amenity",
    "subcategory": "clinic",
    "latitude": 24.9127393,
    "longitude": 67.0285922,
    "id": 5117307661
  },
  {
    "name": "Hamdard Post Office",
    "category": "amenity",
    "subcategory": "post_office",
    "latitude": 24.9129485,
    "longitude": 67.0283938,
    "id": 5117307663
  },
  {
    "name": "Super Fine Bakers",
    "category": "shop",
    "subcategory": "bakery",
    "latitude": 24.9133475,
    "longitude": 67.0267013,
    "id": 5117307667
  },
  {
    "name": "بینک الفلاح",
    "category": "amenity",
    "subcategory": "bank",
    "latitude": 24.9132523,
    "longitude": 67.0270995,
    "id": 5117307668
  },
  {
    "name": "سونیری بینک",
    "category": "amenity",
    "subcategory": "bank",
    "latitude": 24.9134531,
    "longitude": 67.026919,
    "id": 5117307670
  },
  {
    "name": "الائیڈ بینک لمیٹڈ",
    "category": "amenity",
    "subcategory": "bank",
    "latitude": 24.9136686,
    "longitude": 67.0268059,
    "id": 5117307672
  },
  {
    "name": "بينک الحبيب",
    "category": "amenity",
    "subcategory": "bank;atm",
    "latitude": 24.9136047,
    "longitude": 67.0268292,
    "id": 5117307674
  },
  {
    "name": "Peshawari Ice Cream",
    "category": "amenity",
    "subcategory": "ice_cream",
    "latitude": 24.9137285,
    "longitude": 67.0265243,
    "id": 5117329422
  },
  {
    "name": "Cafe Super Piyala",
    "category": "amenity",
    "subcategory": "cafe",
    "latitude": 24.9140364,
    "longitude": 67.0266128,
    "id": 5117329423
  },
  {
    "name": "Sultan Food Centre",
    "category": "amenity",
    "subcategory": "restaurant",
    "latitude": 24.9139464,
    "longitude": 67.02613,
    "id": 5117329424
  },
  {
    "name": "Prince Fast Food",
    "category": "amenity",
    "subcategory": "fast_food",
    "latitude": 24.9139513,
    "longitude": 67.0259583,
    "id": 5117329427
  },
  {
    "name": "ایچ بی ایل پاکستان",
    "category": "amenity",
    "subcategory": "bank",
    "latitude": 24.913961,
    "longitude": 67.0257545,
    "id": 5117329428
  },
  {
    "name": "Nazimabad Medical Store",
    "category": "amenity",
    "subcategory": "pharmacy",
    "latitude": 24.913747,
    "longitude": 67.0259154,
    "id": 5117329430
  },
  {
    "name": "Jama Masid Ghosia - FC Area",
    "category": "amenity",
    "subcategory": "place_of_worship",
    "latitude": 24.9194507,
    "longitude": 67.0453573,
    "id": 5117719515
  },
  {
    "name": "Habib Qatar International Exchange Pakistan Pvt Limited Nishtar Road",
    "category": "amenity",
    "subcategory": "bureau_de_change",
    "latitude": 24.8779064,
    "longitude": 67.0220452,
    "id": 5119617647
  },
  {
    "name": "NIb Bank",
    "category": "amenity",
    "subcategory": "bank",
    "latitude": 24.8775946,
    "longitude": 67.0216529,
    "id": 5119617648
  },
  {
    "name": "NIb Bank - ATM",
    "category": "amenity",
    "subcategory": "bank",
    "latitude": 24.8776066,
    "longitude": 67.021686,
    "id": 5119617649
  },
  {
    "name": "Meezan Bank Ltd",
    "category": "amenity",
    "subcategory": "bank",
    "latitude": 24.8774413,
    "longitude": 67.0214648,
    "id": 5119617650
  },
  {
    "name": "Meezan Bank Ltd - ATM",
    "category": "amenity",
    "subcategory": "bank",
    "latitude": 24.8774268,
    "longitude": 67.0214365,
    "id": 5119617651
  },
  {
    "name": "بینک الفلاح",
    "category": "amenity",
    "subcategory": "bank",
    "latitude": 24.876671,
    "longitude": 67.0209225,
    "id": 5119617653
  },
  {
    "name": "Bank Alfalah - ATM",
    "category": "amenity",
    "subcategory": "bank",
    "latitude": 24.8766735,
    "longitude": 67.0209505,
    "id": 5119617654
  },
  {
    "name": "Auliya",
    "category": "amenity",
    "subcategory": "place_of_worship",
    "latitude": 24.8762382,
    "longitude": 67.0210707,
    "id": 5119617655
  },
  {
    "name": "Power Traders",
    "category": "shop",
    "subcategory": "yes",
    "latitude": 24.8761881,
    "longitude": 67.0212792,
    "id": 5119617656
  },
  {
    "name": "Makkah Battery",
    "category": "shop",
    "subcategory": "yes",
    "latitude": 24.8760534,
    "longitude": 67.0211979,
    "id": 5119617657
  },
  {
    "name": "Garden Gate Hotel Karachi Baloch Hotel",
    "category": "amenity",
    "subcategory": "restaurant",
    "latitude": 24.8757381,
    "longitude": 67.0210678,
    "id": 5119617658
  },
  {
    "name": "یونائیٹڈ بینک لمیٹڈ",
    "category": "amenity",
    "subcategory": "bank",
    "latitude": 24.8761807,
    "longitude": 67.0209072,
    "id": 5119617659
  },
  {
    "name": "Ubl Bank - ATM",
    "category": "amenity",
    "subcategory": "bank",
    "latitude": 24.876168,
    "longitude": 67.0209026,
    "id": 5119617660
  },
  {
    "name": "Punjab Battery",
    "category": "shop",
    "subcategory": "yes",
    "latitude": 24.876056,
    "longitude": 67.0208645,
    "id": 5119617661
  },
  {
    "name": "Imran Battery Centre",
    "category": "shop",
    "subcategory": "yes",
    "latitude": 24.8759301,
    "longitude": 67.0208261,
    "id": 5119617662
  },
  {
    "name": "ایچ بی ایل پاکستان",
    "category": "amenity",
    "subcategory": "bank",
    "latitude": 24.8758474,
    "longitude": 67.0208089,
    "id": 5119617663
  },
  {
    "name": "Mahmood Motors",
    "category": "shop",
    "subcategory": "car",
    "latitude": 24.8757093,
    "longitude": 67.0207525,
    "id": 5119617665
  },
  {
    "name": "Mahmood Autos",
    "category": "shop",
    "subcategory": "car_repair",
    "latitude": 24.8756961,
    "longitude": 67.020748,
    "id": 5119617666
  },
  {
    "name": "Bank AL Habib Sub Branch Of M A Jinnah ROAD Branch",
    "category": "amenity",
    "subcategory": "bank",
    "latitude": 24.8755697,
    "longitude": 67.0206712,
    "id": 5119617667
  },
  {
    "name": "M.qasim Hotel",
    "category": "amenity",
    "subcategory": "restaurant",
    "latitude": 24.8753048,
    "longitude": 67.0209322,
    "id": 5119821437
  },
  {
    "name": "Light of Asia",
    "category": "amenity",
    "subcategory": "restaurant",
    "latitude": 24.8753576,
    "longitude": 67.0208556,
    "id": 5119821438
  },
  {
    "name": "Shamim Autos",
    "category": "shop",
    "subcategory": "car_repair",
    "latitude": 24.8752961,
    "longitude": 67.0207231,
    "id": 5119821439
  },
  {
    "name": "Sabri",
    "category": "amenity",
    "subcategory": "place_of_worship",
    "latitude": 24.8752235,
    "longitude": 67.0209296,
    "id": 5119821440
  },
  {
    "name": "الائیڈ بینک لمیٹڈ",
    "category": "amenity",
    "subcategory": "bank",
    "latitude": 24.8749066,
    "longitude": 67.0201098,
    "id": 5119821441
  },
  {
    "name": "MCB BANK",
    "category": "amenity",
    "subcategory": "bank",
    "latitude": 24.8747345,
    "longitude": 67.0199578,
    "id": 5119821443
  },
  {
    "name": "پاکستان اسٹیٹ آئل",
    "category": "amenity",
    "subcategory": "fuel",
    "latitude": 24.8745356,
    "longitude": 67.0201054,
    "id": 5119821445
  },
  {
    "name": "Bankislami Garden West Branch",
    "category": "amenity",
    "subcategory": "bank",
    "latitude": 24.8744699,
    "longitude": 67.0197567,
    "id": 5119821446
  },
  {
    "name": "Saylani Welfare Trust - Numaish Branch",
    "category": "amenity",
    "subcategory": "social_facility",
    "latitude": 24.8733627,
    "longitude": 67.0359938,
    "id": 5124127904
  },
  {
    "name": "Darul Sukoon",
    "category": "amenity",
    "subcategory": "social_facility",
    "latitude": 24.8763037,
    "longitude": 67.0370116,
    "id": 5124127905
  },
  {
    "name": "CNG Complex",
    "category": "amenity",
    "subcategory": "fuel",
    "latitude": 24.8764901,
    "longitude": 67.0375674,
    "id": 5124127906
  },
  {
    "name": "Sindh Rangers Hospital",
    "category": "amenity",
    "subcategory": "hospital",
    "latitude": 24.9292215,
    "longitude": 67.0320423,
    "id": 5124275220
  },
  {
    "name": "Shahi",
    "category": "amenity",
    "subcategory": "place_of_worship",
    "latitude": 24.9301736,
    "longitude": 67.0159303,
    "id": 5124485135
  },
  {
    "name": "Malang Hotel",
    "category": "amenity",
    "subcategory": "restaurant",
    "latitude": 24.9299487,
    "longitude": 67.0160184,
    "id": 5124485136
  },
  {
    "name": "Parco Total Petrol Pump",
    "category": "amenity",
    "subcategory": "fuel",
    "latitude": 24.9283011,
    "longitude": 67.0160064,
    "id": 5124485138
  },
  {
    "name": "Noor Elahi",
    "category": "amenity",
    "subcategory": "place_of_worship",
    "latitude": 24.9276714,
    "longitude": 67.015047,
    "id": 5124485139
  },
  {
    "name": "Cng Pump Station",
    "category": "amenity",
    "subcategory": "fuel",
    "latitude": 24.9247305,
    "longitude": 67.0151966,
    "id": 5124544369
  },
  {
    "name": "Site Model School",
    "category": "amenity",
    "subcategory": "school",
    "latitude": 24.9145605,
    "longitude": 67.0142116,
    "id": 5124544379
  },
  {
    "name": "ایم سی بی بینک",
    "category": "amenity",
    "subcategory": "bank",
    "latitude": 24.9122568,
    "longitude": 67.0139998,
    "id": 5124544380
  },
  {
    "name": "MCB Bank - ATM",
    "category": "amenity",
    "subcategory": "bank",
    "latitude": 24.9121699,
    "longitude": 67.014028,
    "id": 5124544381
  },
  {
    "name": "The Bank of Khyber - ATM",
    "category": "amenity",
    "subcategory": "bank",
    "latitude": 24.9113821,
    "longitude": 67.0125429,
    "id": 5124544382
  },
  {
    "name": "Bank Al Falah - ATM",
    "category": "amenity",
    "subcategory": "bank",
    "latitude": 24.9052627,
    "longitude": 67.0305849,
    "id": 5127871882
  },
  {
    "name": "Sunflower Children Academy",
    "category": "amenity",
    "subcategory": "school",
    "latitude": 24.9053563,
    "longitude": 67.0301776,
    "id": 5127871884
  },
  {
    "name": "All Pakistan Library",
    "category": "amenity",
    "subcategory": "library",
    "latitude": 24.902338,
    "longitude": 67.0273345,
    "id": 5127871885
  },
  {
    "name": "IMTIAZ AUTO ELECTRITION Saleem Waseem, Habib bhaiz)",
    "category": "shop",
    "subcategory": "car_repair",
    "latitude": 24.9023527,
    "longitude": 67.0269971,
    "id": 5127871886
  },
  {
    "name": "Aleem Autos Mercedes workshop",
    "category": "shop",
    "subcategory": "car_repair",
    "latitude": 24.9026381,
    "longitude": 67.0251509,
    "id": 5127871887
  },
  {
    "name": "Jahangirabad Junk Market",
    "category": "amenity",
    "subcategory": "marketplace",
    "latitude": 24.9027798,
    "longitude": 67.023604,
    "id": 5127871888
  },
  {
    "name": "Masha Allah Milk Center",
    "category": "shop",
    "subcategory": "dairy",
    "latitude": 24.9031268,
    "longitude": 67.0233894,
    "id": 5127871889
  },
  {
    "name": "Bank Al Habib - ATM",
    "category": "amenity",
    "subcategory": "bank",
    "latitude": 24.9014494,
    "longitude": 67.0294777,
    "id": 5127925061
  },
  {
    "name": "Karachi Broast Rizvia",
    "category": "amenity",
    "subcategory": "fast_food",
    "latitude": 24.9015314,
    "longitude": 67.0289376,
    "id": 5127925062
  },
  {
    "name": "Ideal Palace",
    "category": "amenity",
    "subcategory": "community_centre",
    "latitude": 24.9015635,
    "longitude": 67.0287589,
    "id": 5127925063
  },
  {
    "name": "Agha Yaseen Juice Center",
    "category": "shop",
    "subcategory": "yes",
    "latitude": 24.9016278,
    "longitude": 67.0284662,
    "id": 5127925064
  },
  {
    "name": "Sir Syed Children Academy",
    "category": "amenity",
    "subcategory": "school",
    "latitude": 24.9016725,
    "longitude": 67.0280379,
    "id": 5127925065
  },
  {
    "name": "Al Mehran Motor Training School",
    "category": "amenity",
    "subcategory": "driving_school",
    "latitude": 24.9019177,
    "longitude": 67.0264534,
    "id": 5127925066
  },
  {
    "name": "Lovely Lawn",
    "category": "amenity",
    "subcategory": "community_centre",
    "latitude": 24.9020397,
    "longitude": 67.0256075,
    "id": 5127925067
  },
  {
    "name": "Masjid Ibrahim Ahle Hadees",
    "category": "amenity",
    "subcategory": "place_of_worship",
    "latitude": 24.9024068,
    "longitude": 67.0230864,
    "id": 5127925068
  },
  {
    "name": "Bank Al Habib - ATM",
    "category": "amenity",
    "subcategory": "bank",
    "latitude": 24.9030712,
    "longitude": 67.0177167,
    "id": 5127925069
  },
  {
    "name": "Beaconhouse School System A Levels Branch",
    "category": "amenity",
    "subcategory": "school",
    "latitude": 24.9269926,
    "longitude": 67.0430472,
    "id": 5127934399
  },
  {
    "name": "The City School Junior Boys North Nazimabad",
    "category": "amenity",
    "subcategory": "school",
    "latitude": 24.9275277,
    "longitude": 67.0423417,
    "id": 5127934400
  },
  {
    "name": "Ziauddin University Faculty of Engineering",
    "category": "amenity",
    "subcategory": "university",
    "latitude": 24.9279357,
    "longitude": 67.0418351,
    "id": 5127934401
  },
  {
    "name": "The City School North Nazimabad Junior B",
    "category": "amenity",
    "subcategory": "school",
    "latitude": 24.9281791,
    "longitude": 67.0402159,
    "id": 5127934402
  },
  {
    "name": "PAF KIET North Nazimbad Campus",
    "category": "amenity",
    "subcategory": "college",
    "latitude": 24.9289292,
    "longitude": 67.040402,
    "id": 5127934403
  },
  {
    "name": "10 No Market",
    "category": "amenity",
    "subcategory": "marketplace",
    "latitude": 24.9387063,
    "longitude": 66.9917523,
    "id": 5127939420
  },
  {
    "name": "Banarsi Cloth Market",
    "category": "amenity",
    "subcategory": "marketplace",
    "latitude": 24.9429101,
    "longitude": 67.0075021,
    "id": 5127942422
  },
  {
    "name": "Falconhouse Grammar School Campus 7",
    "category": "amenity",
    "subcategory": "school",
    "latitude": 24.9291483,
    "longitude": 67.0409013,
    "id": 5127946470
  },
  {
    "name": "Hydri Super Market",
    "category": "shop",
    "subcategory": "supermarket",
    "latitude": 24.9291976,
    "longitude": 67.0401289,
    "id": 5127946471
  },
  {
    "name": "Al-Khidmat Hospital and Maternity Home",
    "category": "amenity",
    "subcategory": "hospital",
    "latitude": 24.9051826,
    "longitude": 67.0316631,
    "id": 5127967766
  },