[
  {
    "name": "Katas mosque",
    "category": "amenity",
    "subcategory": "place_of_worship",
    "latitude": 32.7246695,
    "longitude": 72.9532245,
    "id": 2408455759
  },
  {
    "name": "Youth Hostel",
    "category": "tourism",
    "subcategory": "hostel",
    "latitude": 32.7230251,
    "longitude": 72.9517407,
    "id": 2444618229
  },
  {
    "name": "Katasraj Temple",
    "category": "amenity",
    "subcategory": "place_of_worship",
    "latitude": 32.7239451,
    "longitude": 72.9516404,
    "id": 3391903920
  },
  {
    "name": "Katas Raj Temple",
    "category": "tourism",
    "subcategory": "attraction",
    "latitude": 32.723816,
    "longitude": 72.9513447,
    "id": 3391903922
  },
  {
    "name": "Cadet College",
    "category": "amenity",
    "subcategory": "college",
    "latitude": 32.7244099,
    "longitude": 72.9656638,
    "id": 3391910447
  },
  {
    "name": "Dr Malik Khalid Iqbal",
    "category": "amenity",
    "subcategory": "doctors",
    "latitude": 32.717639,
    "longitude": 72.954831,
    "id": 4436240789
  },
  {
    "name": "Katas raj",
    "category": "amenity",
    "subcategory": "bus_station",
    "latitude": 32.722399,
    "longitude": 72.9530215,
    "id": 4736481222
  },
  {
    "name": "Gulzar-e-Madina",
    "category": "amenity",
    "subcategory": "place_of_worship",
    "latitude": 32.6829923,
    "longitude": 72.9685702,
    "id": 8870454113
  },
  {
    "name": "Abu Hanifa",
    "category": "amenity",
    "subcategory": "place_of_worship",
    "latitude": 32.6808662,
    "longitude": 72.9674613,
    "id": 8870454114
  },
  {
    "name": "Al Jannat Sweets and Bakers",
    "category": "shop",
    "subcategory": "bakery",
    "latitude": 32.727367,
    "longitude": 72.9893806,
    "id": 12061678878
  }
]