[
  {
    "name": "Raza Bacha Home",
    "category": "tourism",
    "subcategory": "apartment",
    "latitude": 34.2652359,
    "longitude": 71.6950531,
    "id": 10286050954
  },
  {
    "name": "UMERZAI BASIC HEALTH UNIT",
    "category": "amenity",
    "subcategory": "hospital",
    "latitude": 34.2438289,
    "longitude": 71.7259668,
    "id": 11896681161
  },
  {
    "name": "TURANGZAI BHU",
    "category": "amenity",
    "subcategory": "hospital",
    "latitude": 34.2177802,
    "longitude": 71.75258,
    "id": 11896681162
  },
  {
    "name": "SHERPAO-RURAL HEALTH CENTER",
    "category": "amenity",
    "subcategory": "hospital",
    "latitude": 34.2631288,
    "longitude": 71.707724,
    "id": 11896681164
  },
  {
    "name": "BHU Akhundari",
    "category": "amenity",
    "subcategory": "hospital",
    "latitude": 34.2690675,
    "longitude": 71.7603163,
    "id": 11898061543
  },
  {
    "name": "BAGHI BAKHTIAR-BASIC HEALTH UNIT",
    "category": "amenity",
    "subcategory": "hospital",
    "latitude": 34.2565305,
    "longitude": 71.7661549,
    "id": 11898061544
  }
]