[
  {
    "name": "PTDC Restaurant",
    "category": "amenity",
    "subcategory": "restaurant",
    "latitude": 34.6321315,
    "longitude": 72.005344,
    "id": 746250537
  },
  {
    "name": "Camping at the restaurant",
    "category": "tourism",
    "subcategory": "camp_site",
    "latitude": 34.6322343,
    "longitude": 72.0052393,
    "id": 746250570
  },
  {
    "name": "masjid",
    "category": "amenity",
    "subcategory": "drinking_water",
    "latitude": 34.6310838,
    "longitude": 72.0039745,
    "id": 6216643785
  },
  {
    "name": "badwan",
    "category": "amenity",
    "subcategory": "fast_food",
    "latitude": 34.6507844,
    "longitude": 72.0248331,
    "id": 6216643786
  },
  {
    "name": "AlaDhand Dheri Patak",
    "category": "shop",
    "subcategory": "bookmaker",
    "latitude": 34.6200481,
    "longitude": 72.0290962,
    "id": 6266366885
  },
  {
    "name": "یونائیٹڈ بینک لمیٹڈ",
    "category": "amenity",
    "subcategory": "bank",
    "latitude": 34.6165007,
    "longitude": 72.0220189,
    "id": 6434426566
  },
  {
    "name": "Pakistan post office",
    "category": "amenity",
    "subcategory": "post_office",
    "latitude": 34.6168746,
    "longitude": 72.02184,
    "id": 6434437897
  },
  {
    "name": "chai daba",
    "category": "amenity",
    "subcategory": "cafe",
    "latitude": 34.615955,
    "longitude": 72.0224401,
    "id": 6440850922
  },
  {
    "name": "junaid prk",
    "category": "leisure",
    "subcategory": "park",
    "latitude": 34.6384359,
    "longitude": 72.0666902,
    "id": 6453923710
  },
  {
    "name": "Hujra",
    "category": "amenity",
    "subcategory": "restaurant",
    "latitude": 34.6400404,
    "longitude": 72.0192615,
    "id": 8286347319
  },
  {
    "name": "Khurak Mahal",
    "category": "amenity",
    "subcategory": "restaurant",
    "latitude": 34.6271959,
    "longitude": 71.997911,
    "id": 8286347320
  },
  {
    "name": "Mahfil Restaurant",
    "category": "amenity",
    "subcategory": "restaurant",
    "latitude": 34.6342211,
    "longitude": 72.0084698,
    "id": 8286356417
  }
]