[
  {
    "name": "Nawa Bad Morr",
    "category": "highway",
    "subcategory": "bus_stop",
    "latitude": 25.8271426,
    "longitude": 69.0645513,
    "id": 2763699492
  },
  {
    "name": "سندھڑی",
    "category": "place",
    "subcategory": "village",
    "latitude": 25.7091984,
    "longitude": 69.1285568,
    "id": 5229838333
  },
  {
    "name": "نوشاہ - سانگھڑ - میرپورخاص صوبائی شاہراہ",
    "category": "highway",
    "subcategory": "primary",
    "latitude": 25.703699855555556,
    "longitude": 69.12527396666667,
    "id": 240445245
  },
  {
    "name": "residential",
    "category": "landuse",
    "subcategory": "residential",
    "latitude": 25.709141010526317,
    "longitude": 69.12861695,
    "id": 240445248
  },
  {
    "name": "residential",
    "category": "highway",
    "subcategory": "residential",
    "latitude": 25.706515125,
    "longitude": 69.131101975,
    "id": 240445252
  },
  {
    "name": "tertiary",
    "category": "highway",
    "subcategory": "tertiary",
    "latitude": 25.706285428571427,
    "longitude": 69.13287820000001,
    "id": 240445253
  },
  {
    "name": "Mirpur Khas - Khipro Road",
    "category": "highway",
    "subcategory": "primary",
    "latitude": 25.71146197,
    "longitude": 69.13273414,
    "id": 240494935
  },
  {
    "name": "نوشاہ - سانگھڑ - میرپورخاص صوبائی شاہراہ",
    "category": "highway",
    "subcategory": "primary",
    "latitude": 25.764192451111114,
    "longitude": 69.08762813999999,
    "id": 241040629
  },
  {
    "name": "residential",
    "category": "highway",
    "subcategory": "residential",
    "latitude": 25.70607165,
    "longitude": 69.12991489999999,
    "id": 1038388820
  },
  {
    "name": "residential",
    "category": "highway",
    "subcategory": "residential",
    "latitude": 25.718852375,
    "longitude": 69.133120675,
    "id": 1063028719
  },
  {
    "name": "residential",
    "category": "highway",
    "subcategory": "residential",
    "latitude": 25.715757983333333,
    "longitude": 69.13613236666667,
    "id": 1063028720
  },
  {
    "name": "unclassified",
    "category": "highway",
    "subcategory": "unclassified",
    "latitude": 25.717113299999998,
    "longitude": 69.13069583636364,
    "id": 1063028819
  },
  {
    "name": "residential",
    "category": "landuse",
    "subcategory": "residential",
    "latitude": 25.70914562894737,
    "longitude": 69.12852961842106,
    "id": 240445248
  }
]