[
  {
    "name": "Tombs of Bibi Jawindi & Baha'al Halim & Jalaluddin Bukhari",
    "category": "amenity",
    "subcategory": "place_of_worship",
    "latitude": 29.2398278,
    "longitude": 71.0514786,
    "id": 4736287721
  },
  {
    "name": "Link Rd to Ahmedpur east 20 km",
    "category": "tourism",
    "subcategory": "information",
    "latitude": 29.2360075,
    "longitude": 71.065991,
    "id": 6209453487
  },
  {
    "name": "Kiswa pharmacy",
    "category": "amenity",
    "subcategory": "hospital",
    "latitude": 29.2326093,
    "longitude": 71.0726666,
    "id": 6357931985
  },
  {
    "name": "Dare Arqam",
    "category": "amenity",
    "subcategory": "school",
    "latitude": 29.2330507,
    "longitude": 71.06374,
    "id": 6357932085
  },
  {
    "name": "Uch Sharif SB",
    "category": "amenity",
    "subcategory": "weighbridge",
    "latitude": 29.2409936,
    "longitude": 71.0400311,
    "id": 10768192080
  },
  {
    "name": "Uch Sharif NB",
    "category": "amenity",
    "subcategory": "weighbridge",
    "latitude": 29.2474307,
    "longitude": 71.0392557,
    "id": 10768192122
  }
]