[
  {
    "name": "City School",
    "category": "amenity",
    "subcategory": "school",
    "latitude": 30.0415979,
    "longitude": 72.3368817,
    "id": 4310044265
  },
  {
    "name": "Municipal Public Library",
    "category": "amenity",
    "subcategory": "library",
    "latitude": 30.0383691,
    "longitude": 72.3530661,
    "id": 4310082048
  },
  {
    "name": "Markazi Janazah Gah",
    "category": "amenity",
    "subcategory": "place_of_worship",
    "latitude": 30.0360008,
    "longitude": 72.3517655,
    "id": 4310082063
  },
  {
    "name": "General Bus Stand",
    "category": "amenity",
    "subcategory": "bus_station",
    "latitude": 30.0478655,
    "longitude": 72.3608736,
    "id": 4310082071
  },
  {
    "name": "Mandir Plaza",
    "category": "shop",
    "subcategory": "mall",
    "latitude": 30.0432343,
    "longitude": 72.3535666,
    "id": 4310102359
  },
  {
    "name": "Dera chachak 53/wb",
    "category": "amenity",
    "subcategory": "community_centre",
    "latitude": 30.0286036,
    "longitude": 72.3135747,
    "id": 5180628322
  },
  {
    "name": "KAM PEDIATRICS",
    "category": "amenity",
    "subcategory": "hospital",
    "latitude": 30.0289639,
    "longitude": 72.3124066,
    "id": 5180636021
  },
  {
    "name": "Musa Lube Shop",
    "category": "shop",
    "subcategory": "car_repair",
    "latitude": 30.0404435,
    "longitude": 72.347803,
    "id": 8462437038
  },
  {
    "name": "MCB",
    "category": "amenity",
    "subcategory": "bank",
    "latitude": 30.0368173,
    "longitude": 72.3605669,
    "id": 10188331775
  },
  {
    "name": "Nadeem Samosa Point",
    "category": "amenity",
    "subcategory": "fast_food",
    "latitude": 30.0366203,
    "longitude": 72.3602679,
    "id": 10201541045
  },
  {
    "name": "Khizra Mosque",
    "category": "amenity",
    "subcategory": "place_of_worship",
    "latitude": 30.035423,
    "longitude": 72.3619491,
    "id": 10201541054
  },
  {
    "name": "Khan Jalebi House",
    "category": "amenity",
    "subcategory": "cafe",
    "latitude": 30.0418352,
    "longitude": 72.3447354,
    "id": 10201541055
  },
  {
    "name": "Cafe Sajjad",
    "category": "amenity",
    "subcategory": "cafe",
    "latitude": 30.0443143,
    "longitude": 72.3532998,
    "id": 10201541061
  },
  {
    "name": "Cooko'z Cafe",
    "category": "amenity",
    "subcategory": "fast_food",
    "latitude": 30.0372058,
    "longitude": 72.3600097,
    "id": 10201541144
  },
  {
    "name": "gulzar medicine company",
    "category": "shop",
    "subcategory": "chemist",
    "latitude": 30.0464508,
    "longitude": 72.3565225,
    "id": 10845938035
  },
  {
    "name": "GULZAR MEDICINE COMPANY",
    "category": "shop",
    "subcategory": "chemist",
    "latitude": 30.0463779,
    "longitude": 72.3565784,
    "id": 10845938036
  },
  {
    "name": "Raheem Clinc",
    "category": "amenity",
    "subcategory": "clinic",
    "latitude": 30.0353455,
    "longitude": 72.3472156,
    "id": 12805716674
  }
]