[
  {
    "name": "COMSATS",
    "category": "amenity",
    "subcategory": "school",
    "latitude": 33.746449,
    "longitude": 72.7860116,
    "id": 2192150773
  },
  {
    "name": "سی این جی",
    "category": "amenity",
    "subcategory": "fuel",
    "latitude": 33.7386448,
    "longitude": 72.7964088,
    "id": 2437064203
  },
  {
    "name": "ٹیکسلا میوزیم",
    "category": "tourism",
    "subcategory": "museum",
    "latitude": 33.7463117,
    "longitude": 72.8189433,
    "id": 2446416669
  },
  {
    "name": "HIT Hospital",
    "category": "amenity",
    "subcategory": "hospital",
    "latitude": 33.7352271,
    "longitude": 72.82622,
    "id": 2446525132
  },
  {
    "name": "PETROL",
    "category": "amenity",
    "subcategory": "fuel",
    "latitude": 33.7361487,
    "longitude": 72.8020034,
    "id": 2502430274
  },
  {
    "name": "Kohistan",
    "category": "amenity",
    "subcategory": "restaurant",
    "latitude": 33.7345661,
    "longitude": 72.802622,
    "id": 2502430275
  },
  {
    "name": "Raja CNG",
    "category": "amenity",
    "subcategory": "fuel",
    "latitude": 33.7234939,
    "longitude": 72.8061636,
    "id": 2502430285
  },
  {
    "name": "wah engineering college",
    "category": "amenity",
    "subcategory": "college",
    "latitude": 33.7476484,
    "longitude": 72.7846225,
    "id": 2764814002
  },
  {
    "name": "PTDC Motel",
    "category": "tourism",
    "subcategory": "hotel",
    "latitude": 33.7461702,
    "longitude": 72.8181062,
    "id": 3522763734
  },
  {
    "name": "Doctorz Hospital",
    "category": "amenity",
    "subcategory": "hospital",
    "latitude": 33.743185,
    "longitude": 72.7826362,
    "id": 3652815784
  },
  {
    "name": "Samoo",
    "category": "tourism",
    "subcategory": "attraction",
    "latitude": 33.7828713,
    "longitude": 72.7902609,
    "id": 4327186190
  },
  {
    "name": "Samoo",
    "category": "tourism",
    "subcategory": "attraction",
    "latitude": 33.7828865,
    "longitude": 72.7902662,
    "id": 4327186590
  },
  {
    "name": "HITEC",
    "category": "amenity",
    "subcategory": "school",
    "latitude": 33.7266131,
    "longitude": 72.8195286,
    "id": 4332317092
  },
  {
    "name": "AB Hall UET Taxila",
    "category": "tourism",
    "subcategory": "hostel",
    "latitude": 33.7696386,
    "longitude": 72.8246055,
    "id": 4416006293
  },
  {
    "name": "GHS Taleem ul Quran, Taxila",
    "category": "amenity",
    "subcategory": "school",
    "latitude": 33.7419421,
    "longitude": 72.8041143,
    "id": 4534545492
  },
  {
    "name": "Wahcant Gete No 2",
    "category": "tourism",
    "subcategory": "viewpoint",
    "latitude": 33.7467953,
    "longitude": 72.7719978,
    "id": 4594136790
  },
  {
    "name": "computer engineering department",
    "category": "shop",
    "subcategory": "department_store",
    "latitude": 33.7663748,
    "longitude": 72.8267707,
    "id": 4696944389
  },
  {
    "name": "UET Q Hall",
    "category": "tourism",
    "subcategory": "hostel",
    "latitude": 33.7686181,
    "longitude": 72.824588,
    "id": 4832804522
  },
  {
    "name": "HMC Market",
    "category": "shop",
    "subcategory": "supermarket",
    "latitude": 33.771272,
    "longitude": 72.8138658,
    "id": 4832808121
  },
  {
    "name": "HMC Residential Colony",
    "category": "tourism",
    "subcategory": "guest_house",
    "latitude": 33.7728704,
    "longitude": 72.8147379,
    "id": 4832954521
  },
  {
    "name": "Mechanical Engineering department",
    "category": "shop",
    "subcategory": "department_store",
    "latitude": 33.7673123,
    "longitude": 72.8265581,
    "id": 4833502922
  },
  {
    "name": "UET Central Library",
    "category": "amenity",
    "subcategory": "library",
    "latitude": 33.7678421,
    "longitude": 72.8243761,
    "id": 4834400425
  },
  {
    "name": "Civil Engineering Department",
    "category": "shop",
    "subcategory": "department_store",
    "latitude": 33.7670864,
    "longitude": 72.825123,
    "id": 4835074023
  },
  {
    "name": "HBL UET Taxila",
    "category": "amenity",
    "subcategory": "bank",
    "latitude": 33.7673385,
    "longitude": 72.8221244,
    "id": 4835074024
  },
  {
    "name": "جامع مسجد",
    "category": "amenity",
    "subcategory": "place_of_worship",
    "latitude": 33.7684705,
    "longitude": 72.8217795,
    "id": 4835094722
  },
  {
    "name": "UET Girls hostle",
    "category": "tourism",
    "subcategory": "hostel",
    "latitude": 33.7609813,
    "longitude": 72.8271854,
    "id": 4835094723
  },
  {
    "name": "UET Taxila Gate no. 1",
    "category": "amenity",
    "subcategory": "school",
    "latitude": 33.7595683,
    "longitude": 72.8267509,
    "id": 4835121921
  },
  {
    "name": "Paradise Cafe",
    "category": "amenity",
    "subcategory": "cafe",
    "latitude": 33.7687376,
    "longitude": 72.8260443,
    "id": 4835123221
  },
  {
    "name": "UET Multipurpose Hall",
    "category": "leisure",
    "subcategory": "fitness_centre",
    "latitude": 33.7696365,
    "longitude": 72.8230061,
    "id": 4835123421
  },
  {
    "name": "UET Student Service Center",
    "category": "shop",
    "subcategory": "bakery",
    "latitude": 33.7690156,
    "longitude": 72.8216248,
    "id": 4835614023
  },
  {
    "name": "Bilal Hall UET",
    "category": "tourism",
    "subcategory": "hostel",
    "latitude": 33.770406,
    "longitude": 72.8248315,
    "id": 4835656522
  },
  {
    "name": "Ali Hall UET",
    "category": "tourism",
    "subcategory": "hostel",
    "latitude": 33.768779,
    "longitude": 72.8238905,
    "id": 4835656523
  },
  {
    "name": "Iqbal Hall",
    "category": "tourism",
    "subcategory": "hostel",
    "latitude": 33.7699601,
    "longitude": 72.8248105,
    "id": 4835656621
  },
  {
    "name": "Home",
    "category": "tourism",
    "subcategory": "guest_house",
    "latitude": 33.7555203,
    "longitude": 72.7787081,
    "id": 5719665522
  },
  {
    "name": "Taxila (ٹیکسلا)",
    "category": "amenity",
    "subcategory": "bus_station",
    "latitude": 33.7416213,
    "longitude": 72.8190732,
    "id": 6185589485
  },
  {
    "name": "Modern Shoes",
    "category": "shop",
    "subcategory": "shoes",
    "latitude": 33.7348281,
    "longitude": 72.8243793,
    "id": 6364959992
  },
  {
    "name": "Jamco International Taxila",
    "category": "shop",
    "subcategory": "shoes",
    "latitude": 33.7249947,
    "longitude": 72.8076866,
    "id": 6598974585
  },
  {
    "name": "Engineering Solution Taxila",
    "category": "shop",
    "subcategory": "shoes",
    "latitude": 33.7381627,
    "longitude": 72.7986343,
    "id": 6598974685
  },
  {
    "name": "Engineering Solution Taxila",
    "category": "tourism",
    "subcategory": "apartment",
    "latitude": 33.7334049,
    "longitude": 72.8017323,
    "id": 6598974686
  },
  {
    "name": "Saraikala Mound",
    "category": "tourism",
    "subcategory": "attraction",
    "latitude": 33.7341398,
    "longitude": 72.8001703,
    "id": 7538414486
  },
  {
    "name": "Khader Mohra",
    "category": "tourism",
    "subcategory": "attraction",
    "latitude": 33.7405602,
    "longitude": 72.8467382,
    "id": 7538414487
  },
  {
    "name": "Kunala Stupa and Monastery",
    "category": "tourism",
    "subcategory": "attraction",
    "latitude": 33.750445,
    "longitude": 72.8305422,
    "id": 7538414886
  },
  {
    "name": "Techno Engineering works",
    "category": "tourism",
    "subcategory": "apartment",
    "latitude": 33.7286985,
    "longitude": 72.8189368,
    "id": 8417733717
  },
  {
    "name": "UET Play ground",
    "category": "leisure",
    "subcategory": "park",
    "latitude": 33.7711052,
    "longitude": 72.82182,
    "id": 9210118541
  },
  {
    "name": "Wah Medical College Auditorium",
    "category": "amenity",
    "subcategory": "conference_centre",
    "latitude": 33.7463311,
    "longitude": 72.7889548,
    "id": 10168836310
  },
  {
    "name": "Wah Medical College",
    "category": "amenity",
    "subcategory": "college",
    "latitude": 33.7470004,
    "longitude": 72.7879706,
    "id": 10168852930
  },
  {
    "name": "Peace bell",
    "category": "tourism",
    "subcategory": "artwork",
    "latitude": 33.7459181,
    "longitude": 72.8192671,
    "id": 12188746514
  }
]