[
  {
    "name": "fuel",
    "category": "amenity",
    "subcategory": "fuel",
    "latitude": 33.7655118,
    "longitude": 72.8353549,
    "id": 260066730
  },
  {
    "name": "COMSATS",
    "category": "amenity",
    "subcategory": "school",
    "latitude": 33.746449,
    "longitude": 72.7860116,
    "id": 2192150773
  },
  {
    "name": "turning_circle",
    "category": "highway",
    "subcategory": "turning_circle",
    "latitude": 33.7583526,
    "longitude": 72.8293393,
    "id": 2423359660
  },
  {
    "name": "سی این جی",
    "category": "amenity",
    "subcategory": "fuel",
    "latitude": 33.7386448,
    "longitude": 72.7964088,
    "id": 2437064203
  },
  {
    "name": "ٹیکسلا میوزیم",
    "category": "tourism",
    "subcategory": "museum",
    "latitude": 33.7463117,
    "longitude": 72.8189433,
    "id": 2446416669
  },
  {
    "name": "HIT Hospital",
    "category": "amenity",
    "subcategory": "hospital",
    "latitude": 33.7352271,
    "longitude": 72.82622,
    "id": 2446525132
  },
  {
    "name": "fuel",
    "category": "amenity",
    "subcategory": "fuel",
    "latitude": 33.7132554,
    "longitude": 72.8127038,
    "id": 2502423910
  },
  {
    "name": "fuel",
    "category": "amenity",
    "subcategory": "fuel",
    "latitude": 33.713479,
    "longitude": 72.8120438,
    "id": 2502423911
  },
  {
    "name": "fuel",
    "category": "amenity",
    "subcategory": "fuel",
    "latitude": 33.7123744,
    "longitude": 72.8119342,
    "id": 2502423912
  },
  {
    "name": "fuel",
    "category": "amenity",
    "subcategory": "fuel",
    "latitude": 33.7143284,
    "longitude": 72.8106369,
    "id": 2502423913
  },
  {
    "name": "PETROL",
    "category": "amenity",
    "subcategory": "fuel",
    "latitude": 33.7361487,
    "longitude": 72.8020034,
    "id": 2502430274
  },
  {
    "name": "Kohistan",
    "category": "amenity",
    "subcategory": "restaurant",
    "latitude": 33.7345661,
    "longitude": 72.802622,
    "id": 2502430275
  },
  {
    "name": "fuel",
    "category": "amenity",
    "subcategory": "fuel",
    "latitude": 33.7293732,
    "longitude": 72.8052469,
    "id": 2502430279
  },
  {
    "name": "fuel",
    "category": "amenity",
    "subcategory": "fuel",
    "latitude": 33.7290736,
    "longitude": 72.8053597,
    "id": 2502430280
  },
  {
    "name": "bus_stop",
    "category": "highway",
    "subcategory": "bus_stop",
    "latitude": 33.7259452,
    "longitude": 72.8056542,
    "id": 2502430283
  },
  {
    "name": "bus_stop",
    "category": "highway",
    "subcategory": "bus_stop",
    "latitude": 33.7254308,
    "longitude": 72.8049701,
    "id": 2502430284
  },
  {
    "name": "Raja CNG",
    "category": "amenity",
    "subcategory": "fuel",
    "latitude": 33.7234939,
    "longitude": 72.8061636,
    "id": 2502430285
  },
  {
    "name": "bus_stop",
    "category": "highway",
    "subcategory": "bus_stop",
    "latitude": 33.712583,
    "longitude": 72.8134447,
    "id": 2502430286
  },
  {
    "name": "TANK Chok (ٹینک چوک)",
    "category": "historic",
    "subcategory": "monument",
    "latitude": 33.71156,
    "longitude": 72.8139941,
    "id": 2502430287
  },
  {
    "name": "نواب آباد",
    "category": "place",
    "subcategory": "village",
    "latitude": 33.746118,
    "longitude": 72.7802996,
    "id": 2694431919
  },
  {
    "name": "4 Area",
    "category": "place",
    "subcategory": "suburb",
    "latitude": 33.7509212,
    "longitude": 72.7794791,
    "id": 2712766482
  },
  {
    "name": "Wahdat Colony",
    "category": "place",
    "subcategory": "village",
    "latitude": 33.7242944,
    "longitude": 72.8024925,
    "id": 2718685360
  },
  {
    "name": "wah engineering college",
    "category": "amenity",
    "subcategory": "college",
    "latitude": 33.7476484,
    "longitude": 72.7846225,
    "id": 2764814002
  },
  {
    "name": "Kohsar Colony",
    "category": "place",
    "subcategory": "village",
    "latitude": 33.7275046,
    "longitude": 72.8006671,
    "id": 2787108354
  },
  {
    "name": "ڈھوک سیدو",
    "category": "place",
    "subcategory": "village",
    "latitude": 33.7196001,
    "longitude": 72.7809904,
    "id": 3062489339
  },
  {
    "name": "بن بھولا",
    "category": "place",
    "subcategory": "village",
    "latitude": 33.7096384,
    "longitude": 72.7695195,
    "id": 3062489367
  },
  {
    "name": "PTDC Motel",
    "category": "tourism",
    "subcategory": "hotel",
    "latitude": 33.7461702,
    "longitude": 72.8181062,
    "id": 3522763734
  },
  {
    "name": "Doctorz Hospital",
    "category": "amenity",
    "subcategory": "hospital",
    "latitude": 33.743185,
    "longitude": 72.7826362,
    "id": 3652815784
  },
  {
    "name": "Samoo",
    "category": "tourism",
    "subcategory": "attraction",
    "latitude": 33.7828713,
    "longitude": 72.7902609,
    "id": 4327186190
  },
  {
    "name": "Samoo",
    "category": "tourism",
    "subcategory": "attraction",
    "latitude": 33.7828865,
    "longitude": 72.7902662,
    "id": 4327186590
  },
  {
    "name": "HITEC",
    "category": "amenity",
    "subcategory": "school",
    "latitude": 33.7266131,
    "longitude": 72.8195286,
    "id": 4332317092
  },
  {
    "name": "AB Hall UET Taxila",
    "category": "tourism",
    "subcategory": "hostel",
    "latitude": 33.7696386,
    "longitude": 72.8246055,
    "id": 4416006293
  },
  {
    "name": "GHS Taleem ul Quran, Taxila",
    "category": "amenity",
    "subcategory": "school",
    "latitude": 33.7419421,
    "longitude": 72.8041143,
    "id": 4534545492
  },
  {
    "name": "Wahcant Gete No 2",
    "category": "tourism",
    "subcategory": "viewpoint",
    "latitude": 33.7467953,
    "longitude": 72.7719978,
    "id": 4594136790
  },
  {
    "name": "computer engineering department",
    "category": "shop",
    "subcategory": "department_store",
    "latitude": 33.7663748,
    "longitude": 72.8267707,
    "id": 4696944389
  },
  {
    "name": "cafe",
    "category": "amenity",
    "subcategory": "cafe",
    "latitude": 33.7579274,
    "longitude": 72.7725758,
    "id": 4736467021
  },
  {
    "name": "UET Q Hall",
    "category": "tourism",
    "subcategory": "hostel",
    "latitude": 33.7686181,
    "longitude": 72.824588,
    "id": 4832804522
  },
  {
    "name": "atm",
    "category": "amenity",
    "subcategory": "atm",
    "latitude": 33.771319,
    "longitude": 72.8146377,
    "id": 4832804523
  },
  {
    "name": "HMC Market",
    "category": "shop",
    "subcategory": "supermarket",
    "latitude": 33.771272,
    "longitude": 72.8138658,
    "id": 4832808121
  },
  {
    "name": "HMC Residential Colony",
    "category": "tourism",
    "subcategory": "guest_house",
    "latitude": 33.7728704,
    "longitude": 72.8147379,
    "id": 4832954521
  },
  {
    "name": "Mechanical Engineering department",
    "category": "shop",
    "subcategory": "department_store",
    "latitude": 33.7673123,
    "longitude": 72.8265581,
    "id": 4833502922
  },
  {
    "name": "UET Central Library",
    "category": "amenity",
    "subcategory": "library",
    "latitude": 33.7678421,
    "longitude": 72.8243761,
    "id": 4834400425
  },
  {
    "name": "VC office & Admin block",
    "category": "office",
    "subcategory": "government",
    "latitude": 33.7664961,
    "longitude": 72.8249737,
    "id": 4835074022
  },
  {
    "name": "Civil Engineering Department",
    "category": "shop",
    "subcategory": "department_store",
    "latitude": 33.7670864,
    "longitude": 72.825123,
    "id": 4835074023
  },
  {
    "name": "HBL UET Taxila",
    "category": "amenity",
    "subcategory": "bank",
    "latitude": 33.7673385,
    "longitude": 72.8221244,
    "id": 4835074024
  },
  {
    "name": "جامع مسجد",
    "category": "amenity",
    "subcategory": "place_of_worship",
    "latitude": 33.7684705,
    "longitude": 72.8217795,
    "id": 4835094722
  },
  {
    "name": "UET Girls hostle",
    "category": "tourism",
    "subcategory": "hostel",
    "latitude": 33.7609813,
    "longitude": 72.8271854,
    "id": 4835094723
  },
  {
    "name": "UET Taxila Gate no. 1",
    "category": "amenity",
    "subcategory": "school",
    "latitude": 33.7595683,
    "longitude": 72.8267509,
    "id": 4835121921
  },
  {
    "name": "Paradise Cafe",
    "category": "amenity",
    "subcategory": "cafe",
    "latitude": 33.7687376,
    "longitude": 72.8260443,
    "id": 4835123221
  },
  {
    "name": "UET Multipurpose Hall",
    "category": "leisure",
    "subcategory": "fitness_centre",
    "latitude": 33.7696365,
    "longitude": 72.8230061,
    "id": 4835123421
  },
  {
    "name": "UET Student Service Center",
    "category": "shop",
    "subcategory": "bakery",
    "latitude": 33.7690156,
    "longitude": 72.8216248,
    "id": 4835614023
  },
  {
    "name": "Bilal Hall UET",
    "category": "tourism",
    "subcategory": "hostel",
    "latitude": 33.770406,
    "longitude": 72.8248315,
    "id": 4835656522
  },
  {
    "name": "Ali Hall UET",
    "category": "tourism",
    "subcategory": "hostel",
    "latitude": 33.768779,
    "longitude": 72.8238905,
    "id": 4835656523
  },
  {
    "name": "Iqbal Hall",
    "category": "tourism",
    "subcategory": "hostel",
    "latitude": 33.7699601,
    "longitude": 72.8248105,
    "id": 4835656621
  },
  {
    "name": "restaurant",
    "category": "amenity",
    "subcategory": "restaurant",
    "latitude": 33.7206777,
    "longitude": 72.8066391,
    "id": 4991893421
  },
  {
    "name": "Home",
    "category": "tourism",
    "subcategory": "guest_house",
    "latitude": 33.7555203,
    "longitude": 72.7787081,
    "id": 5719665522
  },
  {
    "name": "Wah Factory",
    "category": "office",
    "subcategory": "government",
    "latitude": 33.7605314,
    "longitude": 72.7726995,
    "id": 6063288087
  },
  {
    "name": "Taxila (ٹیکسلا)",
    "category": "amenity",
    "subcategory": "bus_station",
    "latitude": 33.7416213,
    "longitude": 72.8190732,
    "id": 6185589485
  },
  {
    "name": "apartment",
    "category": "tourism",
    "subcategory": "apartment",
    "latitude": 33.7369565,
    "longitude": 72.831306,
    "id": 6364378285
  },
  {
    "name": "Modern Shoes",
    "category": "shop",
    "subcategory": "shoes",
    "latitude": 33.7348281,
    "longitude": 72.8243793,
    "id": 6364959992
  },
  {
    "name": "Jandiāl Temple",
    "category": "historic",
    "subcategory": "archaeological_site",
    "latitude": 33.7644782,
    "longitude": 72.828788,
    "id": 6410492048
  },
  {
    "name": "Jamco International Taxila",
    "category": "shop",
    "subcategory": "shoes",
    "latitude": 33.7249947,
    "longitude": 72.8076866,
    "id": 6598974585
  },
  {
    "name": "Engineering Solution Taxila",
    "category": "shop",
    "subcategory": "shoes",
    "latitude": 33.7381627,
    "longitude": 72.7986343,
    "id": 6598974685
  },
  {
    "name": "Engineering Solution Taxila",
    "category": "tourism",
    "subcategory": "apartment",
    "latitude": 33.7334049,
    "longitude": 72.8017323,
    "id": 6598974686
  },
  {
    "name": "restaurant",
    "category": "amenity",
    "subcategory": "restaurant",
    "latitude": 33.7345825,
    "longitude": 72.8169234,
    "id": 6669876185
  },
  {
    "name": "bus_stop",
    "category": "highway",
    "subcategory": "bus_stop",
    "latitude": 33.7370713,
    "longitude": 72.7986044,
    "id": 6849211585
  },
  {
    "name": "Saraikala Mound",
    "category": "tourism",
    "subcategory": "attraction",
    "latitude": 33.7341398,
    "longitude": 72.8001703,
    "id": 7538414486
  },
  {
    "name": "Khader Mohra",
    "category": "tourism",
    "subcategory": "attraction",
    "latitude": 33.7405602,
    "longitude": 72.8467382,
    "id": 7538414487
  },
  {
    "name": "Kunala Stupa and Monastery",
    "category": "tourism",
    "subcategory": "attraction",
    "latitude": 33.750445,
    "longitude": 72.8305422,
    "id": 7538414886
  },
  {
    "name": "ٹیکسلا",
    "category": "place",
    "subcategory": "city",
    "latitude": 33.7474551,
    "longitude": 72.8073364,
    "id": 7673015520
  },
  {
    "name": "Techno Engineering works",
    "category": "tourism",
    "subcategory": "apartment",
    "latitude": 33.7286985,
    "longitude": 72.8189368,
    "id": 8417733717
  },
  {
    "name": "ڈھوک وجن",
    "category": "place",
    "subcategory": "village",
    "latitude": 33.7233394,
    "longitude": 72.8138853,
    "id": 8887609102
  },
  {
    "name": "شاہپور",
    "category": "place",
    "subcategory": "village",
    "latitude": 33.7415335,
    "longitude": 72.8344708,
    "id": 8887617219
  },
  {
    "name": "حسین آباد",
    "category": "place",
    "subcategory": "village",
    "latitude": 33.7321512,
    "longitude": 72.7725084,
    "id": 8891175979
  },
  {
    "name": "درگاہ چوشال شریف",
    "category": "historic",
    "subcategory": "memorial",
    "latitude": 33.7306745,
    "longitude": 72.7784723,
    "id": 8891175980
  },
  {
    "name": "Chaina Chowk",
    "category": "highway",
    "subcategory": "bus_stop",
    "latitude": 33.772969,
    "longitude": 72.8117743,
    "id": 9210089407
  },
  {
    "name": "UET Play ground",
    "category": "leisure",
    "subcategory": "park",
    "latitude": 33.7711052,
    "longitude": 72.82182,
    "id": 9210118541
  },
  {
    "name": "Wah Medical College Auditorium",
    "category": "amenity",
    "subcategory": "conference_centre",
    "latitude": 33.7463311,
    "longitude": 72.7889548,
    "id": 10168836310
  },
  {
    "name": "Wah Medical College",
    "category": "amenity",
    "subcategory": "college",
    "latitude": 33.7470004,
    "longitude": 72.7879706,
    "id": 10168852930
  },
  {
    "name": "park",
    "category": "leisure",
    "subcategory": "park",
    "latitude": 33.7481044,
    "longitude": 72.7790423,
    "id": 11307595110
  },
  {
    "name": "toilets",
    "category": "amenity",
    "subcategory": "toilets",
    "latitude": 33.7445008,
    "longitude": 72.8411445,
    "id": 12188746395
  },
  {
    "name": "tree",
    "category": "natural",
    "subcategory": "tree",
    "latitude": 33.7451821,
    "longitude": 72.8424561,
    "id": 12188746447
  },
  {
    "name": "Peace bell",
    "category": "tourism",
    "subcategory": "artwork",
    "latitude": 33.7459181,
    "longitude": 72.8192671,
    "id": 12188746514
  },
  {
    "name": "tree",
    "category": "natural",
    "subcategory": "tree",
    "latitude": 33.7459237,
    "longitude": 72.819365,
    "id": 12188746515
  },
  {
    "name": "playground",
    "category": "leisure",
    "subcategory": "playground",
    "latitude": 33.7459343,
    "longitude": 72.819487,
    "id": 12188746517
  },
  {
    "name": "traffic_mirror",
    "category": "highway",
    "subcategory": "traffic_mirror",
    "latitude": 33.7460586,
    "longitude": 72.8184061,
    "id": 12188746595
  },
  {
    "name": "گرینڈ ٹرنک روڈ",
    "category": "highway",
    "subcategory": "trunk",
    "latitude": 33.73177495,
    "longitude": 72.80424335000001,
    "id": 23017222
  },
  {
    "name": "گرینڈ ٹرنک روڈ",
    "category": "highway",
    "subcategory": "trunk",
    "latitude": 33.73318165,
    "longitude": 72.8039450375,
    "id": 23017223
  },
  {
    "name": "گرینڈ ٹرنک روڈ",
    "category": "highway",
    "subcategory": "trunk",
    "latitude": 33.703853691269835,
    "longitude": 72.82453011587302,
    "id": 23017267
  },
  {
    "name": "گرینڈ ٹرنک روڈ",
    "category": "highway",
    "subcategory": "trunk",
    "latitude": 33.753450716875,
    "longitude": 72.75556668375,
    "id": 23017541
  },
  {
    "name": "Taxila Road",
    "category": "highway",
    "subcategory": "trunk",
    "latitude": 33.77494742567567,
    "longitude": 72.86895794594595,
    "id": 23986960
  },
  {
    "name": "primary",
    "category": "highway",
    "subcategory": "primary",
    "latitude": 33.7676814,
    "longitude": 72.8100647,
    "id": 27134523
  },
  {
    "name": "residential",
    "category": "highway",
    "subcategory": "residential",
    "latitude": 33.75877133636364,
    "longitude": 72.76356485,
    "id": 44491104
  },
  {
    "name": "primary_link",
    "category": "highway",
    "subcategory": "primary_link",
    "latitude": 33.763314449999996,
    "longitude": 72.76803447500001,
    "id": 44491117
  },
  {
    "name": "residential",
    "category": "highway",
    "subcategory": "residential",
    "latitude": 33.7603489,
    "longitude": 72.7686375,
    "id": 44491168
  },
  {
    "name": "residential",
    "category": "highway",
    "subcategory": "residential",
    "latitude": 33.75752593333333,
    "longitude": 72.776729,
    "id": 72529706
  },
  {
    "name": "residential",
    "category": "highway",
    "subcategory": "residential",
    "latitude": 33.75847825454545,
    "longitude": 72.78126208181818,
    "id": 72529709
  },
  {
    "name": "residential",
    "category": "highway",
    "subcategory": "residential",
    "latitude": 33.75659391111111,
    "longitude": 72.78234486666666,
    "id": 72529711
  },
  {
    "name": "residential",
    "category": "highway",
    "subcategory": "residential",
    "latitude": 33.75389976666667,
    "longitude": 72.78031043333333,
    "id": 72529714
  },
  {
    "name": "residential",
    "category": "highway",
    "subcategory": "residential",
    "latitude": 33.757665450000005,
    "longitude": 72.77892034999999,
    "id": 72529717
  },
  {
    "name": "residential",
    "category": "highway",
    "subcategory": "residential",
    "latitude": 33.7584814,
    "longitude": 72.77954575000001,
    "id": 72529719
  },
  {
    "name": "residential",
    "category": "highway",
    "subcategory": "residential",
    "latitude": 33.75929876666667,
    "longitude": 72.78011843333333,
    "id": 72529721
  },
  {
    "name": "residential",
    "category": "highway",
    "subcategory": "residential",
    "latitude": 33.759952350000006,
    "longitude": 72.7809386,
    "id": 72529723
  },
  {
    "name": "Swat Road",
    "category": "highway",
    "subcategory": "residential",
    "latitude": 33.7606267,
    "longitude": 72.7817226,
    "id": 72529725
  },
  {
    "name": "residential",
    "category": "highway",
    "subcategory": "residential",
    "latitude": 33.756851749999996,
    "longitude": 72.77830245,
    "id": 72529729
  },
  {
    "name": "residential",
    "category": "highway",
    "subcategory": "residential",
    "latitude": 33.75924393333333,
    "longitude": 72.77538213333334,
    "id": 72530518
  },
  {
    "name": "residential",
    "category": "highway",
    "subcategory": "residential",
    "latitude": 33.759550866666665,
    "longitude": 72.77660796666667,
    "id": 72530519
  },
  {
    "name": "residential",
    "category": "highway",
    "subcategory": "residential",
    "latitude": 33.761669966666666,
    "longitude": 72.78003816666667,
    "id": 72530521
  },
  {
    "name": "residential",
    "category": "highway",
    "subcategory": "residential",
    "latitude": 33.761821918181816,
    "longitude": 72.77776689090909,
    "id": 72530522
  },
  {
    "name": "residential",
    "category": "highway",
    "subcategory": "residential",
    "latitude": 33.760722671428574,
    "longitude": 72.77593917142858,
    "id": 72530524
  },
  {
    "name": "residential",
    "category": "highway",
    "subcategory": "residential",
    "latitude": 33.7563044,
    "longitude": 72.77728905,
    "id": 72530714
  },
  {
    "name": "tertiary",
    "category": "highway",
    "subcategory": "tertiary",
    "latitude": 33.7526724,
    "longitude": 72.7749074,
    "id": 72531371
  },
  {
    "name": "tertiary",
    "category": "highway",
    "subcategory": "tertiary",
    "latitude": 33.749736033333335,
    "longitude": 72.78292096666667,
    "id": 72531375
  },
  {
    "name": "tertiary",
    "category": "highway",
    "subcategory": "tertiary",
    "latitude": 33.75157266666667,
    "longitude": 72.77585196666666,
    "id": 72531377
  },
  {
    "name": "tertiary",
    "category": "highway",
    "subcategory": "tertiary",
    "latitude": 33.74966033333334,
    "longitude": 72.78300193333332,
    "id": 72531379
  },
  {
    "name": "residential",
    "category": "highway",
    "subcategory": "residential",
    "latitude": 33.74888121818182,
    "longitude": 72.77450942272728,
    "id": 72531381
  },
  {
    "name": "tertiary",
    "category": "highway",
    "subcategory": "tertiary",
    "latitude": 33.75223096470589,
    "longitude": 72.77547254705883,
    "id": 72531388
  },
  {
    "name": "secondary",
    "category": "highway",
    "subcategory": "secondary",
    "latitude": 33.75970904,
    "longitude": 72.76274650333333,
    "id": 72531391
  },
  {
    "name": "tertiary",
    "category": "highway",
    "subcategory": "tertiary",
    "latitude": 33.757543242857146,
    "longitude": 72.77139818571429,
    "id": 72531836
  },
  {
    "name": "stadium",
    "category": "leisure",
    "subcategory": "stadium",
    "latitude": 33.7557722,
    "longitude": 72.77372310000001,
    "id": 72532103
  },
  {
    "name": "tertiary",
    "category": "highway",
    "subcategory": "tertiary",
    "latitude": 33.752158524,
    "longitude": 72.76918054800001,
    "id": 72532385
  },
  {
    "name": "Hospital Chowk",
    "category": "highway",
    "subcategory": "primary",
    "latitude": 33.749843218181816,
    "longitude": 72.78319911363636,
    "id": 81242855
  },
  {
    "name": "residential",
    "category": "highway",
    "subcategory": "residential",
    "latitude": 33.75535036666667,
    "longitude": 72.7770879,
    "id": 81243595
  },
  {
    "name": "residential",
    "category": "highway",
    "subcategory": "residential",
    "latitude": 33.7539727,
    "longitude": 72.7789378,
    "id": 81243598
  },
  {
    "name": "residential",
    "category": "highway",
    "subcategory": "residential",
    "latitude": 33.75161187,
    "longitude": 72.77880023,
    "id": 81243599
  },
  {
    "name": "residential",
    "category": "highway",
    "subcategory": "residential",
    "latitude": 33.75089705,
    "longitude": 72.78124755,
    "id": 81243600
  },
  {
    "name": "residential",
    "category": "highway",
    "subcategory": "residential",
    "latitude": 33.756541392307696,
    "longitude": 72.77457838461538,
    "id": 81243601
  },
  {
    "name": "Sher Shah Suri Road",
    "category": "highway",
    "subcategory": "residential",
    "latitude": 33.7380194,
    "longitude": 72.80178107142856,
    "id": 110496339
  },
  {
    "name": "secondary",
    "category": "highway",
    "subcategory": "secondary",
    "latitude": 33.751398640740746,
    "longitude": 72.77233114814815,
    "id": 226356719
  },
  {
    "name": "جناح ایونیو",
    "category": "highway",
    "subcategory": "primary",
    "latitude": 33.770801383908044,
    "longitude": 72.75494438045978,
    "id": 226363508
  },
  {
    "name": "جناح ایونیو",
    "category": "highway",
    "subcategory": "primary",
    "latitude": 33.74599705,
    "longitude": 72.78786248333334,
    "id": 226363509
  },
  {
    "name": "جناح ایونیو",
    "category": "highway",
    "subcategory": "primary",
    "latitude": 33.77044434130435,
    "longitude": 72.75524806413044,
    "id": 226363526
  },
  {
    "name": "جناح ایونیو",
    "category": "highway",
    "subcategory": "primary",
    "latitude": 33.74579163529412,
    "longitude": 72.78789077647059,
    "id": 226363528
  },
  {
    "name": "trunk_link",
    "category": "highway",
    "subcategory": "trunk_link",
    "latitude": 33.7095126,
    "longitude": 72.81670195000001,
    "id": 233452587
  },
  {
    "name": "trunk_link",
    "category": "highway",
    "subcategory": "trunk_link",
    "latitude": 33.713310750000005,
    "longitude": 72.81139865,
    "id": 233452591
  },
  {
    "name": "trunk_link",
    "category": "highway",
    "subcategory": "trunk_link",
    "latitude": 33.7232147,
    "longitude": 72.80574395,
    "id": 233452592
  },
  {
    "name": "trunk_link",
    "category": "highway",
    "subcategory": "trunk_link",
    "latitude": 33.733041,
    "longitude": 72.80411749999999,
    "id": 233452593
  },
  {
    "name": "trunk_link",
    "category": "highway",
    "subcategory": "trunk_link",
    "latitude": 33.7396603,
    "longitude": 72.79243614999999,
    "id": 233452594
  },
  {
    "name": "trunk_link",
    "category": "highway",
    "subcategory": "trunk_link",
    "latitude": 33.74547165,
    "longitude": 72.77576085000001,
    "id": 233452596
  },
  {
    "name": "trunk_link",
    "category": "highway",
    "subcategory": "trunk_link",
    "latitude": 33.747134450000004,
    "longitude": 72.77046415000001,
    "id": 233452597
  },
  {
    "name": "Wah Cantt Underpass",
    "category": "highway",
    "subcategory": "trunk",
    "latitude": 33.735018475000004,
    "longitude": 72.8026182625,
    "id": 233476050
  },
  {
    "name": "Wah Cantt Underpass",
    "category": "highway",
    "subcategory": "trunk",
    "latitude": 33.7383322,
    "longitude": 72.796208925,
    "id": 233476051
  },
  {
    "name": "Barrier 1 Wah Cantt",
    "category": "highway",
    "subcategory": "primary",
    "latitude": 33.73804065,
    "longitude": 72.79796512499999,
    "id": 233476054
  },
  {
    "name": "Barrier 1 Wah Cantt",
    "category": "highway",
    "subcategory": "primary",
    "latitude": 33.73797963333333,
    "longitude": 72.79790653333333,
    "id": 233476055
  },
  {
    "name": "Wah Cantt Road",
    "category": "highway",
    "subcategory": "primary",
    "latitude": 33.737853650000005,
    "longitude": 72.7981469,
    "id": 233476056
  },
  {
    "name": "Sirkap Road",
    "category": "highway",
    "subcategory": "unclassified",
    "latitude": 33.7583763,
    "longitude": 72.827431475,
    "id": 234028070
  },
  {
    "name": "path",
    "category": "highway",
    "subcategory": "path",
    "latitude": 33.75621932777778,
    "longitude": 72.82946592777779,
    "id": 234028071
  },
  {
    "name": "path",
    "category": "highway",
    "subcategory": "path",
    "latitude": 33.756416650000006,
    "longitude": 72.82850725,
    "id": 234028072
  },
  {
    "name": "path",
    "category": "highway",
    "subcategory": "path",
    "latitude": 33.7567754,
    "longitude": 72.8289215,
    "id": 234028073
  },
  {
    "name": "path",
    "category": "highway",
    "subcategory": "path",
    "latitude": 33.757804449999995,
    "longitude": 72.8297884,
    "id": 234028074
  },
  {
    "name": "path",
    "category": "highway",
    "subcategory": "path",
    "latitude": 33.75746346666667,
    "longitude": 72.82948546666667,
    "id": 234028075
  },
  {
    "name": "path",
    "category": "highway",
    "subcategory": "path",
    "latitude": 33.75712323333334,
    "longitude": 72.8295389,
    "id": 234028076
  },
  {
    "name": "path",
    "category": "highway",
    "subcategory": "path",
    "latitude": 33.756442166666666,
    "longitude": 72.82976806666666,
    "id": 234028077
  },
  {
    "name": "path",
    "category": "highway",
    "subcategory": "path",
    "latitude": 33.755042,
    "longitude": 72.82962839999999,
    "id": 234028078
  },
  {
    "name": "path",
    "category": "highway",
    "subcategory": "path",
    "latitude": 33.75604318333333,
    "longitude": 72.82967550000001,
    "id": 234028079
  },
  {
    "name": "Farooqia Road",
    "category": "highway",
    "subcategory": "primary",
    "latitude": 33.78096055,
    "longitude": 72.8138047,
    "id": 234562382
  },
  {
    "name": "Farooqia Road",
    "category": "highway",
    "subcategory": "primary",
    "latitude": 33.7753387,
    "longitude": 72.81221778461538,
    "id": 234562385
  },
  {
    "name": "footway",
    "category": "highway",
    "subcategory": "footway",
    "latitude": 33.76469433333333,
    "longitude": 72.76692325,
    "id": 234564837
  },
  {
    "name": "residential",
    "category": "highway",
    "subcategory": "residential",
    "latitude": 33.7651424,
    "longitude": 72.76751809999999,
    "id": 234564838
  },
  {
    "name": "tertiary",
    "category": "highway",
    "subcategory": "tertiary",
    "latitude": 33.7635602,
    "longitude": 72.768115775,
    "id": 234564842
  },
  {
    "name": "tertiary",
    "category": "highway",
    "subcategory": "tertiary",
    "latitude": 33.763735036363634,
    "longitude": 72.76859235454545,
    "id": 234564845
  },
  {
    "name": "grass",
    "category": "landuse",
    "subcategory": "grass",
    "latitude": 33.764059025,
    "longitude": 72.767877,
    "id": 234564846
  },
  {
    "name": "tertiary",
    "category": "highway",
    "subcategory": "tertiary",
    "latitude": 33.76354058333333,
    "longitude": 72.76821146666667,
    "id": 234564847
  },
  {
    "name": "residential",
    "category": "highway",
    "subcategory": "residential",
    "latitude": 33.7647937375,
    "longitude": 72.7679339375,
    "id": 234564850
  },
  {
    "name": "primary_link",
    "category": "highway",
    "subcategory": "primary_link",
    "latitude": 33.763745875,
    "longitude": 72.76812617499999,
    "id": 234564851
  },
  {
    "name": "primary_link",
    "category": "highway",
    "subcategory": "primary_link",
    "latitude": 33.763510725,
    "longitude": 72.768389825,
    "id": 234564854
  },
  {
    "name": "Aslam market",
    "category": "shop",
    "subcategory": "supermarket",
    "latitude": 33.76589276428572,
    "longitude": 72.76681008571428,
    "id": 234564855
  },
  {
    "name": "Thatta Khalil Road",
    "category": "highway",
    "subcategory": "tertiary",
    "latitude": 33.70662652123894,
    "longitude": 72.77189572212389,
    "id": 234867927
  },
  {
    "name": "residential",
    "category": "highway",
    "subcategory": "residential",
    "latitude": 33.787081755555555,
    "longitude": 72.84165271111111,
    "id": 234884856
  },
  {
    "name": "residential",
    "category": "highway",
    "subcategory": "residential",
    "latitude": 33.787792153846155,
    "longitude": 72.84129200769232,
    "id": 234884858
  },
  {
    "name": "residential",
    "category": "highway",
    "subcategory": "residential",
    "latitude": 33.78663306666667,
    "longitude": 72.83421779999999,
    "id": 234884862
  },
  {
    "name": "residential",
    "category": "highway",
    "subcategory": "residential",
    "latitude": 33.7880849030303,
    "longitude": 72.83361262424242,
    "id": 234884865
  },
  {
    "name": "secondary",
    "category": "highway",
    "subcategory": "secondary",
    "latitude": 33.75127155,
    "longitude": 72.77254269615385,
    "id": 235195131
  },
  {
    "name": "living_street",
    "category": "highway",
    "subcategory": "living_street",
    "latitude": 33.752064669999996,
    "longitude": 72.76765868,
    "id": 235627290
  },
  {
    "name": "living_street",
    "category": "highway",
    "subcategory": "living_street",
    "latitude": 33.75174934285714,
    "longitude": 72.76819097142857,
    "id": 235627292
  },
  {
    "name": "living_street",
    "category": "highway",
    "subcategory": "living_street",
    "latitude": 33.75101034285714,
    "longitude": 72.76917892857143,
    "id": 235627293
  },
  {
    "name": "living_street",
    "category": "highway",
    "subcategory": "living_street",
    "latitude": 33.75140462857143,
    "longitude": 72.76865755714286,
    "id": 235627295
  },
  {
    "name": "secondary",
    "category": "highway",
    "subcategory": "secondary",
    "latitude": 33.75249625,
    "longitude": 72.7725386,
    "id": 235631522
  },
  {
    "name": "secondary",
    "category": "highway",
    "subcategory": "secondary",
    "latitude": 33.75041395,
    "longitude": 72.77240375,
    "id": 235631523
  },
  {
    "name": "living_street",
    "category": "highway",
    "subcategory": "living_street",
    "latitude": 33.749690275,
    "longitude": 72.7712974,
    "id": 235631525
  },
  {
    "name": "place_of_worship",
    "category": "amenity",
    "subcategory": "place_of_worship",
    "latitude": 33.74849554,
    "longitude": 72.77192904,
    "id": 235631528
  },
  {
    "name": "secondary",
    "category": "highway",
    "subcategory": "secondary",
    "latitude": 33.74822455,
    "longitude": 72.77227504999999,
    "id": 235631530
  },
  {
    "name": "residential",
    "category": "highway",
    "subcategory": "residential",
    "latitude": 33.75257182,
    "longitude": 72.77615177,
    "id": 235631532
  },
  {
    "name": "residential",
    "category": "highway",
    "subcategory": "residential",
    "latitude": 33.751805904347826,
    "longitude": 72.77489363043479,
    "id": 235631534
  },
  {
    "name": "residential",
    "category": "highway",
    "subcategory": "residential",
    "latitude": 33.75312350909091,
    "longitude": 72.77367022727273,
    "id": 235631537
  },
  {
    "name": "residential",
    "category": "highway",
    "subcategory": "residential",
    "latitude": 33.7441273375,
    "longitude": 72.79163660625,
    "id": 235660677
  },
  {
    "name": "service",
    "category": "highway",
    "subcategory": "service",
    "latitude": 33.74641466,
    "longitude": 72.78780198666666,
    "id": 235662891
  },
  {
    "name": "pof hospital",
    "category": "amenity",
    "subcategory": "parking",
    "latitude": 33.74885987142857,
    "longitude": 72.7845322,
    "id": 235662892
  },
  {
    "name": "parking",
    "category": "amenity",
    "subcategory": "parking",
    "latitude": 33.7508366,
    "longitude": 72.78559594,
    "id": 235662893
  },
  {
    "name": "residential",
    "category": "highway",
    "subcategory": "residential",
    "latitude": 33.75237518,
    "longitude": 72.78277344,
    "id": 235662894
  },
  {
    "name": "service",
    "category": "highway",
    "subcategory": "service",
    "latitude": 33.748662849999995,
    "longitude": 72.78561063333333,
    "id": 235662895
  },
  {
    "name": "service",
    "category": "highway",
    "subcategory": "service",
    "latitude": 33.749925573333336,
    "longitude": 72.78599626666667,
    "id": 235662898
  },
  {
    "name": "residential",
    "category": "highway",
    "subcategory": "residential",
    "latitude": 33.755525999999996,
    "longitude": 72.7826311,
    "id": 235664796
  },
  {
    "name": "residential",
    "category": "highway",
    "subcategory": "residential",
    "latitude": 33.755730650000004,
    "longitude": 72.78415824999999,
    "id": 235664800
  },
  {
    "name": "residential",
    "category": "highway",
    "subcategory": "residential",
    "latitude": 33.75631846,
    "longitude": 72.78357074,
    "id": 235664801
  },
  {
    "name": "residential",
    "category": "highway",
    "subcategory": "residential",
    "latitude": 33.75080615,
    "longitude": 72.78547655,
    "id": 235664802
  },
  {
    "name": "service",
    "category": "highway",
    "subcategory": "service",
    "latitude": 33.75103154999999,
    "longitude": 72.78452815,
    "id": 235664804
  },
  {
    "name": "service",
    "category": "highway",
    "subcategory": "service",
    "latitude": 33.7508982,
    "longitude": 72.78362366666666,
    "id": 235664807
  },
  {
    "name": "residential",
    "category": "highway",
    "subcategory": "residential",
    "latitude": 33.75038743846154,
    "longitude": 72.78394367692307,
    "id": 235664810
  },
  {
    "name": "service",
    "category": "highway",
    "subcategory": "service",
    "latitude": 33.7506958625,
    "longitude": 72.7835226375,
    "id": 235664818
  },
  {
    "name": "residential",
    "category": "highway",
    "subcategory": "residential",
    "latitude": 33.75632328333334,
    "longitude": 72.78348016666666,
    "id": 235664820
  },
  {
    "name": "residential",
    "category": "highway",
    "subcategory": "residential",
    "latitude": 33.75757386666667,
    "longitude": 72.783114,
    "id": 235664822
  },
  {
    "name": "residential",
    "category": "highway",
    "subcategory": "residential",
    "latitude": 33.75080918333333,
    "longitude": 72.78613075,
    "id": 235664824
  },
  {
    "name": "service",
    "category": "highway",
    "subcategory": "service",
    "latitude": 33.750903783333335,
    "longitude": 72.78384140555555,
    "id": 235664826
  },
  {
    "name": "residential",
    "category": "highway",
    "subcategory": "residential",
    "latitude": 33.751455414285715,
    "longitude": 72.78201702857143,
    "id": 235664829
  },
  {
    "name": "residential",
    "category": "highway",
    "subcategory": "residential",
    "latitude": 33.755619875,
    "longitude": 72.7843739,
    "id": 235664831
  },
  {
    "name": "residential",
    "category": "highway",
    "subcategory": "residential",
    "latitude": 33.75722638125,
    "longitude": 72.78432649999999,
    "id": 235664833
  },
  {
    "name": "residential",
    "category": "highway",
    "subcategory": "residential",
    "latitude": 33.75408880625,
    "longitude": 72.78329463125,
    "id": 235664837
  },
  {
    "name": "POF Hospital Entrance",
    "category": "highway",
    "subcategory": "service",
    "latitude": 33.75185538,
    "longitude": 72.78342924,
    "id": 235664839
  },
  {
    "name": "residential",
    "category": "highway",
    "subcategory": "residential",
    "latitude": 33.741348478571425,
    "longitude": 72.79460527857142,
    "id": 235666055
  },
  {
    "name": "Wah Medical College",
    "category": "amenity",
    "subcategory": "university",
    "latitude": 33.74708458095238,
    "longitude": 72.78800810952382,
    "id": 235666056
  },
  {
    "name": "Wah Medical College Auditorium",
    "category": "amenity",
    "subcategory": "university",
    "latitude": 33.74629372,
    "longitude": 72.788863,
    "id": 235666058
  },
  {
    "name": "residential",
    "category": "highway",
    "subcategory": "residential",
    "latitude": 33.74369958571429,
    "longitude": 72.79316282380952,
    "id": 235666834
  },
  {
    "name": "residential",
    "category": "highway",
    "subcategory": "residential",
    "latitude": 33.73873363333333,
    "longitude": 72.79809363333334,
    "id": 235669511
  },
  {
    "name": "residential",
    "category": "highway",
    "subcategory": "residential",
    "latitude": 33.73855233333333,
    "longitude": 72.7977327,
    "id": 235669512
  },
  {
    "name": "residential",
    "category": "highway",
    "subcategory": "residential",
    "latitude": 33.739189599999996,
    "longitude": 72.79863783333333,
    "id": 235669513
  },
  {
    "name": "residential",
    "category": "highway",
    "subcategory": "residential",
    "latitude": 33.7440699,
    "longitude": 72.79151432500001,
    "id": 235669514
  },
  {
    "name": "residential",
    "category": "highway",
    "subcategory": "residential",
    "latitude": 33.741284951515155,
    "longitude": 72.79680263939395,
    "id": 235669515
  },
  {
    "name": "residential",
    "category": "highway",
    "subcategory": "residential",
    "latitude": 33.73929226,
    "longitude": 72.79829382,
    "id": 235669516
  },
  {
    "name": "residential",
    "category": "highway",
    "subcategory": "residential",
    "latitude": 33.738921875,
    "longitude": 72.79865905,
    "id": 235669517
  },
  {
    "name": "living_street",
    "category": "highway",
    "subcategory": "living_street",
    "latitude": 33.742027500000006,
    "longitude": 72.7941921,
    "id": 235670330
  },
  {
    "name": "living_street",
    "category": "highway",
    "subcategory": "living_street",
    "latitude": 33.741699266666664,
    "longitude": 72.79457116666667,
    "id": 235670331
  },
  {
    "name": "living_street",
    "category": "highway",
    "subcategory": "living_street",
    "latitude": 33.74167136,
    "longitude": 72.79525856000001,
    "id": 235670332
  },
  {
    "name": "residential",
    "category": "highway",
    "subcategory": "residential",
    "latitude": 33.741042666666665,
    "longitude": 72.79563026666666,
    "id": 235670333
  },
  {
    "name": "living_street",
    "category": "highway",
    "subcategory": "living_street",
    "latitude": 33.74185673333333,
    "longitude": 72.79437766666668,
    "id": 235670334
  },
  {
    "name": "residential",
    "category": "highway",
    "subcategory": "residential",
    "latitude": 33.74091568,
    "longitude": 72.79631838,
    "id": 235670335
  },
  {
    "name": "living_street",
    "category": "highway",
    "subcategory": "living_street",
    "latitude": 33.742499099999996,
    "longitude": 72.79396973333333,
    "id": 235670336
  },
  {
    "name": "living_street",
    "category": "highway",
    "subcategory": "living_street",
    "latitude": 33.74233493333333,
    "longitude": 72.79415016666667,
    "id": 235670337
  },
  {
    "name": "park",
    "category": "leisure",
    "subcategory": "park",
    "latitude": 33.73939198,
    "longitude": 72.79772746,
    "id": 235670338
  },
  {
    "name": "residential",
    "category": "highway",
    "subcategory": "residential",
    "latitude": 33.74061332,
    "longitude": 72.79670598,
    "id": 235670339
  },
  {
    "name": "living_street",
    "category": "highway",
    "subcategory": "living_street",
    "latitude": 33.743740333333335,
    "longitude": 72.79171116666667,
    "id": 235670340
  },
  {
    "name": "living_street",
    "category": "highway",
    "subcategory": "living_street",
    "latitude": 33.7412138,
    "longitude": 72.79547756666666,
    "id": 235670341
  },
  {
    "name": "residential",
    "category": "highway",
    "subcategory": "residential",
    "latitude": 33.741177979999996,
    "longitude": 72.79623289999999,
    "id": 235670342
  },
  {
    "name": "living_street",
    "category": "highway",
    "subcategory": "living_street",
    "latitude": 33.742792425,
    "longitude": 72.79400927500001,
    "id": 235670343
  },
  {
    "name": "residential",
    "category": "highway",
    "subcategory": "residential",
    "latitude": 33.740666250000004,
    "longitude": 72.7971277,
    "id": 235670344
  },
  {
    "name": "living_street",
    "category": "highway",
    "subcategory": "living_street",
    "latitude": 33.74136393333333,
    "longitude": 72.79528633333334,
    "id": 235670345
  },
  {
    "name": "residential",
    "category": "highway",
    "subcategory": "residential",
    "latitude": 33.73606343,
    "longitude": 72.80152204000001,
    "id": 235671026
  },
  {
    "name": "living_street",
    "category": "highway",
    "subcategory": "living_street",
    "latitude": 33.74156465,
    "longitude": 72.79478334999999,
    "id": 235671027
  },
  {
    "name": "residential",
    "category": "highway",
    "subcategory": "residential",
    "latitude": 33.736803699999996,
    "longitude": 72.79999185,
    "id": 235671028
  },
  {
    "name": "Street No 6",
    "category": "highway",
    "subcategory": "residential",
    "latitude": 33.740370527272724,
    "longitude": 72.79916874545455,
    "id": 235671029
  },
  {
    "name": "residential",
    "category": "highway",
    "subcategory": "residential",
    "latitude": 33.7398298,
    "longitude": 72.79760811666667,
    "id": 235671031
  },
  {
    "name": "واہ یونیورسٹی",
    "category": "amenity",
    "subcategory": "university",
    "latitude": 33.741106622222226,
    "longitude": 72.79140492222223,
    "id": 235671309
  },
  {
    "name": "کامسیٹس یونیورسٹی اسلام آباد، واہ کیمپس",
    "category": "amenity",
    "subcategory": "university",
    "latitude": 33.74403101428572,
    "longitude": 72.78646152857144,
    "id": 235671345
  },
  {
    "name": "university",
    "category": "amenity",
    "subcategory": "university",
    "latitude": 33.74324901666667,
    "longitude": 72.78907579999999,
    "id": 235671367
  },
  {
    "name": "پی او ایف انسٹیٹیوٹ آف ٹیکنالوجی واہ",
    "category": "amenity",
    "subcategory": "college",
    "latitude": 33.74548446666667,
    "longitude": 72.78412791666666,
    "id": 235671393
  },
  {
    "name": "living_street",
    "category": "highway",
    "subcategory": "living_street",
    "latitude": 33.74891864615385,
    "longitude": 72.77941178461539,
    "id": 235830464
  },
  {
    "name": "living_street",
    "category": "highway",
    "subcategory": "living_street",
    "latitude": 33.7493057,
    "longitude": 72.77757368947368,
    "id": 235830465
  },
  {
    "name": "living_street",
    "category": "highway",
    "subcategory": "living_street",
    "latitude": 33.74887255714286,
    "longitude": 72.78046427142857,
    "id": 235830466
  },
  {
    "name": "living_street",
    "category": "highway",
    "subcategory": "living_street",
    "latitude": 33.75101936,
    "longitude": 72.77911996,
    "id": 235830467
  },
  {
    "name": "living_street",
    "category": "highway",
    "subcategory": "living_street",
    "latitude": 33.748519099999996,
    "longitude": 72.775753125,
    "id": 235831797
  },
  {
    "name": "living_street",
    "category": "highway",
    "subcategory": "living_street",
    "latitude": 33.750002349999995,
    "longitude": 72.77076555000001,
    "id": 235831799
  },
  {
    "name": "living_street",
    "category": "highway",
    "subcategory": "living_street",
    "latitude": 33.74930828,
    "longitude": 72.77761384,
    "id": 235831802
  },
  {
    "name": "residential",
    "category": "highway",
    "subcategory": "residential",
    "latitude": 33.76097148333333,
    "longitude": 72.77041658333333,
    "id": 235831804
  },
  {
    "name": "residential",
    "category": "highway",
    "subcategory": "residential",
    "latitude": 33.76068345,
    "longitude": 72.7702939,
    "id": 235831807
  },
  {
    "name": "place_of_worship",
    "category": "amenity",
    "subcategory": "place_of_worship",
    "latitude": 33.7486424,
    "longitude": 72.77953846,
    "id": 235831809
  },
  {
    "name": "living_street",
    "category": "highway",
    "subcategory": "living_street",
    "latitude": 33.74910754,
    "longitude": 72.77730056,
    "id": 235831811
  },
  {
    "name": "residential",
    "category": "highway",
    "subcategory": "residential",
    "latitude": 33.76433801538462,
    "longitude": 72.76673619230769,
    "id": 235867761
  },
  {
    "name": "primary_link",
    "category": "highway",
    "subcategory": "primary_link",
    "latitude": 33.76354952,
    "longitude": 72.76778096000001,
    "id": 235867762
  },
  {
    "name": "primary_link",
    "category": "highway",
    "subcategory": "primary_link",
    "latitude": 33.75946805,
    "longitude": 72.77278255,
    "id": 235870324
  },
  {
    "name": "residential",
    "category": "highway",
    "subcategory": "residential",
    "latitude": 33.760578512500004,
    "longitude": 72.7707213625,
    "id": 235870325
  },
  {
    "name": "residential",
    "category": "highway",
    "subcategory": "residential",
    "latitude": 33.758900819999994,
    "longitude": 72.77342295999999,
    "id": 235870326
  },
  {
    "name": "service",
    "category": "highway",
    "subcategory": "service",
    "latitude": 33.760149133333336,
    "longitude": 72.7726464,
    "id": 235870327
  },
  {
    "name": "grass",
    "category": "landuse",
    "subcategory": "grass",
    "latitude": 33.76337244,
    "longitude": 72.7687354,
    "id": 235870328
  },
  {
    "name": "commercial",
    "category": "landuse",
    "subcategory": "commercial",
    "latitude": 33.7583935,
    "longitude": 72.76660062,
    "id": 235870329
  },
  {
    "name": "parking",
    "category": "amenity",
    "subcategory": "parking",
    "latitude": 33.76088386666667,
    "longitude": 72.77025048333333,
    "id": 235870330
  },
  {
    "name": "supermarket",
    "category": "shop",
    "subcategory": "supermarket",
    "latitude": 33.76237040526316,
    "longitude": 72.77063651052632,
    "id": 235870332
  },
  {
    "name": "tertiary",
    "category": "highway",
    "subcategory": "tertiary",
    "latitude": 33.756947492307695,
    "longitude": 72.76864401923078,
    "id": 235870333
  },
  {
    "name": "residential",
    "category": "highway",
    "subcategory": "residential",
    "latitude": 33.7609319,
    "longitude": 72.77022846,
    "id": 235870334
  },
  {
    "name": "primary_link",
    "category": "highway",
    "subcategory": "primary_link",
    "latitude": 33.75912444,
    "longitude": 72.77321574,
    "id": 235870335
  },
  {
    "name": "residential",
    "category": "highway",
    "subcategory": "residential",
    "latitude": 33.7624299875,
    "longitude": 72.7690575375,
    "id": 235870336
  },
  {
    "name": "residential",
    "category": "highway",
    "subcategory": "residential",
    "latitude": 33.75968515,
    "longitude": 72.77329635000001,
    "id": 235870337
  },
  {
    "name": "residential",
    "category": "highway",
    "subcategory": "residential",
    "latitude": 33.76158797083333,
    "longitude": 72.76387145833333,
    "id": 235870338
  },
  {
    "name": "grass",
    "category": "landuse",
    "subcategory": "grass",
    "latitude": 33.76264284285714,
    "longitude": 72.7696439,
    "id": 235870340
  },
  {
    "name": "grass",
    "category": "landuse",
    "subcategory": "grass",
    "latitude": 33.76359381428572,
    "longitude": 72.76851458571429,
    "id": 235870341
  },
  {
    "name": "residential",
    "category": "highway",
    "subcategory": "residential",
    "latitude": 33.7586861,
    "longitude": 72.7685928,
    "id": 235870346
  },
  {
    "name": "parking",
    "category": "amenity",
    "subcategory": "parking",
    "latitude": 33.76287912,
    "longitude": 72.77023012,
    "id": 235870348
  },
  {
    "name": "residential",
    "category": "highway",
    "subcategory": "residential",
    "latitude": 33.76354825,
    "longitude": 72.76947150000001,
    "id": 235870621
  },
  {
    "name": "Karamwal Road",
    "category": "highway",
    "subcategory": "unclassified",
    "latitude": 33.73387476268657,
    "longitude": 72.84315121194031,
    "id": 236632897
  },
  {
    "name": "Khanpur Road",
    "category": "highway",
    "subcategory": "trunk",
    "latitude": 33.767954350000004,
    "longitude": 72.8408077,
    "id": 236632898
  },
  {
    "name": "Khurram Road",
    "category": "highway",
    "subcategory": "unclassified",
    "latitude": 33.73711275229358,
    "longitude": 72.84708133669724,
    "id": 236632902
  },
  {
    "name": "PMO Colony Road",
    "category": "highway",
    "subcategory": "tertiary",
    "latitude": 33.742554725,
    "longitude": 72.83833183333333,
    "id": 236632909
  },
  {
    "name": "PMO Colony Road",
    "category": "highway",
    "subcategory": "tertiary",
    "latitude": 33.7420015875,
    "longitude": 72.84367234166668,
    "id": 236632910
  },
  {
    "name": "PMO Colony Road",
    "category": "highway",
    "subcategory": "tertiary",
    "latitude": 33.74221875,
    "longitude": 72.84009954999999,
    "id": 236632911
  },
  {
    "name": "PMO Colony Road",
    "category": "highway",
    "subcategory": "tertiary",
    "latitude": 33.7454516,
    "longitude": 72.82518915,
    "id": 236632912
  },
  {
    "name": "PMO Colony Road",
    "category": "highway",
    "subcategory": "tertiary",
    "latitude": 33.7436244,
    "longitude": 72.8362314,
    "id": 236632913
  },
  {
    "name": "PMO Colony Road",
    "category": "highway",
    "subcategory": "tertiary",
    "latitude": 33.74491654444444,
    "longitude": 72.83119010740741,
    "id": 236632914
  },
  {
    "name": "PMO Colony Road",
    "category": "highway",
    "subcategory": "tertiary",
    "latitude": 33.744871716666665,
    "longitude": 72.82341555,
    "id": 236632915
  },
  {
    "name": "Shahpur Road",
    "category": "highway",
    "subcategory": "unclassified",
    "latitude": 33.74120556133334,
    "longitude": 72.83238296933334,
    "id": 236632916
  },
  {
    "name": "unclassified",
    "category": "highway",
    "subcategory": "unclassified",
    "latitude": 33.73638166538462,
    "longitude": 72.82564243076924,
    "id": 236632920
  },
  {
    "name": "residential",
    "category": "highway",
    "subcategory": "residential",
    "latitude": 33.74741486666667,
    "longitude": 72.81980925,
    "id": 236632921
  },
  {
    "name": "unclassified",
    "category": "highway",
    "subcategory": "unclassified",
    "latitude": 33.73473214642857,
    "longitude": 72.84816870357143,
    "id": 236632930
  },
  {
    "name": "unclassified",
    "category": "highway",
    "subcategory": "unclassified",
    "latitude": 33.741972366666666,
    "longitude": 72.83881003333333,
    "id": 236632931
  },
  {
    "name": "unclassified",
    "category": "highway",
    "subcategory": "unclassified",
    "latitude": 33.734359554545456,
    "longitude": 72.84566332727273,
    "id": 236632937
  },
  {
    "name": "HMC Road",
    "category": "highway",
    "subcategory": "primary",
    "latitude": 33.74116929032258,
    "longitude": 72.80210830322581,
    "id": 236651335
  },
  {
    "name": "unclassified",
    "category": "highway",
    "subcategory": "unclassified",
    "latitude": 33.73168859166667,
    "longitude": 72.8257476875,
    "id": 236651337
  },
  {
    "name": "service",
    "category": "highway",
    "subcategory": "service",
    "latitude": 33.72842423636364,
    "longitude": 72.84363959090909,
    "id": 236651339
  },
  {
    "name": "unclassified",
    "category": "highway",
    "subcategory": "unclassified",
    "latitude": 33.73174469166667,
    "longitude": 72.82604195833333,
    "id": 236651340
  },
  {
    "name": "service",
    "category": "highway",
    "subcategory": "service",
    "latitude": 33.726116766666664,
    "longitude": 72.831044,
    "id": 236651342
  },
  {
    "name": "tertiary",
    "category": "highway",
    "subcategory": "tertiary",
    "latitude": 33.733653805,
    "longitude": 72.836764725,
    "id": 236651343
  },
  {
    "name": "tertiary",
    "category": "highway",
    "subcategory": "tertiary",
    "latitude": 33.73400964,
    "longitude": 72.836712285,
    "id": 236651345
  },
  {
    "name": "primary",
    "category": "highway",
    "subcategory": "primary",
    "latitude": 33.75027016666667,
    "longitude": 72.8053111,
    "id": 236651346
  },
  {
    "name": "service",
    "category": "highway",
    "subcategory": "service",
    "latitude": 33.72471685,
    "longitude": 72.8322273,
    "id": 236651348
  },
  {
    "name": "unclassified",
    "category": "highway",
    "subcategory": "unclassified",
    "latitude": 33.72995342758621,
    "longitude": 72.84773744827586,
    "id": 236651350
  },
  {
    "name": "service",
    "category": "highway",
    "subcategory": "service",
    "latitude": 33.72866113,
    "longitude": 72.840885765,
    "id": 236651352
  },
  {
    "name": "unclassified",
    "category": "highway",
    "subcategory": "unclassified",
    "latitude": 33.724237602631575,
    "longitude": 72.82457609473684,
    "id": 236651354
  },
  {
    "name": "residential",
    "category": "highway",
    "subcategory": "residential",
    "latitude": 33.7303511,
    "longitude": 72.83004292000001,
    "id": 236651356
  },
  {
    "name": "unclassified",
    "category": "highway",
    "subcategory": "unclassified",
    "latitude": 33.730023880434786,
    "longitude": 72.85259323043478,
    "id": 236651358
  },
  {
    "name": "service",
    "category": "highway",
    "subcategory": "service",
    "latitude": 33.72513762857143,
    "longitude": 72.82900125714285,
    "id": 236651361
  },
  {
    "name": "unclassified",
    "category": "highway",
    "subcategory": "unclassified",
    "latitude": 33.72864851333333,
    "longitude": 72.82931438,
    "id": 236651362
  },
  {
    "name": "Khanpur Road",
    "category": "highway",
    "subcategory": "trunk",
    "latitude": 33.76059083076923,
    "longitude": 72.82890088461538,
    "id": 236783134
  },
  {
    "name": "Khanpur Road",
    "category": "highway",
    "subcategory": "trunk",
    "latitude": 33.76193375,
    "longitude": 72.8306555,
    "id": 236783135
  },
  {
    "name": "Khanpur Road",
    "category": "highway",
    "subcategory": "trunk",
    "latitude": 33.7580435,
    "longitude": 72.82477445,
    "id": 236783136
  },
  {
    "name": "Khanpur Road",
    "category": "highway",
    "subcategory": "trunk",
    "latitude": 33.73835990692308,
    "longitude": 72.81808856153846,
    "id": 236783137
  },
  {
    "name": "پاکستان آرڈننس فیکٹریز",
    "category": "landuse",
    "subcategory": "industrial",
    "latitude": 33.775162630434785,
    "longitude": 72.76729177826087,
    "id": 237683325
  },
  {
    "name": "residential",
    "category": "highway",
    "subcategory": "residential",
    "latitude": 33.751456133333335,
    "longitude": 72.77338191666666,
    "id": 237684681
  },
  {
    "name": "residential",
    "category": "highway",
    "subcategory": "residential",
    "latitude": 33.75177501,
    "longitude": 72.77370675,
    "id": 237684683
  },
  {
    "name": "industrial",
    "category": "landuse",
    "subcategory": "industrial",
    "latitude": 33.75030330909091,
    "longitude": 72.77344278181819,
    "id": 237684685
  },
  {
    "name": "industrial",
    "category": "landuse",
    "subcategory": "industrial",
    "latitude": 33.75171700909091,
    "longitude": 72.7713593,
    "id": 237684686
  },
  {
    "name": "living_street",
    "category": "highway",
    "subcategory": "living_street",
    "latitude": 33.7536546125,
    "longitude": 72.7685916125,
    "id": 237684688
  },
  {
    "name": "grass",
    "category": "landuse",
    "subcategory": "grass",
    "latitude": 33.757497335714284,
    "longitude": 72.76454678571429,
    "id": 237715292
  },
  {
    "name": "grass",
    "category": "landuse",
    "subcategory": "grass",
    "latitude": 33.754916452941174,
    "longitude": 72.77020995294117,
    "id": 237715294
  },
  {
    "name": "forest",
    "category": "landuse",
    "subcategory": "forest",
    "latitude": 33.739828800000005,
    "longitude": 72.7943217,
    "id": 237724759
  },
  {
    "name": "grass",
    "category": "landuse",
    "subcategory": "grass",
    "latitude": 33.737948605,
    "longitude": 72.79329681,
    "id": 237724760
  },
  {
    "name": "residential",
    "category": "highway",
    "subcategory": "residential",
    "latitude": 33.73700287121212,
    "longitude": 72.78505203636364,
    "id": 237724991
  },
  {
    "name": "residential",
    "category": "highway",
    "subcategory": "residential",
    "latitude": 33.74173255,
    "longitude": 72.77930340833333,
    "id": 237725537
  },
  {
    "name": "grave_yard",
    "category": "amenity",
    "subcategory": "grave_yard",
    "latitude": 33.74122628888889,
    "longitude": 72.78033307777778,
    "id": 237725538
  },
  {
    "name": "school",
    "category": "amenity",
    "subcategory": "school",
    "latitude": 33.76259802352941,
    "longitude": 72.76768065882352,
    "id": 237824440
  },
  {
    "name": "MARKAZI MASJID",
    "category": "amenity",
    "subcategory": "place_of_worship",
    "latitude": 33.76036698,
    "longitude": 72.77067164,
    "id": 237824977
  },
  {
    "name": "residential",
    "category": "highway",
    "subcategory": "residential",
    "latitude": 33.7606491,
    "longitude": 72.77104883333334,
    "id": 237824978
  },
  {
    "name": "residential",
    "category": "highway",
    "subcategory": "residential",
    "latitude": 33.76078575,
    "longitude": 72.7706799,
    "id": 237824979
  },
  {
    "name": "residential",
    "category": "highway",
    "subcategory": "residential",
    "latitude": 33.761582000000004,
    "longitude": 72.7702609,
    "id": 237824980
  },
  {
    "name": "residential",
    "category": "highway",
    "subcategory": "residential",
    "latitude": 33.75860687272728,
    "longitude": 72.77253758636363,
    "id": 237824981
  },
  {
    "name": "living_street",
    "category": "highway",
    "subcategory": "living_street",
    "latitude": 33.7588619,
    "longitude": 72.7722144,
    "id": 237825492
  },
  {
    "name": "residential",
    "category": "highway",
    "subcategory": "residential",
    "latitude": 33.759776450000004,
    "longitude": 72.77088775,
    "id": 237825493
  },
  {
    "name": "POF hospital",
    "category": "amenity",
    "subcategory": "hospital",
    "latitude": 33.75089285263158,
    "longitude": 72.78487074736842,
    "id": 238309977
  },
  {
    "name": "grass",
    "category": "landuse",
    "subcategory": "grass",
    "latitude": 33.773469804444446,
    "longitude": 72.77763018222223,
    "id": 238813180
  },
  {
    "name": "residential",
    "category": "highway",
    "subcategory": "residential",
    "latitude": 33.7498881375,
    "longitude": 72.7681640125,
    "id": 238813181
  },
  {
    "name": "grass",
    "category": "landuse",
    "subcategory": "grass",
    "latitude": 33.746313613043476,
    "longitude": 72.77264041304348,
    "id": 238813182
  },
  {
    "name": "residential",
    "category": "highway",
    "subcategory": "residential",
    "latitude": 33.74157515,
    "longitude": 72.78293306,
    "id": 238813183
  },
  {
    "name": "residential",
    "category": "highway",
    "subcategory": "residential",
    "latitude": 33.7426277,
    "longitude": 72.78082739,
    "id": 238813184
  },
  {
    "name": "grave_yard",
    "category": "amenity",
    "subcategory": "grave_yard",
    "latitude": 33.745591259259264,
    "longitude": 72.7697383925926,
    "id": 238813509
  },
  {
    "name": "residential",
    "category": "highway",
    "subcategory": "residential",
    "latitude": 33.745542661538465,
    "longitude": 72.76828836923076,
    "id": 238813688
  },
  {
    "name": "trunk",
    "category": "highway",
    "subcategory": "trunk",
    "latitude": 33.71186612,
    "longitude": 72.81433422,
    "id": 242788212
  },
  {
    "name": "trunk_link",
    "category": "highway",
    "subcategory": "trunk_link",
    "latitude": 33.728987149999995,
    "longitude": 72.8047793,
    "id": 242788824
  },
  {
    "name": "residential",
    "category": "highway",
    "subcategory": "residential",
    "latitude": 33.74693681923077,
    "longitude": 72.78053818461538,
    "id": 242941380
  },
  {
    "name": "Nawababad to Anwaar Chowk Road",
    "category": "highway",
    "subcategory": "residential",
    "latitude": 33.74748964705882,
    "longitude": 72.77556398235295,
    "id": 242941381
  },
  {
    "name": "residential",
    "category": "highway",
    "subcategory": "residential",
    "latitude": 33.74694265,
    "longitude": 72.77238005000001,
    "id": 242941382
  },
  {
    "name": "residential",
    "category": "highway",
    "subcategory": "residential",
    "latitude": 33.746732941666664,
    "longitude": 72.775288375,
    "id": 242941384
  },
  {
    "name": "residential",
    "category": "highway",
    "subcategory": "residential",
    "latitude": 33.74572776666667,
    "longitude": 72.77736246666667,
    "id": 242941385
  },
  {
    "name": "fuel",
    "category": "amenity",
    "subcategory": "fuel",
    "latitude": 33.74391144,
    "longitude": 72.78226048,
    "id": 242941386
  },
  {
    "name": "tertiary",
    "category": "highway",
    "subcategory": "tertiary",
    "latitude": 33.745357172727275,
    "longitude": 72.78512681818182,
    "id": 242941391
  },
  {
    "name": "tertiary",
    "category": "highway",
    "subcategory": "tertiary",
    "latitude": 33.745027570000005,
    "longitude": 72.78516985,
    "id": 242941392
  },
  {
    "name": "residential",
    "category": "highway",
    "subcategory": "residential",
    "latitude": 33.747810783333335,
    "longitude": 72.78474603333333,
    "id": 242942256
  },
  {
    "name": "residential",
    "category": "highway",
    "subcategory": "residential",
    "latitude": 33.747654475,
    "longitude": 72.784721275,
    "id": 242942257
  },
  {
    "name": "residential",
    "category": "highway",
    "subcategory": "residential",
    "latitude": 33.7477001,
    "longitude": 72.78432586666666,
    "id": 242942259
  },
  {
    "name": "fuel",
    "category": "amenity",
    "subcategory": "fuel",
    "latitude": 33.7386968,
    "longitude": 72.79643254,
    "id": 242943000
  },
  {
    "name": "fuel",
    "category": "amenity",
    "subcategory": "fuel",
    "latitude": 33.738861883333335,
    "longitude": 72.79358118333333,
    "id": 242943002
  },
  {
    "name": "fuel",
    "category": "amenity",
    "subcategory": "fuel",
    "latitude": 33.739151383333336,
    "longitude": 72.79286198333334,
    "id": 242943004
  },
  {
    "name": "service",
    "category": "highway",
    "subcategory": "service",
    "latitude": 33.736909516666664,
    "longitude": 72.79874496666667,
    "id": 242943005
  },
  {
    "name": "fuel",
    "category": "amenity",
    "subcategory": "fuel",
    "latitude": 33.73232396666666,
    "longitude": 72.80365375,
    "id": 242943006
  },
  {
    "name": "service",
    "category": "highway",
    "subcategory": "service",
    "latitude": 33.73230808333333,
    "longitude": 72.8039132,
    "id": 242972789
  },
  {
    "name": "residential",
    "category": "highway",
    "subcategory": "residential",
    "latitude": 33.73134161666667,
    "longitude": 72.80469219999999,
    "id": 242972790
  },
  {
    "name": "fuel",
    "category": "amenity",
    "subcategory": "fuel",
    "latitude": 33.7313419375,
    "longitude": 72.8047795875,
    "id": 242972791
  },
  {
    "name": "secondary",
    "category": "highway",
    "subcategory": "secondary",
    "latitude": 33.731360466666665,
    "longitude": 72.8115154,
    "id": 242973724
  },
  {
    "name": "fuel",
    "category": "amenity",
    "subcategory": "fuel",
    "latitude": 33.73362512,
    "longitude": 72.81679106,
    "id": 242973726
  },
  {
    "name": "unclassified",
    "category": "highway",
    "subcategory": "unclassified",
    "latitude": 33.70741367,
    "longitude": 72.82710909875,
    "id": 242975979
  },
  {
    "name": "residential",
    "category": "highway",
    "subcategory": "residential",
    "latitude": 33.72493010625,
    "longitude": 72.8030017875,
    "id": 258148924
  },
  {
    "name": "tertiary",
    "category": "highway",
    "subcategory": "tertiary",
    "latitude": 33.72506616842105,
    "longitude": 72.80187098947368,
    "id": 258148925
  },
  {
    "name": "residential",
    "category": "highway",
    "subcategory": "residential",
    "latitude": 33.72498122857143,
    "longitude": 72.80442947142858,
    "id": 258148926
  },
  {
    "name": "residential",
    "category": "highway",
    "subcategory": "residential",
    "latitude": 33.721920957142856,
    "longitude": 72.80470187142858,
    "id": 258148927
  },
  {
    "name": "residential",
    "category": "highway",
    "subcategory": "residential",
    "latitude": 33.722194,
    "longitude": 72.80467535000001,
    "id": 258148928
  },
  {
    "name": "sports_centre",
    "category": "leisure",
    "subcategory": "sports_centre",
    "latitude": 33.75551835,
    "longitude": 72.77399827,
    "id": 259068932
  },
  {
    "name": "living_street",
    "category": "highway",
    "subcategory": "living_street",
    "latitude": 33.752695800000005,
    "longitude": 72.77811843333333,
    "id": 259068933
  },
  {
    "name": "living_street",
    "category": "highway",
    "subcategory": "living_street",
    "latitude": 33.750627564285715,
    "longitude": 72.78011314285713,
    "id": 259068935
  },
  {
    "name": "residential",
    "category": "highway",
    "subcategory": "residential",
    "latitude": 33.754443425,
    "longitude": 72.7758904,
    "id": 259068937
  },
  {
    "name": "meadow",
    "category": "landuse",
    "subcategory": "meadow",
    "latitude": 33.75264601428571,
    "longitude": 72.77886688571428,
    "id": 259068940
  },
  {
    "name": "residential",
    "category": "highway",
    "subcategory": "residential",
    "latitude": 33.751082079999996,
    "longitude": 72.78005568666666,
    "id": 259068941
  },
  {
    "name": "living_street",
    "category": "highway",
    "subcategory": "living_street",
    "latitude": 33.74934223571429,
    "longitude": 72.77885150714286,
    "id": 259068943
  },
  {
    "name": "residential",
    "category": "highway",
    "subcategory": "residential",
    "latitude": 33.754938075,
    "longitude": 72.776532155,
    "id": 259068945
  },
  {
    "name": "living_street",
    "category": "highway",
    "subcategory": "living_street",
    "latitude": 33.75223233333333,
    "longitude": 72.7785265,
    "id": 259068946
  },
  {
    "name": "park",
    "category": "leisure",
    "subcategory": "park",
    "latitude": 33.752158944444446,
    "longitude": 72.77556116666668,
    "id": 259069290
  },
  {
    "name": "school",
    "category": "amenity",
    "subcategory": "school",
    "latitude": 33.754030560000004,
    "longitude": 72.77591966,
    "id": 259069291
  },
  {
    "name": "place_of_worship",
    "category": "amenity",
    "subcategory": "place_of_worship",
    "latitude": 33.751734719999995,
    "longitude": 72.77618643999999,
    "id": 259069292
  },
  {
    "name": "living_street",
    "category": "highway",
    "subcategory": "living_street",
    "latitude": 33.7562387,
    "longitude": 72.7718331375,
    "id": 259070310
  },
  {
    "name": "place_of_worship",
    "category": "amenity",
    "subcategory": "place_of_worship",
    "latitude": 33.75070313333333,
    "longitude": 72.77914958333334,
    "id": 259070311
  },
  {
    "name": "living_street",
    "category": "highway",
    "subcategory": "living_street",
    "latitude": 33.75002506,
    "longitude": 72.77540466,
    "id": 259070312
  },
  {
    "name": "unclassified",
    "category": "highway",
    "subcategory": "unclassified",
    "latitude": 33.7526611875,
    "longitude": 72.7705219125,
    "id": 259070313
  },
  {
    "name": "living_street",
    "category": "highway",
    "subcategory": "living_street",
    "latitude": 33.756735428571425,
    "longitude": 72.77130254285714,
    "id": 259070314
  },
  {
    "name": "living_street",
    "category": "highway",
    "subcategory": "living_street",
    "latitude": 33.7532488125,
    "longitude": 72.76691371875,
    "id": 259070315
  },
  {
    "name": "place_of_worship",
    "category": "amenity",
    "subcategory": "place_of_worship",
    "latitude": 33.75563646,
    "longitude": 72.77235164,
    "id": 259070316
  },
  {
    "name": "living_street",
    "category": "highway",
    "subcategory": "living_street",
    "latitude": 33.74913638333333,
    "longitude": 72.77466788333334,
    "id": 259070317
  },
  {
    "name": "living_street",
    "category": "highway",
    "subcategory": "living_street",
    "latitude": 33.75712167142857,
    "longitude": 72.77073971428571,
    "id": 259070318
  },
  {
    "name": "living_street",
    "category": "highway",
    "subcategory": "living_street",
    "latitude": 33.749907475,
    "longitude": 72.774741425,
    "id": 259070319
  },
  {
    "name": "place_of_worship",
    "category": "amenity",
    "subcategory": "place_of_worship",
    "latitude": 33.7539989625,
    "longitude": 72.7677887625,
    "id": 259070320
  },
  {
    "name": "residential",
    "category": "highway",
    "subcategory": "residential",
    "latitude": 33.7394866625,
    "longitude": 72.78812304375,
    "id": 259222252
  },
  {
    "name": "residential",
    "category": "highway",
    "subcategory": "residential",
    "latitude": 33.73920263333333,
    "longitude": 72.78584236666667,
    "id": 259222253
  },
  {
    "name": "residential",
    "category": "highway",
    "subcategory": "residential",
    "latitude": 33.74178826111111,
    "longitude": 72.77587128055556,
    "id": 259222255
  },
  {
    "name": "grave_yard",
    "category": "amenity",
    "subcategory": "grave_yard",
    "latitude": 33.7552125875,
    "longitude": 72.8046766625,
    "id": 259223482
  },
  {
    "name": "Caltex",
    "category": "amenity",
    "subcategory": "fuel",
    "latitude": 33.73614278,
    "longitude": 72.80202512,
    "id": 259223483
  },
  {
    "name": "service",
    "category": "highway",
    "subcategory": "service",
    "latitude": 33.736019275000004,
    "longitude": 72.801922275,
    "id": 259223484
  },
  {
    "name": "residential",
    "category": "highway",
    "subcategory": "residential",
    "latitude": 33.734709730000006,
    "longitude": 72.80120747999999,
    "id": 259223485
  },
  {
    "name": "restaurant",
    "category": "amenity",
    "subcategory": "restaurant",
    "latitude": 33.7342847,
    "longitude": 72.80249656,
    "id": 259223486
  },
  {
    "name": "living_street",
    "category": "highway",
    "subcategory": "living_street",
    "latitude": 33.7488138,
    "longitude": 72.77917498000001,
    "id": 259226127
  },
  {
    "name": "living_street",
    "category": "highway",
    "subcategory": "living_street",
    "latitude": 33.74940313333334,
    "longitude": 72.77893963333334,
    "id": 259226128
  },
  {
    "name": "living_street",
    "category": "highway",
    "subcategory": "living_street",
    "latitude": 33.749404925,
    "longitude": 72.7795260375,
    "id": 259226129
  },
  {
    "name": "living_street",
    "category": "highway",
    "subcategory": "living_street",
    "latitude": 33.749158449999996,
    "longitude": 72.77621652,
    "id": 259226130
  },
  {
    "name": "school",
    "category": "amenity",
    "subcategory": "school",
    "latitude": 33.75018933333333,
    "longitude": 72.77783866666667,
    "id": 259226131
  },
  {
    "name": "residential",
    "category": "highway",
    "subcategory": "residential",
    "latitude": 33.7504669,
    "longitude": 72.7772555,
    "id": 259226132
  },
  {
    "name": "residential",
    "category": "highway",
    "subcategory": "residential",
    "latitude": 33.750651250000004,
    "longitude": 72.77708645,
    "id": 259226133
  },
  {
    "name": "living_street",
    "category": "highway",
    "subcategory": "living_street",
    "latitude": 33.74940886,
    "longitude": 72.77394128,
    "id": 259226134
  },
  {
    "name": "living_street",
    "category": "highway",
    "subcategory": "living_street",
    "latitude": 33.748948275000004,
    "longitude": 72.77298335,
    "id": 259226135
  },
  {
    "name": "living_street",
    "category": "highway",
    "subcategory": "living_street",
    "latitude": 33.74825885,
    "longitude": 72.77284215,
    "id": 259226136
  },
  {
    "name": "living_street",
    "category": "highway",
    "subcategory": "living_street",
    "latitude": 33.749102475,
    "longitude": 72.773236725,
    "id": 259226137
  },
  {
    "name": "living_street",
    "category": "highway",
    "subcategory": "living_street",
    "latitude": 33.74899448,
    "longitude": 72.77369768,
    "id": 259226138
  },
  {
    "name": "living_street",
    "category": "highway",
    "subcategory": "living_street",
    "latitude": 33.74813985,
    "longitude": 72.77412795000001,
    "id": 259226139
  },
  {
    "name": "living_street",
    "category": "highway",
    "subcategory": "living_street",
    "latitude": 33.748030400000005,
    "longitude": 72.77383355,
    "id": 259226140
  },
  {
    "name": "living_street",
    "category": "highway",
    "subcategory": "living_street",
    "latitude": 33.74841285,
    "longitude": 72.7730857,
    "id": 259226141
  },
  {
    "name": "place_of_worship",
    "category": "amenity",
    "subcategory": "place_of_worship",
    "latitude": 33.7487255,
    "longitude": 72.77458177999999,
    "id": 259226142
  },
  {
    "name": "living_street",
    "category": "highway",
    "subcategory": "living_street",
    "latitude": 33.74983158,
    "longitude": 72.77478498,
    "id": 259226143
  },
  {
    "name": "living_street",
    "category": "highway",
    "subcategory": "living_street",
    "latitude": 33.74898953333334,
    "longitude": 72.77317243333333,
    "id": 259226144
  },
  {
    "name": "place_of_worship",
    "category": "amenity",
    "subcategory": "place_of_worship",
    "latitude": 33.75039295,
    "longitude": 72.77012761666667,
    "id": 259228227
  },
  {
    "name": "living_street",
    "category": "highway",
    "subcategory": "living_street",
    "latitude": 33.750968699999994,
    "longitude": 72.76912886666666,
    "id": 259228228
  },
  {
    "name": "place_of_worship",
    "category": "amenity",
    "subcategory": "place_of_worship",
    "latitude": 33.75209572222222,
    "longitude": 72.76744887777778,
    "id": 259228229
  },
  {
    "name": "living_street",
    "category": "highway",
    "subcategory": "living_street",
    "latitude": 33.75247041666666,
    "longitude": 72.76722278333334,
    "id": 259228230
  },
  {
    "name": "living_street",
    "category": "highway",
    "subcategory": "living_street",
    "latitude": 33.752159,
    "longitude": 72.768193,
    "id": 259228231
  },
  {
    "name": "living_street",
    "category": "highway",
    "subcategory": "living_street",
    "latitude": 33.753350600000005,
    "longitude": 72.76659325,
    "id": 259228232
  },
  {
    "name": "living_street",
    "category": "highway",
    "subcategory": "living_street",
    "latitude": 33.75167574,
    "longitude": 72.76945163,
    "id": 259228250
  },
  {
    "name": "living_street",
    "category": "highway",
    "subcategory": "living_street",
    "latitude": 33.751234333333336,
    "longitude": 72.76941933333332,
    "id": 259228251
  },
  {
    "name": "place_of_worship",
    "category": "amenity",
    "subcategory": "place_of_worship",
    "latitude": 33.752868362499996,
    "longitude": 72.7694646375,
    "id": 259228253
  },
  {
    "name": "primary",
    "category": "highway",
    "subcategory": "primary",
    "latitude": 33.757091295652174,
    "longitude": 72.80722039999999,
    "id": 262781351
  },
  {
    "name": "Jinnah Avenue to Anwar Chowk Road",
    "category": "highway",
    "subcategory": "tertiary",
    "latitude": 33.74909888,
    "longitude": 72.779319728,
    "id": 262781352
  },
  {
    "name": "service",
    "category": "highway",
    "subcategory": "service",
    "latitude": 33.7664084,
    "longitude": 72.8094556,
    "id": 262781353
  },
  {
    "name": "tertiary",
    "category": "highway",
    "subcategory": "tertiary",
    "latitude": 33.76380805,
    "longitude": 72.7684139,
    "id": 262781356
  },
  {
    "name": "tertiary",
    "category": "highway",
    "subcategory": "tertiary",
    "latitude": 33.75165695,
    "longitude": 72.77604965,
    "id": 262781358
  },
  {
    "name": "tertiary",
    "category": "highway",
    "subcategory": "tertiary",
    "latitude": 33.763635964705884,
    "longitude": 72.76103914705882,
    "id": 262781361
  },
  {
    "name": "residential",
    "category": "highway",
    "subcategory": "residential",
    "latitude": 33.760311699999995,
    "longitude": 72.7730359,
    "id": 262781364
  },
  {
    "name": "residential",
    "category": "highway",
    "subcategory": "residential",
    "latitude": 33.72661377,
    "longitude": 72.80199486000001,
    "id": 266166731
  },
  {
    "name": "residential",
    "category": "highway",
    "subcategory": "residential",
    "latitude": 33.7238458,
    "longitude": 72.80362905,
    "id": 266166732
  },
  {
    "name": "residential",
    "category": "highway",
    "subcategory": "residential",
    "latitude": 33.72463805,
    "longitude": 72.7973729,
    "id": 266166733
  },
  {
    "name": "residential",
    "category": "highway",
    "subcategory": "residential",
    "latitude": 33.72403923,
    "longitude": 72.80171948,
    "id": 266166734
  },
  {
    "name": "residential",
    "category": "highway",
    "subcategory": "residential",
    "latitude": 33.7249227,
    "longitude": 72.80193798,
    "id": 266166736
  },
  {
    "name": "residential",
    "category": "highway",
    "subcategory": "residential",
    "latitude": 33.728220300000004,
    "longitude": 72.79578104761904,
    "id": 266166737
  },
  {
    "name": "residential",
    "category": "highway",
    "subcategory": "residential",
    "latitude": 33.73120735,
    "longitude": 72.80372455,
    "id": 266166738
  },
  {
    "name": "residential",
    "category": "highway",
    "subcategory": "residential",
    "latitude": 33.728999349999995,
    "longitude": 72.80383,
    "id": 266166739
  },
  {
    "name": "residential",
    "category": "highway",
    "subcategory": "residential",
    "latitude": 33.73085053333333,
    "longitude": 72.80363596666668,
    "id": 266166740
  },
  {
    "name": "residential",
    "category": "highway",
    "subcategory": "residential",
    "latitude": 33.725915225,
    "longitude": 72.8013845,
    "id": 266166742
  },
  {
    "name": "residential",
    "category": "highway",
    "subcategory": "residential",
    "latitude": 33.72417223333333,
    "longitude": 72.79895773333334,
    "id": 266166743
  },
  {
    "name": "residential",
    "category": "highway",
    "subcategory": "residential",
    "latitude": 33.73062046,
    "longitude": 72.80262452,
    "id": 266166744
  },
  {
    "name": "residential",
    "category": "highway",
    "subcategory": "residential",
    "latitude": 33.72057467142857,
    "longitude": 72.80472445714285,
    "id": 266166745
  },
  {
    "name": "residential",
    "category": "highway",
    "subcategory": "residential",
    "latitude": 33.720618525,
    "longitude": 72.803093725,
    "id": 266166746
  },
  {
    "name": "residential",
    "category": "highway",
    "subcategory": "residential",
    "latitude": 33.724453600000004,
    "longitude": 72.80383965,
    "id": 266166747
  },
  {
    "name": "residential",
    "category": "highway",
    "subcategory": "residential",
    "latitude": 33.72540081666667,
    "longitude": 72.80515375,
    "id": 266166748
  },
  {
    "name": "residential",
    "category": "highway",
    "subcategory": "residential",
    "latitude": 33.72835420476191,
    "longitude": 72.80159710952381,
    "id": 266166749
  },
  {
    "name": "residential",
    "category": "highway",
    "subcategory": "residential",
    "latitude": 33.7260863,
    "longitude": 72.802292925,
    "id": 266166750
  },
  {
    "name": "residential",
    "category": "highway",
    "subcategory": "residential",
    "latitude": 33.731428799999996,
    "longitude": 72.80358965714287,
    "id": 266166751
  },
  {
    "name": "residential",
    "category": "highway",
    "subcategory": "residential",
    "latitude": 33.72174736666667,
    "longitude": 72.8042312,
    "id": 266166752
  },
  {
    "name": "residential",
    "category": "highway",
    "subcategory": "residential",
    "latitude": 33.7304926,
    "longitude": 72.80379683333332,
    "id": 266166753
  },
  {
    "name": "residential",
    "category": "highway",
    "subcategory": "residential",
    "latitude": 33.72413376,
    "longitude": 72.80509148,
    "id": 266166755
  },
  {
    "name": "residential",
    "category": "highway",
    "subcategory": "residential",
    "latitude": 33.72441106666667,
    "longitude": 72.80017848333334,
    "id": 266166756
  },
  {
    "name": "residential",
    "category": "highway",
    "subcategory": "residential",
    "latitude": 33.72592587333334,
    "longitude": 72.79725999666667,
    "id": 266166757
  },
  {
    "name": "residential",
    "category": "highway",
    "subcategory": "residential",
    "latitude": 33.722606866666666,
    "longitude": 72.8034952,
    "id": 266166758
  },
  {
    "name": "residential",
    "category": "highway",
    "subcategory": "residential",
    "latitude": 33.7238798,
    "longitude": 72.8033486875,
    "id": 266166759
  },
  {
    "name": "residential",
    "category": "highway",
    "subcategory": "residential",
    "latitude": 33.72440385,
    "longitude": 72.80074010000001,
    "id": 266166760
  },
  {
    "name": "residential",
    "category": "highway",
    "subcategory": "residential",
    "latitude": 33.72934908235294,
    "longitude": 72.79914659411764,
    "id": 266166761
  },
  {
    "name": "residential",
    "category": "highway",
    "subcategory": "residential",
    "latitude": 33.72509575,
    "longitude": 72.80440405,
    "id": 266166762
  },
  {
    "name": "residential",
    "category": "highway",
    "subcategory": "residential",
    "latitude": 33.728244499999995,
    "longitude": 72.80347506666666,
    "id": 266166763
  },
  {
    "name": "residential",
    "category": "highway",
    "subcategory": "residential",
    "latitude": 33.72956890909091,
    "longitude": 72.79820797272727,
    "id": 266166765
  },
  {
    "name": "residential",
    "category": "highway",
    "subcategory": "residential",
    "latitude": 33.72767735,
    "longitude": 72.80115225,
    "id": 266167609
  },
  {
    "name": "residential",
    "category": "highway",
    "subcategory": "residential",
    "latitude": 33.7211984,
    "longitude": 72.80440505,
    "id": 266167610
  },
  {
    "name": "residential",
    "category": "highway",
    "subcategory": "residential",
    "latitude": 33.728039,
    "longitude": 72.8016562,
    "id": 266167611
  },
  {
    "name": "residential",
    "category": "highway",
    "subcategory": "residential",
    "latitude": 33.7265708625,
    "longitude": 72.802524625,
    "id": 266167613
  },
  {
    "name": "residential",
    "category": "highway",
    "subcategory": "residential",
    "latitude": 33.72553485,
    "longitude": 72.8014761,
    "id": 266167614
  },
  {
    "name": "residential",
    "category": "highway",
    "subcategory": "residential",
    "latitude": 33.72890916666667,
    "longitude": 72.80115203333334,
    "id": 266167616
  },
  {
    "name": "residential",
    "category": "highway",
    "subcategory": "residential",
    "latitude": 33.7199612,
    "longitude": 72.80426675,
    "id": 266167617
  },
  {
    "name": "residential",
    "category": "highway",
    "subcategory": "residential",
    "latitude": 33.72175125,
    "longitude": 72.80272025000001,
    "id": 266167618
  },
  {
    "name": "residential",
    "category": "highway",
    "subcategory": "residential",
    "latitude": 33.72154753333333,
    "longitude": 72.8041917,
    "id": 266167620
  },
  {
    "name": "residential",
    "category": "highway",
    "subcategory": "residential",
    "latitude": 33.730954437037035,
    "longitude": 72.79311435925926,
    "id": 266273898
  },
  {
    "name": "residential",
    "category": "highway",
    "subcategory": "residential",
    "latitude": 33.739453,
    "longitude": 72.78914746666666,
    "id": 266273899
  },
  {
    "name": "residential",
    "category": "highway",
    "subcategory": "residential",
    "latitude": 33.73837815,
    "longitude": 72.78851505,
    "id": 266273900
  },
  {
    "name": "residential",
    "category": "highway",
    "subcategory": "residential",
    "latitude": 33.732864839130436,
    "longitude": 72.79219754782608,
    "id": 266273901
  },
  {
    "name": "residential",
    "category": "highway",
    "subcategory": "residential",
    "latitude": 33.73881793333333,
    "longitude": 72.78865643333334,
    "id": 266273902
  },
  {
    "name": "residential",
    "category": "highway",
    "subcategory": "residential",
    "latitude": 33.73420696,
    "longitude": 72.79544342,
    "id": 266273903
  },
  {
    "name": "residential",
    "category": "highway",
    "subcategory": "residential",
    "latitude": 33.734939825,
    "longitude": 72.79489963500001,
    "id": 266273905
  },
  {
    "name": "residential",
    "category": "highway",
    "subcategory": "residential",
    "latitude": 33.73632463333333,
    "longitude": 72.78648518333334,
    "id": 266273906
  },
  {
    "name": "residential",
    "category": "highway",
    "subcategory": "residential",
    "latitude": 33.734727568749996,
    "longitude": 72.7998347125,
    "id": 266273907
  },
  {
    "name": "residential",
    "category": "highway",
    "subcategory": "residential",
    "latitude": 33.73411304,
    "longitude": 72.79497866,
    "id": 266273908
  },
  {
    "name": "residential",
    "category": "highway",
    "subcategory": "residential",
    "latitude": 33.737603730000004,
    "longitude": 72.78311062499999,
    "id": 266274053
  },
  {
    "name": "residential",
    "category": "highway",
    "subcategory": "residential",
    "latitude": 33.732685859375,
    "longitude": 72.7725462875,
    "id": 266274054
  },
  {
    "name": "residential",
    "category": "highway",
    "subcategory": "residential",
    "latitude": 33.7324536,
    "longitude": 72.77565342413794,
    "id": 266274055
  },
  {
    "name": "residential",
    "category": "highway",
    "subcategory": "residential",
    "latitude": 33.732682925,
    "longitude": 72.80943819166667,
    "id": 266290216
  },
  {
    "name": "residential",
    "category": "highway",
    "subcategory": "residential",
    "latitude": 33.7317698,
    "longitude": 72.811191556,
    "id": 266290218
  },
  {
    "name": "residential",
    "category": "highway",
    "subcategory": "residential",
    "latitude": 33.732374428571426,
    "longitude": 72.80917185714286,
    "id": 266290220
  },
  {
    "name": "residential",
    "category": "highway",
    "subcategory": "residential",
    "latitude": 33.730651975,
    "longitude": 72.8107234875,
    "id": 266290222
  },
  {
    "name": "residential",
    "category": "highway",
    "subcategory": "residential",
    "latitude": 33.7320014,
    "longitude": 72.81018089999999,
    "id": 266290224
  },
  {
    "name": "Taxila Museum",
    "category": "amenity",
    "subcategory": "parking",
    "latitude": 33.74588326,
    "longitude": 72.8182004,
    "id": 268117258
  },
  {
    "name": "Civil Hospital Taxila",
    "category": "amenity",
    "subcategory": "hospital",
    "latitude": 33.74578065,
    "longitude": 72.81745611666666,
    "id": 268117265
  },
  {
    "name": "park",
    "category": "leisure",
    "subcategory": "park",
    "latitude": 33.74701025384615,
    "longitude": 72.81946594615384,
    "id": 268117266
  },
  {
    "name": "tertiary",
    "category": "highway",
    "subcategory": "tertiary",
    "latitude": 33.74540740909091,
    "longitude": 72.812789775,
    "id": 268119043
  },
  {
    "name": "residential",
    "category": "highway",
    "subcategory": "residential",
    "latitude": 33.74831454,
    "longitude": 72.80484278,
    "id": 268119044
  },
  {
    "name": "residential",
    "category": "highway",
    "subcategory": "residential",
    "latitude": 33.748446442857144,
    "longitude": 72.80474461428571,
    "id": 268119045
  },
  {
    "name": "residential",
    "category": "highway",
    "subcategory": "residential",
    "latitude": 33.75126852,
    "longitude": 72.80565576000001,
    "id": 268119048
  },
  {
    "name": "residential",
    "category": "highway",
    "subcategory": "residential",
    "latitude": 33.74935805,
    "longitude": 72.80505395,
    "id": 268119049
  },
  {
    "name": "residential",
    "category": "highway",
    "subcategory": "residential",
    "latitude": 33.74587473333333,
    "longitude": 72.81780703333334,
    "id": 268119291
  },
  {
    "name": "Christian Hospital Taxila",
    "category": "amenity",
    "subcategory": "hospital",
    "latitude": 33.74508303076923,
    "longitude": 72.80180427692308,
    "id": 268121695
  },
  {
    "name": "residential",
    "category": "highway",
    "subcategory": "residential",
    "latitude": 33.74321430357143,
    "longitude": 72.80013759285714,
    "id": 268954801
  },
  {
    "name": "living_street",
    "category": "highway",
    "subcategory": "living_street",
    "latitude": 33.74625647307692,
    "longitude": 72.80548242692308,
    "id": 268954802
  },
  {
    "name": "residential",
    "category": "highway",
    "subcategory": "residential",
    "latitude": 33.74265547777778,
    "longitude": 72.80016756666666,
    "id": 268954803
  },
  {
    "name": "residential",
    "category": "highway",
    "subcategory": "residential",
    "latitude": 33.74191548,
    "longitude": 72.79974576000001,
    "id": 268954804
  },
  {
    "name": "residential",
    "category": "highway",
    "subcategory": "residential",
    "latitude": 33.74223516666667,
    "longitude": 72.79879013333334,
    "id": 268954805
  },
  {
    "name": "residential",
    "category": "highway",
    "subcategory": "residential",
    "latitude": 33.742690550000006,
    "longitude": 72.79776735,
    "id": 268954807
  },
  {
    "name": "residential",
    "category": "highway",
    "subcategory": "residential",
    "latitude": 33.7413461,
    "longitude": 72.79777845000001,
    "id": 268954808
  },
  {
    "name": "place_of_worship",
    "category": "amenity",
    "subcategory": "place_of_worship",
    "latitude": 33.74077616,
    "longitude": 72.79636578,
    "id": 268954809
  },
  {
    "name": "living_street",
    "category": "highway",
    "subcategory": "living_street",
    "latitude": 33.7417875,
    "longitude": 72.7979022,
    "id": 268954810
  },
  {
    "name": "residential",
    "category": "highway",
    "subcategory": "residential",
    "latitude": 33.740992750000004,
    "longitude": 72.800542925,
    "id": 268954811
  },
  {
    "name": "residential",
    "category": "highway",
    "subcategory": "residential",
    "latitude": 33.73789546,
    "longitude": 72.79911994,
    "id": 268954812
  },
  {
    "name": "residential",
    "category": "highway",
    "subcategory": "residential",
    "latitude": 33.739358700000004,
    "longitude": 72.8013854,
    "id": 268954813
  },
  {
    "name": "residential",
    "category": "highway",
    "subcategory": "residential",
    "latitude": 33.742058,
    "longitude": 72.8026145,
    "id": 268954814
  },
  {
    "name": "residential",
    "category": "highway",
    "subcategory": "residential",
    "latitude": 33.74267856666666,
    "longitude": 72.80271206666667,
    "id": 268954815
  },
  {
    "name": "service",
    "category": "highway",
    "subcategory": "service",
    "latitude": 33.743479575,
    "longitude": 72.80439989999999,
    "id": 268954816
  },
  {
    "name": "service",
    "category": "highway",
    "subcategory": "service",
    "latitude": 33.7437928,
    "longitude": 72.8040484,
    "id": 268954817
  },
  {
    "name": "service",
    "category": "highway",
    "subcategory": "service",
    "latitude": 33.743656720000004,
    "longitude": 72.80433914,
    "id": 268954818
  },
  {
    "name": "residential",
    "category": "highway",
    "subcategory": "residential",
    "latitude": 33.741315344,
    "longitude": 72.80539003199999,
    "id": 268954819
  },
  {
    "name": "living_street",
    "category": "highway",
    "subcategory": "living_street",
    "latitude": 33.74454489166667,
    "longitude": 72.8052415,
    "id": 268954821
  },
  {
    "name": "living_street",
    "category": "highway",
    "subcategory": "living_street",
    "latitude": 33.741522880000005,
    "longitude": 72.81309772,
    "id": 268954822
  },
  {
    "name": "residential",
    "category": "highway",
    "subcategory": "residential",
    "latitude": 33.73853911111111,
    "longitude": 72.80780028000001,
    "id": 268954823
  },
  {
    "name": "residential",
    "category": "highway",
    "subcategory": "residential",
    "latitude": 33.73378985,
    "longitude": 72.80553615000001,
    "id": 268954824
  },
  {
    "name": "residential",
    "category": "highway",
    "subcategory": "residential",
    "latitude": 33.733073375000004,
    "longitude": 72.804737375,
    "id": 268954825
  },
  {
    "name": "residential",
    "category": "highway",
    "subcategory": "residential",
    "latitude": 33.736272480000004,
    "longitude": 72.80223237999999,
    "id": 268954826
  },
  {
    "name": "residential",
    "category": "highway",
    "subcategory": "residential",
    "latitude": 33.73713375,
    "longitude": 72.80307656666666,
    "id": 268954827
  },
  {
    "name": "residential",
    "category": "highway",
    "subcategory": "residential",
    "latitude": 33.738375,
    "longitude": 72.80358743333333,
    "id": 268954828
  },
  {
    "name": "residential",
    "category": "highway",
    "subcategory": "residential",
    "latitude": 33.738808923076924,
    "longitude": 72.80394663076923,
    "id": 268954829
  },
  {
    "name": "residential",
    "category": "highway",
    "subcategory": "residential",
    "latitude": 33.73970394,
    "longitude": 72.80140122,
    "id": 268954830
  },
  {
    "name": "residential",
    "category": "highway",
    "subcategory": "residential",
    "latitude": 33.74919317291667,
    "longitude": 72.796595075,
    "id": 268957561
  },
  {
    "name": "residential",
    "category": "highway",
    "subcategory": "residential",
    "latitude": 33.74797479655172,
    "longitude": 72.80167856896551,
    "id": 268957562
  },
  {
    "name": "residential",
    "category": "highway",
    "subcategory": "residential",
    "latitude": 33.74934555714286,
    "longitude": 72.78775021428571,
    "id": 268957563
  },
  {
    "name": "residential",
    "category": "highway",
    "subcategory": "residential",
    "latitude": 33.74648268,
    "longitude": 72.790223,
    "id": 268957564
  },
  {
    "name": "residential",
    "category": "highway",
    "subcategory": "residential",
    "latitude": 33.746480863636364,
    "longitude": 72.7909685,
    "id": 268957565
  },
  {
    "name": "residential",
    "category": "highway",
    "subcategory": "residential",
    "latitude": 33.745447000000006,
    "longitude": 72.7920234,
    "id": 268957566
  },
  {
    "name": "residential",
    "category": "highway",
    "subcategory": "residential",
    "latitude": 33.74524532857143,
    "longitude": 72.79281595714285,
    "id": 268957567
  },
  {
    "name": "living_street",
    "category": "highway",
    "subcategory": "living_street",
    "latitude": 33.74465701666667,
    "longitude": 72.79259455,
    "id": 268957568
  },
  {
    "name": "residential",
    "category": "highway",
    "subcategory": "residential",
    "latitude": 33.74496962222222,
    "longitude": 72.79411721666666,
    "id": 268957569
  },
  {
    "name": "residential",
    "category": "highway",
    "subcategory": "residential",
    "latitude": 33.743841275,
    "longitude": 72.79374265,
    "id": 268957570
  },
  {
    "name": "residential",
    "category": "highway",
    "subcategory": "residential",
    "latitude": 33.74335345,
    "longitude": 72.7938827,
    "id": 268957571
  },
  {
    "name": "residential",
    "category": "highway",
    "subcategory": "residential",
    "latitude": 33.74246696666666,
    "longitude": 72.79468216666668,
    "id": 268957572
  },
  {
    "name": "living_street",
    "category": "highway",
    "subcategory": "living_street",
    "latitude": 33.742243849999994,
    "longitude": 72.7951632,
    "id": 268957573
  },
  {
    "name": "living_street",
    "category": "highway",
    "subcategory": "living_street",
    "latitude": 33.74173368333333,
    "longitude": 72.794972,
    "id": 268957574
  },
  {
    "name": "residential",
    "category": "highway",
    "subcategory": "residential",
    "latitude": 33.742132025000004,
    "longitude": 72.7968034,
    "id": 268957575
  },
  {
    "name": "residential",
    "category": "highway",
    "subcategory": "residential",
    "latitude": 33.7395831,
    "longitude": 72.79933158,
    "id": 268957576
  },
  {
    "name": "residential",
    "category": "highway",
    "subcategory": "residential",
    "latitude": 33.72205727741935,
    "longitude": 72.76667883548387,
    "id": 268957842
  },
  {
    "name": "living_street",
    "category": "highway",
    "subcategory": "living_street",
    "latitude": 33.727150259999995,
    "longitude": 72.80561098000001,
    "id": 269224638
  },
  {
    "name": "unclassified",
    "category": "highway",
    "subcategory": "unclassified",
    "latitude": 33.7220547875,
    "longitude": 72.8070937125,
    "id": 269224640
  },
  {
    "name": "unclassified",
    "category": "highway",
    "subcategory": "unclassified",
    "latitude": 33.72297082,
    "longitude": 72.80777578,
    "id": 269224642
  },
  {
    "name": "unclassified",
    "category": "highway",
    "subcategory": "unclassified",
    "latitude": 33.72314285555555,
    "longitude": 72.80726101111111,
    "id": 269224644
  },