[
  {
    "name": "Habib Bank Ltd",
    "category": "amenity",
    "subcategory": "bank",
    "latitude": 33.3653535,
    "longitude": 73.2398216,
    "id": 2622545915
  },
  {
    "name": "Pakistan Bakery & Sweets",
    "category": "shop",
    "subcategory": "bakery",
    "latitude": 33.3664232,
    "longitude": 73.2395305,
    "id": 2622638540
  },
  {
    "name": "Manpasand",
    "category": "shop",
    "subcategory": "bakery",
    "latitude": 33.3663296,
    "longitude": 73.2395445,
    "id": 2622638544
  },
  {
    "name": "Bhatti Shoes Point",
    "category": "shop",
    "subcategory": "shoes",
    "latitude": 33.3672699,
    "longitude": 73.2385211,
    "id": 2622656970
  },
  {
    "name": "Bhatti Book Store",
    "category": "shop",
    "subcategory": "stationery",
    "latitude": 33.3672802,
    "longitude": 73.2385764,
    "id": 2622656979
  },
  {
    "name": "Manawar Auto Workshop",
    "category": "shop",
    "subcategory": "car_repair",
    "latitude": 33.3613471,
    "longitude": 73.2420686,
    "id": 2623396021
  },
  {
    "name": "Honda Repair Center",
    "category": "shop",
    "subcategory": "motorcycle",
    "latitude": 33.3623613,
    "longitude": 73.2417739,
    "id": 2623400442
  },
  {
    "name": "Govt. Girls High School",
    "category": "amenity",
    "subcategory": "school",
    "latitude": 33.363826,
    "longitude": 73.2329591,
    "id": 2623406544
  },
  {
    "name": "Govt. Girls Primary School",
    "category": "amenity",
    "subcategory": "school",
    "latitude": 33.3639708,
    "longitude": 73.2324246,
    "id": 2623407175
  },
  {
    "name": "Rafaqat Clinic",
    "category": "amenity",
    "subcategory": "doctors",
    "latitude": 33.3662641,
    "longitude": 73.2391354,
    "id": 2623428760
  },
  {
    "name": "Raza",
    "category": "shop",
    "subcategory": "bakery",
    "latitude": 33.3630789,
    "longitude": 73.2405481,
    "id": 2642297830
  },
  {
    "name": "Bhatti Chicken Point",
    "category": "shop",
    "subcategory": "butcher",
    "latitude": 33.3640771,
    "longitude": 73.2404424,
    "id": 2642297832
  },
  {
    "name": "KAMRAN CLINIC",
    "category": "amenity",
    "subcategory": "doctors",
    "latitude": 33.3653063,
    "longitude": 73.2398325,
    "id": 2642297833
  },
  {
    "name": "Bhatti Electrict Store",
    "category": "shop",
    "subcategory": "electrical",
    "latitude": 33.3667499,
    "longitude": 73.2383254,
    "id": 2642308767
  },
  {
    "name": "Tariq Medical Store",
    "category": "amenity",
    "subcategory": "pharmacy",
    "latitude": 33.3668462,
    "longitude": 73.2384354,
    "id": 2642308771
  },
  {
    "name": "National Bank Of Pakistan",
    "category": "amenity",
    "subcategory": "bank",
    "latitude": 33.3707961,
    "longitude": 73.2396173,
    "id": 2644124344
  },
  {
    "name": "Janjua Bakers",
    "category": "shop",
    "subcategory": "bakery",
    "latitude": 33.3672564,
    "longitude": 73.2388773,
    "id": 2644135465
  },
  {
    "name": "AutoZone",
    "category": "shop",
    "subcategory": "car_repair",
    "latitude": 33.3609438,
    "longitude": 73.2412184,
    "id": 2644172018
  },
  {
    "name": "ALSARDAR SCHOOL",
    "category": "amenity",
    "subcategory": "school",
    "latitude": 33.3612549,
    "longitude": 73.2400512,
    "id": 3871190937
  }
]