[
  {
    "name": "Market",
    "category": "shop",
    "subcategory": "supermarket",
    "latitude": 35.2876039,
    "longitude": 72.0111486,
    "id": 6534025090
  },
  {
    "name": "Rehman Hotel",
    "category": "tourism",
    "subcategory": "hotel",
    "latitude": 35.2759988,
    "longitude": 72.0034493,
    "id": 6534025091
  },
  {
    "name": "Car Wash",
    "category": "amenity",
    "subcategory": "car_wash",
    "latitude": 35.2792216,
    "longitude": 72.0037259,
    "id": 6534025285
  },
  {
    "name": "Check Post",
    "category": "amenity",
    "subcategory": "police",
    "latitude": 35.2533432,
    "longitude": 72.0062998,
    "id": 6534025385
  },
  {
    "name": "Shops",
    "category": "shop",
    "subcategory": "department_store",
    "latitude": 35.2474264,
    "longitude": 72.0061891,
    "id": 6534025485
  }
]