[
  {
    "name": "چک شادی",
    "category": "place",
    "subcategory": "village",
    "latitude": 32.6581901,
    "longitude": 73.2598379,
    "id": 9411290793
  },
  {
    "name": "لِلہ جہلم روڈ",
    "category": "highway",
    "subcategory": "trunk",
    "latitude": 32.634213675,
    "longitude": 73.21328051100001,
    "id": 236383518
  },
  {
    "name": "residential",
    "category": "landuse",
    "subcategory": "residential",
    "latitude": 32.658542014285715,
    "longitude": 73.25931938571429,
    "id": 547985693
  },
  {
    "name": "residential",
    "category": "landuse",
    "subcategory": "residential",
    "latitude": 32.65754236153846,
    "longitude": 73.27775668846154,
    "id": 547985694
  },
  {
    "name": "unclassified",
    "category": "highway",
    "subcategory": "unclassified",
    "latitude": 32.651548,
    "longitude": 73.254985325,
    "id": 1020393007
  },
  {
    "name": "دیوان پور روڈ",
    "category": "highway",
    "subcategory": "tertiary",
    "latitude": 32.6454978047619,
    "longitude": 73.26167459047619,
    "id": 1020393019
  },
  {
    "name": "residential",
    "category": "landuse",
    "subcategory": "residential",
    "latitude": 32.658776857142854,
    "longitude": 73.25930100000001,
    "id": 547985693
  },
  {
    "name": "residential",
    "category": "landuse",
    "subcategory": "residential",
    "latitude": 32.65750275384615,
    "longitude": 73.27770221923078,
    "id": 547985694
  }
]