[
  {
    "name": "Masjid Syedan Wali",
    "category": "amenity",
    "subcategory": "place_of_worship",
    "latitude": 33.9295192,
    "longitude": 72.535395,
    "id": 7946272247
  },
  {
    "name": "HBL Bank Malak Mala",
    "category": "amenity",
    "subcategory": "bank",
    "latitude": 33.9310968,
    "longitude": 72.5331909,
    "id": 7946273028
  },
  {
    "name": "Malak Mala Post Office",
    "category": "amenity",
    "subcategory": "post_office",
    "latitude": 33.9342885,
    "longitude": 72.5365053,
    "id": 7946273030
  },
  {
    "name": "Masjid Bilal",
    "category": "amenity",
    "subcategory": "place_of_worship",
    "latitude": 33.929159,
    "longitude": 72.5313969,
    "id": 7946273031
  },
  {
    "name": "Maskeen Ustaji Masjid",
    "category": "amenity",
    "subcategory": "place_of_worship",
    "latitude": 33.928472,
    "longitude": 72.5373681,
    "id": 7946273032
  },
  {
    "name": "Masjid (Ginaz Ghah Wali)",
    "category": "amenity",
    "subcategory": "place_of_worship",
    "latitude": 33.9254093,
    "longitude": 72.5371612,
    "id": 7946273069
  }
]