[
  {
    "name": "Khaddi Khaddar Kamalia",
    "category": "shop",
    "subcategory": "clothes",
    "latitude": 30.7344805,
    "longitude": 72.6404543,
    "id": 9468474746
  },
  {
    "name": "Masjid-e-Khizra",
    "category": "amenity",
    "subcategory": "place_of_worship",
    "latitude": 30.7365576,
    "longitude": 72.6452032,
    "id": 10920016845
  },
  {
    "name": "Ladies Park",
    "category": "leisure",
    "subcategory": "park",
    "latitude": 30.736858,
    "longitude": 72.6449754,
    "id": 10920016846
  },
  {
    "name": "Zeeshan Park",
    "category": "leisure",
    "subcategory": "playground",
    "latitude": 30.7370329,
    "longitude": 72.6445396,
    "id": 10920016853
  },
  {
    "name": "The National System",
    "category": "amenity",
    "subcategory": "school",
    "latitude": 30.7355321,
    "longitude": 72.6459786,
    "id": 10920016854
  },
  {
    "name": "Jamia Masjid",
    "category": "amenity",
    "subcategory": "place_of_worship",
    "latitude": 30.7370139,
    "longitude": 72.6434005,
    "id": 10920019435
  },
  {
    "name": "Abdullah Shopping Center",
    "category": "shop",
    "subcategory": "convenience",
    "latitude": 30.7353597,
    "longitude": 72.6403205,
    "id": 10920019491
  },
  {
    "name": "Mukhtar Palace",
    "category": "amenity",
    "subcategory": "events_venue",
    "latitude": 30.7380248,
    "longitude": 72.6370262,
    "id": 10966332293
  },
  {
    "name": "Mukhtar Dera",
    "category": "amenity",
    "subcategory": "restaurant",
    "latitude": 30.7380421,
    "longitude": 72.6375761,
    "id": 10966332294
  },
  {
    "name": "Poultry Disease Diagnostic Labarotry",
    "category": "amenity",
    "subcategory": "veterinary",
    "latitude": 30.7326401,
    "longitude": 72.6565845,
    "id": 12758348058
  },
  {
    "name": "Ayaan Mall Kamalia",
    "category": "shop",
    "subcategory": "mall",
    "latitude": 30.7313945,
    "longitude": 72.6490271,
    "id": 12921121785
  },
  {
    "name": "A-Mart",
    "category": "shop",
    "subcategory": "convenience",
    "latitude": 30.7279356,
    "longitude": 72.642642,
    "id": 13040286094
  },
  {
    "name": "MC Highschool Kamalia",
    "category": "amenity",
    "subcategory": "school",
    "latitude": 30.7249613,
    "longitude": 72.6426727,
    "id": 13040813444
  },
  {
    "name": "City Thana Kamalia",
    "category": "amenity",
    "subcategory": "police",
    "latitude": 30.7284877,
    "longitude": 72.6530953,
    "id": 13058585886
  },
  {
    "name": "Ideal Bakery",
    "category": "shop",
    "subcategory": "bakery",
    "latitude": 30.7346644,
    "longitude": 72.6407176,
    "id": 13116809317
  }
]