[
  {
    "name": "Al Jabbal Enterprise",
    "category": "shop",
    "subcategory": "hardware",
    "latitude": 33.8641279,
    "longitude": 73.7588378,
    "id": 4623104989
  },
  {
    "name": "Sarfraz Kazmi Sid",
    "category": "amenity",
    "subcategory": "bar",
    "latitude": 33.8614899,
    "longitude": 73.7639688,
    "id": 6533291587
  },
  {
    "name": "Sid Home",
    "category": "amenity",
    "subcategory": "bar",
    "latitude": 33.8598187,
    "longitude": 73.7515982,
    "id": 6533293686
  },
  {
    "name": "Sid Home",
    "category": "amenity",
    "subcategory": "bar",
    "latitude": 33.8598063,
    "longitude": 73.7516002,
    "id": 6533293687
  },
  {
    "name": "Dhaira Temple Stupa of Budha",
    "category": "tourism",
    "subcategory": "attraction",
    "latitude": 33.8463123,
    "longitude": 73.7430739,
    "id": 8951741418
  },
  {
    "name": "Khrick Police Station",
    "category": "amenity",
    "subcategory": "police",
    "latitude": 33.8511608,
    "longitude": 73.7482129,
    "id": 13200835586
  },
  {
    "name": "Sardar Amaan Khan",
    "category": "leisure",
    "subcategory": "stadium",
    "latitude": 33.8544991,
    "longitude": 73.7483504,
    "id": 13200846299
  },
  {
    "name": "Rawalakot Bazar",
    "category": "shop",
    "subcategory": "bakery",
    "latitude": 33.8464137,
    "longitude": 73.7384112,
    "id": 13676990502
  }
]