[
  {
    "name": "Market",
    "category": "shop",
    "subcategory": "supermarket",
    "latitude": 33.0962076,
    "longitude": 73.6217134,
    "id": 2242467056
  },
  {
    "name": "Hamza Motors and Property Dealers",
    "category": "shop",
    "subcategory": "car",
    "latitude": 33.0371308,
    "longitude": 73.6108551,
    "id": 4705467990
  },
  {
    "name": "Hamza Motor and Property Dealers",
    "category": "shop",
    "subcategory": "car",
    "latitude": 33.0366921,
    "longitude": 73.605092,
    "id": 4867815416
  },
  {
    "name": "The Lyceum Global",
    "category": "amenity",
    "subcategory": "school",
    "latitude": 33.0515963,
    "longitude": 73.6135094,
    "id": 6181957185
  },
  {
    "name": "360 AutoLTD",
    "category": "amenity",
    "subcategory": "car_wash",
    "latitude": 33.0650117,
    "longitude": 73.6251244,
    "id": 13833937785
  }
]