[
  {
    "name": "پیر جنڈ",
    "category": "place",
    "subcategory": "village",
    "latitude": 32.6480504,
    "longitude": 73.805379,
    "id": 2500598269
  },
  {
    "name": "Lalamusa-Dinga Road",
    "category": "highway",
    "subcategory": "tertiary",
    "latitude": 32.64764363225807,
    "longitude": 73.7878341516129,
    "id": 209105417
  },
  {
    "name": "grass",
    "category": "landuse",
    "subcategory": "grass",
    "latitude": 32.6321635,
    "longitude": 73.80504764545455,
    "id": 278017394
  },
  {
    "name": "residential",
    "category": "highway",
    "subcategory": "residential",
    "latitude": 32.634406166666665,
    "longitude": 73.80647040000001,
    "id": 564104684
  },
  {
    "name": "residential",
    "category": "highway",
    "subcategory": "residential",
    "latitude": 32.65104291818182,
    "longitude": 73.80948439090909,
    "id": 1042456194
  },
  {
    "name": "residential",
    "category": "highway",
    "subcategory": "residential",
    "latitude": 32.64879643333333,
    "longitude": 73.80550799999999,
    "id": 1042456195
  },
  {
    "name": "unclassified",
    "category": "highway",
    "subcategory": "unclassified",
    "latitude": 32.657536595652175,
    "longitude": 73.80194199565217,
    "id": 1042456196
  },
  {
    "name": "residential",
    "category": "highway",
    "subcategory": "residential",
    "latitude": 32.650648716666666,
    "longitude": 73.80519445,
    "id": 1042671744
  },
  {
    "name": "grass",
    "category": "landuse",
    "subcategory": "grass",
    "latitude": 32.633915054545454,
    "longitude": 73.80504358181818,
    "id": 278017394
  }
]