[
  {
    "name": "Saidu Sharif",
    "category": "place",
    "subcategory": "neighbourhood",
    "latitude": 34.759,
    "longitude": 72.3570094,
    "id": 279829079
  },
  {
    "name": "crossing",
    "category": "highway",
    "subcategory": "crossing",
    "latitude": 34.683713,
    "longitude": 72.2314846,
    "id": 299008720
  },
  {
    "name": "رحیم آباد",
    "category": "place",
    "subcategory": "town",
    "latitude": 34.7697953,
    "longitude": 72.3380463,
    "id": 881438409
  },
  {
    "name": "Ghantagar Chowk",
    "category": "highway",
    "subcategory": "traffic_signals",
    "latitude": 34.7709886,
    "longitude": 72.3583755,
    "id": 4427961553
  },
  {
    "name": "Green Chowk",
    "category": "highway",
    "subcategory": "traffic_signals",
    "latitude": 34.7759987,
    "longitude": 72.360475,
    "id": 4427963951
  },
  {
    "name": "traffic_signals",
    "category": "highway",
    "subcategory": "traffic_signals",
    "latitude": 34.7763944,
    "longitude": 72.3607322,
    "id": 4427963952
  },
  {
    "name": "Main Bazar Chowck",
    "category": "highway",
    "subcategory": "traffic_signals",
    "latitude": 34.7722275,
    "longitude": 72.3611112,
    "id": 4427966501
  },
  {
    "name": "People Chowk",
    "category": "highway",
    "subcategory": "traffic_signals",
    "latitude": 34.7798398,
    "longitude": 72.3616482,
    "id": 4427967234
  },
  {
    "name": "پوسٹ آفس چوک",
    "category": "highway",
    "subcategory": "traffic_signals",
    "latitude": 34.7746606,
    "longitude": 72.3629802,
    "id": 4427967248
  },
  {
    "name": "Saidu rickshaw stand",
    "category": "highway",
    "subcategory": "bus_stop",
    "latitude": 34.7462029,
    "longitude": 72.3540831,
    "id": 4428620870
  },
  {
    "name": "حاجی بابا چوک",
    "category": "highway",
    "subcategory": "traffic_signals",
    "latitude": 34.7726457,
    "longitude": 72.3620052,
    "id": 4428637727
  },
  {
    "name": "traffic_signals",
    "category": "highway",
    "subcategory": "traffic_signals",
    "latitude": 34.7710005,
    "longitude": 72.3653794,
    "id": 4428643783
  },
  {
    "name": "Gumbad Maira Chowk",
    "category": "highway",
    "subcategory": "traffic_signals",
    "latitude": 34.7707286,
    "longitude": 72.3662806,
    "id": 4428643784
  },
  {
    "name": "crossing",
    "category": "highway",
    "subcategory": "crossing",
    "latitude": 34.7760581,
    "longitude": 72.3578911,
    "id": 4434078306
  },
  {
    "name": "Gul Shan Chowk",
    "category": "highway",
    "subcategory": "traffic_signals",
    "latitude": 34.7717586,
    "longitude": 72.3584434,
    "id": 4442008481
  },
  {
    "name": "Chowck A",
    "category": "highway",
    "subcategory": "traffic_signals",
    "latitude": 34.7681149,
    "longitude": 72.3686688,
    "id": 4442085443
  },
  {
    "name": "Nishat Chowk",
    "category": "highway",
    "subcategory": "traffic_signals",
    "latitude": 34.7717498,
    "longitude": 72.3601532,
    "id": 4442085479
  },
  {
    "name": "place_of_worship",
    "category": "amenity",
    "subcategory": "place_of_worship",
    "latitude": 34.7650515,
    "longitude": 72.3715442,
    "id": 4447600615
  },
  {
    "name": "place_of_worship",
    "category": "amenity",
    "subcategory": "place_of_worship",
    "latitude": 34.7623109,
    "longitude": 72.3739059,
    "id": 4447604427
  },
  {
    "name": "place_of_worship",
    "category": "amenity",
    "subcategory": "place_of_worship",
    "latitude": 34.7679208,
    "longitude": 72.3709071,
    "id": 4447613519
  },
  {
    "name": "فاروق اعظم مسجد",
    "category": "amenity",
    "subcategory": "place_of_worship",
    "latitude": 34.7652899,
    "longitude": 72.367665,
    "id": 4447613521
  },
  {
    "name": "place_of_worship",
    "category": "amenity",
    "subcategory": "place_of_worship",
    "latitude": 34.7709789,
    "longitude": 72.3644906,
    "id": 4447613524
  },
  {
    "name": "place_of_worship",
    "category": "amenity",
    "subcategory": "place_of_worship",
    "latitude": 34.7726017,
    "longitude": 72.362214,
    "id": 4447613525
  },
  {
    "name": "place_of_worship",
    "category": "amenity",
    "subcategory": "place_of_worship",
    "latitude": 34.7694903,
    "longitude": 72.3545207,
    "id": 4447613531
  },
  {
    "name": "place_of_worship",
    "category": "amenity",
    "subcategory": "place_of_worship",
    "latitude": 34.7631497,
    "longitude": 72.3584653,
    "id": 4447614248
  },
  {
    "name": "Public Library",
    "category": "amenity",
    "subcategory": "library",
    "latitude": 34.7645954,
    "longitude": 72.358763,
    "id": 4447614249
  },
  {
    "name": "hostel",
    "category": "tourism",
    "subcategory": "hostel",
    "latitude": 34.7647862,
    "longitude": 72.3573467,
    "id": 4447614250
  },
  {
    "name": "Mingora Hostel",
    "category": "tourism",
    "subcategory": "hostel",
    "latitude": 34.7641967,
    "longitude": 72.3581781,
    "id": 4447626922
  },
  {
    "name": "Swat Museum",
    "category": "tourism",
    "subcategory": "museum",
    "latitude": 34.7634989,
    "longitude": 72.3592204,
    "id": 4447626923
  },
  {
    "name": "courthouse",
    "category": "amenity",
    "subcategory": "courthouse",
    "latitude": 34.7649122,
    "longitude": 72.360569,
    "id": 4447626924
  },
  {
    "name": "copyshop",
    "category": "shop",
    "subcategory": "copyshop",
    "latitude": 34.7645632,
    "longitude": 72.3592846,
    "id": 4447626926
  },
  {
    "name": "lawyer",
    "category": "office",
    "subcategory": "lawyer",
    "latitude": 34.764844,
    "longitude": 72.3593184,
    "id": 4447626927
  },
  {
    "name": "District Police Office Swat",
    "category": "amenity",
    "subcategory": "police",
    "latitude": 34.7653446,
    "longitude": 72.3597348,
    "id": 4447626928
  },
  {
    "name": "Mingora Police Station",
    "category": "amenity",
    "subcategory": "police",
    "latitude": 34.7703918,
    "longitude": 72.3596872,
    "id": 4447626929
  },
  {
    "name": "bank",
    "category": "amenity",
    "subcategory": "bank",
    "latitude": 34.7694621,
    "longitude": 72.3591931,
    "id": 4447626932
  },
  {
    "name": "bank",
    "category": "amenity",
    "subcategory": "bank",
    "latitude": 34.7752564,
    "longitude": 72.3603656,
    "id": 4447626935
  },
  {
    "name": "bank",
    "category": "amenity",
    "subcategory": "bank",
    "latitude": 34.7752492,
    "longitude": 72.3601797,
    "id": 4447626939
  },
  {
    "name": "jewelry",
    "category": "shop",
    "subcategory": "jewelry",
    "latitude": 34.772831,
    "longitude": 72.3618368,
    "id": 4447632595
  },
  {
    "name": "jewelry",
    "category": "shop",
    "subcategory": "jewelry",
    "latitude": 34.7728912,
    "longitude": 72.3617692,
    "id": 4447632596
  },
  {
    "name": "jewelry",
    "category": "shop",
    "subcategory": "jewelry",
    "latitude": 34.7730116,
    "longitude": 72.3615832,
    "id": 4447632598
  },
  {
    "name": "jewelry",
    "category": "shop",
    "subcategory": "jewelry",
    "latitude": 34.773402,
    "longitude": 72.3611022,
    "id": 4447632603
  },
  {
    "name": "jewelry",
    "category": "shop",
    "subcategory": "jewelry",
    "latitude": 34.7735085,
    "longitude": 72.3610534,
    "id": 4447632604
  },
  {
    "name": "jewelry",
    "category": "shop",
    "subcategory": "jewelry",
    "latitude": 34.7737554,
    "longitude": 72.3609726,
    "id": 4447632606
  },
  {
    "name": "jewelry",
    "category": "shop",
    "subcategory": "jewelry",
    "latitude": 34.7738819,
    "longitude": 72.3608824,
    "id": 4447632607
  },
  {
    "name": "jewelry",
    "category": "shop",
    "subcategory": "jewelry",
    "latitude": 34.7739776,
    "longitude": 72.3608073,
    "id": 4447632608
  },
  {
    "name": "jewelry",
    "category": "shop",
    "subcategory": "jewelry",
    "latitude": 34.7748511,
    "longitude": 72.3610981,
    "id": 4447632609
  },
  {
    "name": "jewelry",
    "category": "shop",
    "subcategory": "jewelry",
    "latitude": 34.7740609,
    "longitude": 72.3604895,
    "id": 4447632610
  },
  {
    "name": "jewelry",
    "category": "shop",
    "subcategory": "jewelry",
    "latitude": 34.7740438,
    "longitude": 72.3604305,
    "id": 4447632612
  },
  {
    "name": "Islam Jewler",
    "category": "shop",
    "subcategory": "jewelry",
    "latitude": 34.773943,
    "longitude": 72.3607219,
    "id": 4447632614
  },
  {
    "name": "jewelry",
    "category": "shop",
    "subcategory": "jewelry",
    "latitude": 34.7738418,
    "longitude": 72.360796,
    "id": 4447632615
  },
  {
    "name": "jewelry",
    "category": "shop",
    "subcategory": "jewelry",
    "latitude": 34.7737631,
    "longitude": 72.3608599,
    "id": 4447632616
  },
  {
    "name": "jewelry",
    "category": "shop",
    "subcategory": "jewelry",
    "latitude": 34.7736921,
    "longitude": 72.3609031,
    "id": 4447632617
  },
  {
    "name": "jewelry",
    "category": "shop",
    "subcategory": "jewelry",
    "latitude": 34.7735994,
    "longitude": 72.3609455,
    "id": 4447632618
  },
  {
    "name": "jewelry",
    "category": "shop",
    "subcategory": "jewelry",
    "latitude": 34.7733742,
    "longitude": 72.3610102,
    "id": 4447632620
  },
  {
    "name": "jewelry",
    "category": "shop",
    "subcategory": "jewelry",
    "latitude": 34.7732755,
    "longitude": 72.3610383,
    "id": 4447632621
  },
  {
    "name": "jewelry",
    "category": "shop",
    "subcategory": "jewelry",
    "latitude": 34.7728279,
    "longitude": 72.3617184,
    "id": 4447632629
  },
  {
    "name": "jewelry",
    "category": "shop",
    "subcategory": "jewelry",
    "latitude": 34.7727494,
    "longitude": 72.3617535,
    "id": 4447632630
  },
  {
    "name": "jewelry",
    "category": "shop",
    "subcategory": "jewelry",
    "latitude": 34.772723,
    "longitude": 72.3618575,
    "id": 4447632631
  },
  {
    "name": "Showkat & Hussain Clinic",
    "category": "amenity",
    "subcategory": "clinic",
    "latitude": 34.7690669,
    "longitude": 72.3713843,
    "id": 4447665138
  },
  {
    "name": "dentist",
    "category": "amenity",
    "subcategory": "dentist",
    "latitude": 34.7725114,
    "longitude": 72.3625815,
    "id": 4447667918
  },
  {
    "name": "dentist",
    "category": "amenity",
    "subcategory": "dentist",
    "latitude": 34.7712611,
    "longitude": 72.3647259,
    "id": 4447667919
  },
  {
    "name": "clinic",
    "category": "amenity",
    "subcategory": "clinic",
    "latitude": 34.7714039,
    "longitude": 72.364122,
    "id": 4447667920
  },
  {
    "name": "Munir First AID Clinic Parn",
    "category": "amenity",
    "subcategory": "clinic",
    "latitude": 34.76519,
    "longitude": 72.3768289,
    "id": 4452956634
  },
  {
    "name": "Khpal Koor Foundation",
    "category": "amenity",
    "subcategory": "college",
    "latitude": 34.766952,
    "longitude": 72.3620309,
    "id": 4460583450
  },
  {
    "name": "place_of_worship",
    "category": "amenity",
    "subcategory": "place_of_worship",
    "latitude": 34.7651485,
    "longitude": 72.3729057,
    "id": 4460599369
  },
  {
    "name": "The Learner School",
    "category": "amenity",
    "subcategory": "school",
    "latitude": 34.7600016,
    "longitude": 72.3833554,
    "id": 4462971592
  },
  {
    "name": "place_of_worship",
    "category": "amenity",
    "subcategory": "place_of_worship",
    "latitude": 34.7655202,
    "longitude": 72.3595408,
    "id": 4470146310
  },
  {
    "name": "telecommunication",
    "category": "office",
    "subcategory": "telecommunication",
    "latitude": 34.7670178,
    "longitude": 72.3600011,
    "id": 4470150550
  },
  {
    "name": "place_of_worship",
    "category": "amenity",
    "subcategory": "place_of_worship",
    "latitude": 34.7596466,
    "longitude": 72.3549464,
    "id": 4470163710
  },
  {
    "name": "hospital",
    "category": "amenity",
    "subcategory": "hospital",
    "latitude": 34.760649,
    "longitude": 72.3586744,
    "id": 4470163728
  },
  {
    "name": "hospital",
    "category": "amenity",
    "subcategory": "hospital",
    "latitude": 34.7609072,
    "longitude": 72.3575714,
    "id": 4470163729
  },
  {
    "name": "university",
    "category": "amenity",
    "subcategory": "university",
    "latitude": 34.7599606,
    "longitude": 72.3575169,
    "id": 4470163732
  },
  {
    "name": "university",
    "category": "amenity",
    "subcategory": "university",
    "latitude": 34.7580968,
    "longitude": 72.3568868,
    "id": 4470163733
  },
  {
    "name": "clinic",
    "category": "amenity",
    "subcategory": "clinic",
    "latitude": 34.757676,
    "longitude": 72.3563542,
    "id": 4470163734
  },
  {
    "name": "اللہ اکبر مسجد",
    "category": "amenity",
    "subcategory": "place_of_worship",
    "latitude": 34.7574722,
    "longitude": 72.3573502,
    "id": 4470163735
  },
  {
    "name": "clinic",
    "category": "amenity",
    "subcategory": "clinic",
    "latitude": 34.7574722,
    "longitude": 72.3569437,
    "id": 4470163736
  },
  {
    "name": "ngo",
    "category": "office",
    "subcategory": "ngo",
    "latitude": 34.7570013,
    "longitude": 72.357334,
    "id": 4470163737
  },
  {
    "name": "Pakistan International Airline",
    "category": "office",
    "subcategory": "yes",
    "latitude": 34.7541311,
    "longitude": 72.3559601,
    "id": 4470163753
  },
  {
    "name": "clinic",
    "category": "amenity",
    "subcategory": "clinic",
    "latitude": 34.7545318,
    "longitude": 72.3558013,
    "id": 4470163754
  },
  {
    "name": "PTDC Motel Saidu Sharif (Swat)",
    "category": "tourism",
    "subcategory": "motel",
    "latitude": 34.7525328,
    "longitude": 72.3566699,
    "id": 4470163756
  },
  {
    "name": "fast_food",
    "category": "amenity",
    "subcategory": "fast_food",
    "latitude": 34.7580139,
    "longitude": 72.3602123,
    "id": 4470170230
  },
  {
    "name": "clinic",
    "category": "amenity",
    "subcategory": "clinic",
    "latitude": 34.7591035,
    "longitude": 72.36067,
    "id": 4470170231
  },
  {
    "name": "supermarket",
    "category": "shop",
    "subcategory": "supermarket",
    "latitude": 34.7725927,
    "longitude": 72.3567273,
    "id": 4471431351
  },
  {
    "name": "Shoukat Associate",
    "category": "office",
    "subcategory": "architect",
    "latitude": 34.7528124,
    "longitude": 72.3601719,
    "id": 4490809105
  },
  {
    "name": "garden",
    "category": "leisure",
    "subcategory": "garden",
    "latitude": 34.7647404,
    "longitude": 72.3735026,
    "id": 4517230295
  },
  {
    "name": "Sohrab Khan Chowk",
    "category": "highway",
    "subcategory": "traffic_signals",
    "latitude": 34.7723275,
    "longitude": 72.3568527,
    "id": 4554657114
  },
  {
    "name": "Makan Bagh Chowk",
    "category": "highway",
    "subcategory": "traffic_signals",
    "latitude": 34.7692672,
    "longitude": 72.359768,
    "id": 4556356653
  },
  {
    "name": "crossing",
    "category": "highway",
    "subcategory": "crossing",
    "latitude": 34.6835403,
    "longitude": 72.2309914,
    "id": 4556357938
  },
  {
    "name": "bus_station",
    "category": "amenity",
    "subcategory": "bus_station",
    "latitude": 34.7723587,
    "longitude": 72.3538563,
    "id": 4579875490
  },
  {
    "name": "سی این جی",
    "category": "amenity",
    "subcategory": "fuel",
    "latitude": 34.7674112,
    "longitude": 72.3303128,
    "id": 4623716643
  },
  {
    "name": "سی این جی",
    "category": "amenity",
    "subcategory": "fuel",
    "latitude": 34.7628389,
    "longitude": 72.3238179,
    "id": 4623716644
  },
  {
    "name": "سی این جی",
    "category": "amenity",
    "subcategory": "fuel",
    "latitude": 34.7623744,
    "longitude": 72.322426,
    "id": 4623716645
  },
  {
    "name": "ECS Swat City",
    "category": "shop",
    "subcategory": "shoes",
    "latitude": 34.7613478,
    "longitude": 72.3212654,
    "id": 4693450689
  },
  {
    "name": "educational_institution",
    "category": "office",
    "subcategory": "educational_institution",
    "latitude": 34.7711835,
    "longitude": 72.3661167,
    "id": 4788604867
  },
  {
    "name": "educational_institution",
    "category": "office",
    "subcategory": "educational_institution",
    "latitude": 34.7707552,
    "longitude": 72.3667985,
    "id": 4788604868
  },
  {
    "name": "Khyber News Office Old office",
    "category": "office",
    "subcategory": "news_agency",
    "latitude": 34.7612698,
    "longitude": 72.3597737,
    "id": 4823678450
  },
  {
    "name": "مینگورہ‎",
    "category": "place",
    "subcategory": "city",
    "latitude": 34.7725375,
    "longitude": 72.3607712,
    "id": 4832577118
  },
  {
    "name": "Star Market Mosque",
    "category": "amenity",
    "subcategory": "place_of_worship",
    "latitude": 34.7709021,
    "longitude": 72.3590964,
    "id": 4860803893
  },
  {
    "name": "سيدو شريف",
    "category": "place",
    "subcategory": "city",
    "latitude": 34.7447334,
    "longitude": 72.3562789,
    "id": 4869554289
  },
  {
    "name": "fuel",
    "category": "amenity",
    "subcategory": "fuel",
    "latitude": 34.7708987,
    "longitude": 72.3577725,
    "id": 4871305642
  },
  {
    "name": "university",
    "category": "amenity",
    "subcategory": "university",
    "latitude": 34.7845667,
    "longitude": 72.3589593,
    "id": 4896486374
  },
  {
    "name": "place_of_worship",
    "category": "amenity",
    "subcategory": "place_of_worship",
    "latitude": 34.7700586,
    "longitude": 72.3670502,
    "id": 4900735582
  },
  {
    "name": "grave_yard",
    "category": "amenity",
    "subcategory": "grave_yard",
    "latitude": 34.7702343,
    "longitude": 72.3668872,
    "id": 4900735583
  },
  {
    "name": "grave_yard",
    "category": "amenity",
    "subcategory": "grave_yard",
    "latitude": 34.7703142,
    "longitude": 72.3672111,
    "id": 4900735584
  },
  {
    "name": "PTCL Exchange",
    "category": "office",
    "subcategory": "telecommunication",
    "latitude": 34.7779598,
    "longitude": 72.3614294,
    "id": 4907700435
  },
  {
    "name": "National Database Autority of Pakistan",
    "category": "office",
    "subcategory": "government",
    "latitude": 34.7700058,
    "longitude": 72.3396904,
    "id": 4907785252
  },
  {
    "name": "Rahim Abad Police Station",
    "category": "amenity",
    "subcategory": "police",
    "latitude": 34.7698363,
    "longitude": 72.3385436,
    "id": 4907795559
  },
  {
    "name": "place_of_worship",
    "category": "amenity",
    "subcategory": "place_of_worship",
    "latitude": 34.7791174,
    "longitude": 72.3627026,
    "id": 4927220122
  },
  {
    "name": "place_of_worship",
    "category": "amenity",
    "subcategory": "place_of_worship",
    "latitude": 34.7764932,
    "longitude": 72.3628375,
    "id": 4927220123
  },
  {
    "name": "yes",
    "category": "shop",
    "subcategory": "yes",
    "latitude": 34.7762769,
    "longitude": 72.3648788,
    "id": 4927220124
  },
  {
    "name": "Alamgir Tiles",
    "category": "shop",
    "subcategory": "interior_decoration",
    "latitude": 34.7708349,
    "longitude": 72.3585242,
    "id": 4933456157
  },
  {
    "name": "Swat Construction & Real State Services",
    "category": "office",
    "subcategory": "estate_agent",
    "latitude": 34.7708431,
    "longitude": 72.3586401,
    "id": 4933456159
  },
  {
    "name": "Falah Cosmetic Store",
    "category": "shop",
    "subcategory": "cosmetics",
    "latitude": 34.7708038,
    "longitude": 72.3584564,
    "id": 4933461661
  },
  {
    "name": "Hard & Soft",
    "category": "shop",
    "subcategory": "computer",
    "latitude": 34.7708833,
    "longitude": 72.3587435,
    "id": 4933464326
  },
  {
    "name": "Udiyana Hotel",
    "category": "tourism",
    "subcategory": "hotel",
    "latitude": 34.7714412,
    "longitude": 72.3579659,
    "id": 4933470031
  },
  {
    "name": "سوات ہسپتال",
    "category": "amenity",
    "subcategory": "hospital",
    "latitude": 34.7527448,
    "longitude": 72.3556253,
    "id": 4964214533
  },
  {
    "name": "کنگ ہسپتال",
    "category": "amenity",
    "subcategory": "hospital",
    "latitude": 34.7539167,
    "longitude": 72.3554069,
    "id": 4964219317
  },
  {
    "name": "Sani Abad Chowck",
    "category": "highway",
    "subcategory": "traffic_signals",
    "latitude": 34.7678521,
    "longitude": 72.3677699,
    "id": 4969926129
  },
  {
    "name": "ملک مسجد",
    "category": "amenity",
    "subcategory": "place_of_worship",
    "latitude": 34.7651411,
    "longitude": 72.3661473,
    "id": 4969934907
  },
  {
    "name": "doctors",
    "category": "amenity",
    "subcategory": "doctors",
    "latitude": 34.7633657,
    "longitude": 72.3670159,
    "id": 4969935934
  },
  {
    "name": "ChemistDirect",
    "category": "shop",
    "subcategory": "chemist",
    "latitude": 34.7670402,
    "longitude": 72.3597495,
    "id": 4969986821
  },
  {
    "name": "BLUEMAAC",
    "category": "shop",
    "subcategory": "computer",
    "latitude": 34.7670618,
    "longitude": 72.3595943,
    "id": 5061437218
  },
  {
    "name": "Gali Dabba Masjid",
    "category": "amenity",
    "subcategory": "place_of_worship",
    "latitude": 34.7740662,
    "longitude": 72.3606338,
    "id": 5186531975
  },
  {
    "name": "Parazelsus Depo Swat",
    "category": "shop",
    "subcategory": "department_store",
    "latitude": 34.7704522,
    "longitude": 72.3402097,
    "id": 5477602122
  },
  {
    "name": "parking",
    "category": "amenity",
    "subcategory": "parking",
    "latitude": 34.7786981,
    "longitude": 72.3547447,
    "id": 5650697052
  },
  {
    "name": "parking",
    "category": "amenity",
    "subcategory": "parking",
    "latitude": 34.7721102,
    "longitude": 72.3559214,
    "id": 5652025020
  },
  {
    "name": "parking",
    "category": "amenity",
    "subcategory": "parking",
    "latitude": 34.7730622,
    "longitude": 72.35563,
    "id": 5652026254
  },
  {
    "name": "Design Bureau",
    "category": "office",
    "subcategory": "company",
    "latitude": 34.7671968,
    "longitude": 72.3604183,
    "id": 5715069025
  },
  {
    "name": "Saidu Sharif Stupa",
    "category": "tourism",
    "subcategory": "attraction",
    "latitude": 34.7574656,
    "longitude": 72.3621513,
    "id": 5755621721
  },
  {
    "name": "Italian Pizza",
    "category": "amenity",
    "subcategory": "fast_food",
    "latitude": 34.7652606,
    "longitude": 72.3594222,
    "id": 5848902086
  },
  {
    "name": "Butkara I",
    "category": "tourism",
    "subcategory": "attraction",
    "latitude": 34.7652412,
    "longitude": 72.3681966,
    "id": 6062554485
  },
  {
    "name": "Butkara III",
    "category": "tourism",
    "subcategory": "attraction",
    "latitude": 34.7585172,
    "longitude": 72.3717073,
    "id": 6062581685
  },
  {
    "name": "grace ground",
    "category": "shop",
    "subcategory": "sports",
    "latitude": 34.7659584,
    "longitude": 72.357347,
    "id": 6216647297
  },
  {
    "name": "allah wala chorangi",
    "category": "historic",
    "subcategory": "monument",
    "latitude": 34.7525007,
    "longitude": 72.357145,
    "id": 6221523889
  },
  {
    "name": "Azam Manzil",
    "category": "historic",
    "subcategory": "yes",
    "latitude": 34.7769563,
    "longitude": 72.3387655,
    "id": 6483721198
  },
  {
    "name": "Wapda office",
    "category": "office",
    "subcategory": "government",
    "latitude": 34.7624954,
    "longitude": 72.3584371,
    "id": 6986752685
  },
  {
    "name": "Saidu Shareef masjid",
    "category": "amenity",
    "subcategory": "place_of_worship",
    "latitude": 34.745938,
    "longitude": 72.3559061,
    "id": 6986791485
  },
  {
    "name": "place_of_worship",
    "category": "amenity",
    "subcategory": "place_of_worship",
    "latitude": 34.7646419,
    "longitude": 72.3645974,
    "id": 8523280795
  },
  {
    "name": "Sabzi Mandi",
    "category": "amenity",
    "subcategory": "marketplace",
    "latitude": 34.7810585,
    "longitude": 72.3603784,
    "id": 8927292631
  },
  {
    "name": "Zam Zam Cloth House",
    "category": "shop",
    "subcategory": "clothes",
    "latitude": 34.7729914,
    "longitude": 72.3561299,
    "id": 8983888643
  },
  {
    "name": "crossing",
    "category": "highway",
    "subcategory": "crossing",
    "latitude": 34.7765905,
    "longitude": 72.3538597,
    "id": 9048296130
  },
  {
    "name": "crossing",
    "category": "highway",
    "subcategory": "crossing",
    "latitude": 34.7713098,
    "longitude": 72.3509626,
    "id": 9048296131
  },
  {
    "name": "crossing",
    "category": "highway",
    "subcategory": "crossing",
    "latitude": 34.7633735,
    "longitude": 72.3518433,
    "id": 9430013276
  },
  {
    "name": "crossing",
    "category": "highway",
    "subcategory": "crossing",
    "latitude": 34.7127712,
    "longitude": 72.2686256,
    "id": 9494632883
  },
  {
    "name": "crossing",
    "category": "highway",
    "subcategory": "crossing",
    "latitude": 34.7406505,
    "longitude": 72.343942,
    "id": 9495193331
  },
  {
    "name": "crossing",
    "category": "highway",
    "subcategory": "crossing",
    "latitude": 34.7748123,
    "longitude": 72.3620028,
    "id": 9498185428
  },
  {
    "name": "crossing",
    "category": "highway",
    "subcategory": "crossing",
    "latitude": 34.7803004,
    "longitude": 72.3444752,
    "id": 9507053575
  },
  {
    "name": "parking",
    "category": "amenity",
    "subcategory": "parking",
    "latitude": 34.7820111,
    "longitude": 72.3619037,
    "id": 9554256673
  },
  {
    "name": "Zeb terminal",
    "category": "amenity",
    "subcategory": "bus_station",
    "latitude": 34.7815919,
    "longitude": 72.3332766,
    "id": 9555438502
  },
  {
    "name": "ingaro darei bypass adda",
    "category": "amenity",
    "subcategory": "bus_station",
    "latitude": 34.7779977,
    "longitude": 72.3321006,
    "id": 9555438503
  },
  {
    "name": "ingaro darei bypass taxi stand",
    "category": "amenity",
    "subcategory": "taxi",
    "latitude": 34.7770073,
    "longitude": 72.3330646,
    "id": 9555438504
  },
  {
    "name": "Swat Daewoo Express",
    "category": "amenity",
    "subcategory": "bus_station",
    "latitude": 34.7830624,
    "longitude": 72.3325119,
    "id": 9555490259
  },
  {
    "name": "banr school takhtaband adda",
    "category": "amenity",
    "subcategory": "bus_station",
    "latitude": 34.7787155,
    "longitude": 72.3564391,
    "id": 9555502830
  },
  {
    "name": "marghuzar mulla baba adda + depot",
    "category": "amenity",
    "subcategory": "bus_station",
    "latitude": 34.771114,
    "longitude": 72.3581227,
    "id": 9555513514
  },
  {
    "name": "Gulshan chowk rickshaw stop",
    "category": "highway",
    "subcategory": "bus_stop",
    "latitude": 34.7714554,
    "longitude": 72.3583462,
    "id": 9555513650
  },
  {
    "name": "parking",
    "category": "amenity",
    "subcategory": "parking",
    "latitude": 34.7597078,
    "longitude": 72.3591615,
    "id": 9556430294
  },
  {
    "name": "parking",
    "category": "amenity",
    "subcategory": "parking",
    "latitude": 34.7525716,
    "longitude": 72.3567356,
    "id": 9556442304
  },
  {
    "name": "parking",
    "category": "amenity",
    "subcategory": "parking",
    "latitude": 34.7527403,
    "longitude": 72.3568303,
    "id": 9556475582
  },
  {
    "name": "parking",
    "category": "amenity",
    "subcategory": "parking",
    "latitude": 34.7607242,
    "longitude": 72.3580446,
    "id": 9556513804
  },
  {
    "name": "parking",
    "category": "amenity",
    "subcategory": "parking",
    "latitude": 34.7527398,
    "longitude": 72.3569082,
    "id": 9556525157
  },
  {
    "name": "parking",
    "category": "amenity",
    "subcategory": "parking",
    "latitude": 34.752577,
    "longitude": 72.3568232,
    "id": 9556528267
  },
  {
    "name": "parking",
    "category": "amenity",
    "subcategory": "parking",
    "latitude": 34.7644016,
    "longitude": 72.3498202,
    "id": 9556548124
  },
  {
    "name": "parking",
    "category": "amenity",
    "subcategory": "parking",
    "latitude": 34.7769004,
    "longitude": 72.3572779,
    "id": 9556571186
  },
  {
    "name": "parking",
    "category": "amenity",
    "subcategory": "parking",
    "latitude": 34.7504893,
    "longitude": 72.3563422,
    "id": 9557120600
  },
  {
    "name": "parking",
    "category": "amenity",
    "subcategory": "parking",
    "latitude": 34.7718268,
    "longitude": 72.3635759,
    "id": 9557140830
  },
  {
    "name": "parking",
    "category": "amenity",
    "subcategory": "parking",
    "latitude": 34.7751147,
    "longitude": 72.3602156,
    "id": 9557162780
  },
  {
    "name": "parking",
    "category": "amenity",
    "subcategory": "parking",
    "latitude": 34.7694202,
    "longitude": 72.3396041,
    "id": 9557162781
  },
  {
    "name": "parking",
    "category": "amenity",
    "subcategory": "parking",
    "latitude": 34.7709821,
    "longitude": 72.3460238,
    "id": 9557171179
  },
  {
    "name": "parking",
    "category": "amenity",
    "subcategory": "parking",
    "latitude": 34.7716844,
    "longitude": 72.3601966,
    "id": 9557202475
  },
  {
    "name": "Swat coach adda",
    "category": "amenity",
    "subcategory": "bus_station",
    "latitude": 34.782728,
    "longitude": 72.3330027,
    "id": 9559866500
  },
  {
    "name": "Batai chowk rickshaw stand",
    "category": "highway",
    "subcategory": "bus_stop",
    "latitude": 34.7779581,
    "longitude": 72.3450115,
    "id": 9559882338
  },
  {
    "name": "Raham abad rickshaw stand",
    "category": "highway",
    "subcategory": "bus_stop",
    "latitude": 34.7807434,
    "longitude": 72.3418799,
    "id": 9559892620
  },
  {
    "name": "Sheraz and co taxi stand",
    "category": "amenity",
    "subcategory": "taxi",
    "latitude": 34.7723813,
    "longitude": 72.3527083,
    "id": 9559908066
  },
  {
    "name": "Swat travel bypass adda",
    "category": "amenity",
    "subcategory": "bus_station",
    "latitude": 34.7771651,
    "longitude": 72.3331312,
    "id": 9559916187
  },
  {
    "name": "Ghokdara stand amankot",
    "category": "amenity",
    "subcategory": "bus_station",
    "latitude": 34.7729419,
    "longitude": 72.3524548,
    "id": 9559916188
  },
  {
    "name": "Geo Swat 2D service",
    "category": "amenity",
    "subcategory": "taxi",
    "latitude": 34.7792616,
    "longitude": 72.3333801,
    "id": 9559920972
  },
  {
    "name": "Shahid 2D service bypass",
    "category": "amenity",
    "subcategory": "taxi",
    "latitude": 34.7781538,
    "longitude": 72.3334109,
    "id": 9559941073
  },
  {
    "name": "Banr rickshaw stand",
    "category": "highway",
    "subcategory": "bus_stop",
    "latitude": 34.7781586,
    "longitude": 72.3566736,
    "id": 9559969743
  },
  {
    "name": "Shagai stop",
    "category": "highway",
    "subcategory": "bus_stop",
    "latitude": 34.7398852,
    "longitude": 72.3408544,
    "id": 9559974978
  },
  {
    "name": "Malak Shahid adda",
    "category": "amenity",
    "subcategory": "bus_station",
    "latitude": 34.7796916,
    "longitude": 72.3608603,
    "id": 9559993648
  },
  {
    "name": "Bank Al Habib Ltd",
    "category": "amenity",
    "subcategory": "bank",
    "latitude": 34.7772746,
    "longitude": 72.3586801,
    "id": 9695006890
  },
  {
    "name": "HASNAIN College of Nursing & Allied Health Sciences",
    "category": "office",
    "subcategory": "educational_institution",
    "latitude": 34.7417231,
    "longitude": 72.3450154,
    "id": 13124633919
  },
  {
    "name": "fuel",
    "category": "amenity",
    "subcategory": "fuel",
    "latitude": 34.7710779,
    "longitude": 72.3450463,
    "id": 13270413569
  },
  {
    "name": "اسلام پور",
    "category": "place",
    "subcategory": "village",
    "latitude": 34.7199179,
    "longitude": 72.364716,
    "id": 13461794926
  },
  {
    "name": "کوکارئی",
    "category": "place",
    "subcategory": "village",
    "latitude": 34.7115087,
    "longitude": 72.3406664,
    "id": 13461795045
  },
  {
    "name": "Batora",
    "category": "place",
    "subcategory": "village",
    "latitude": 34.7221335,
    "longitude": 72.3305081,
    "id": 13461795440
  },
  {
    "name": "Guligram",
    "category": "place",
    "subcategory": "village",
    "latitude": 34.7294495,
    "longitude": 72.3273604,
    "id": 13461795441
  },
  {
    "name": "خیرآباد",
    "category": "place",
    "subcategory": "village",
    "latitude": 34.7351865,
    "longitude": 72.3290931,
    "id": 13461795442
  },
  {
    "name": "Company Office",
    "category": "office",
    "subcategory": "company",
    "latitude": 34.7680675,
    "longitude": 72.3601959,
    "id": 13972774802
  },
  {
    "name": "company",
    "category": "office",
    "subcategory": "company",
    "latitude": 34.7680784,
    "longitude": 72.3602061,
    "id": 13972860101
  },
  {
    "name": "primary",
    "category": "highway",
    "subcategory": "primary",
    "latitude": 34.773649488888886,
    "longitude": 72.35713065555555,
    "id": 27244938
  },
  {
    "name": "primary",
    "category": "highway",
    "subcategory": "primary",
    "latitude": 34.78094531785714,
    "longitude": 72.35552223214286,
    "id": 27245543
  },
  {
    "name": "St#1",
    "category": "highway",
    "subcategory": "living_street",
    "latitude": 34.76882177142857,
    "longitude": 72.36913909285714,
    "id": 402823074
  },
  {
    "name": "Landikas",
    "category": "landuse",
    "subcategory": "residential",
    "latitude": 34.76922374782609,
    "longitude": 72.3638784978261,
    "id": 445165827
  },
  {
    "name": "ST#2",
    "category": "highway",
    "subcategory": "living_street",
    "latitude": 34.768566050000004,
    "longitude": 72.3693118,
    "id": 445167770
  },
  {
    "name": "Mula Baba Road",
    "category": "highway",
    "subcategory": "secondary",
    "latitude": 34.771030942857145,
    "longitude": 72.35839838571428,
    "id": 445350838
  },
  {
    "name": "residential",
    "category": "highway",
    "subcategory": "residential",
    "latitude": 34.77164537826087,
    "longitude": 72.35726829565218,
    "id": 445350839
  },
  {
    "name": "living_street",
    "category": "highway",
    "subcategory": "living_street",
    "latitude": 34.77320414166667,
    "longitude": 72.35744406666667,
    "id": 445351139
  },
  {
    "name": "living_street",
    "category": "highway",
    "subcategory": "living_street",
    "latitude": 34.77440769354839,
    "longitude": 72.35879112903226,
    "id": 445351140
  },
  {
    "name": "residential",
    "category": "highway",
    "subcategory": "residential",
    "latitude": 34.77622565,
    "longitude": 72.35895945625,
    "id": 445351142
  },
  {
    "name": "Main Bazar Road",
    "category": "highway",
    "subcategory": "residential",
    "latitude": 34.774424542105265,
    "longitude": 72.36042043157894,
    "id": 445351302
  },
  {
    "name": "primary",
    "category": "highway",
    "subcategory": "primary",
    "latitude": 34.77849601538462,
    "longitude": 72.36130395384615,
    "id": 445351759
  },
  {
    "name": "primary",
    "category": "highway",
    "subcategory": "primary",
    "latitude": 34.77573810625,
    "longitude": 72.3612855125,
    "id": 445351760
  },
  {
    "name": "پوسٹ آفس روڈ",
    "category": "highway",
    "subcategory": "primary",
    "latitude": 34.774664725,
    "longitude": 72.3625756375,
    "id": 445351761
  },
  {
    "name": "پوسٹ آفس روڈ",
    "category": "highway",
    "subcategory": "primary",
    "latitude": 34.7742035375,
    "longitude": 72.3630740375,
    "id": 445351762
  },
  {
    "name": "living_street",
    "category": "highway",
    "subcategory": "living_street",
    "latitude": 34.77834565,
    "longitude": 72.3606332,
    "id": 445354733
  },
  {
    "name": "living_street",
    "category": "highway",
    "subcategory": "living_street",
    "latitude": 34.77853785,
    "longitude": 72.3607643,
    "id": 445354734
  },
  {
    "name": "living_street",
    "category": "highway",
    "subcategory": "living_street",
    "latitude": 34.778738700000005,
    "longitude": 72.36063705000001,
    "id": 445354735
  },
  {
    "name": "living_street",
    "category": "highway",
    "subcategory": "living_street",
    "latitude": 34.77717987692308,
    "longitude": 72.3596125923077,
    "id": 445354736
  },
  {
    "name": "living_street",
    "category": "highway",
    "subcategory": "living_street",
    "latitude": 34.77786268,
    "longitude": 72.36030373999999,
    "id": 445354737
  },
  {
    "name": "living_street",
    "category": "highway",
    "subcategory": "living_street",
    "latitude": 34.77769978888889,
    "longitude": 72.36052775555555,
    "id": 445354738
  },
  {
    "name": "living_street",
    "category": "highway",
    "subcategory": "living_street",
    "latitude": 34.7768999,
    "longitude": 72.36013368333333,
    "id": 445354739
  },
  {
    "name": "pedestrian",
    "category": "highway",
    "subcategory": "pedestrian",
    "latitude": 34.778885349999996,
    "longitude": 72.36103245,
    "id": 445354740
  },
  {
    "name": "residential",
    "category": "highway",
    "subcategory": "residential",
    "latitude": 34.78156091538462,
    "longitude": 72.36002612307692,
    "id": 445354741
  },
  {
    "name": "primary",
    "category": "highway",
    "subcategory": "primary",
    "latitude": 34.78384716470588,
    "longitude": 72.36168709705882,
    "id": 445354742
  },
  {
    "name": "secondary",
    "category": "highway",
    "subcategory": "secondary",
    "latitude": 34.78169447241379,
    "longitude": 72.35725185172413,
    "id": 445354744
  },
  {
    "name": "living_street",
    "category": "highway",
    "subcategory": "living_street",
    "latitude": 34.77978738461539,
    "longitude": 72.35693316923077,
    "id": 445354745
  },
  {
    "name": "living_street",
    "category": "highway",
    "subcategory": "living_street",
    "latitude": 34.778260457142856,
    "longitude": 72.35813452857143,
    "id": 445354746
  },
  {
    "name": "living_street",
    "category": "highway",
    "subcategory": "living_street",
    "latitude": 34.780102955555556,
    "longitude": 72.35737707777778,
    "id": 445354747
  },
  {
    "name": "unclassified",
    "category": "highway",
    "subcategory": "unclassified",
    "latitude": 34.781548825,
    "longitude": 72.3565877,
    "id": 445354748
  },
  {
    "name": "living_street",
    "category": "highway",
    "subcategory": "living_street",
    "latitude": 34.781889,
    "longitude": 72.35593625,
    "id": 445354749
  },
  {
    "name": "Saidu Sharif Road",
    "category": "highway",
    "subcategory": "tertiary",
    "latitude": 34.736838138461536,
    "longitude": 72.33700114615384,
    "id": 445432161
  },
  {
    "name": "اسلام پور",
    "category": "highway",
    "subcategory": "tertiary",
    "latitude": 34.726421884931504,
    "longitude": 72.33437426986302,
    "id": 445432421
  },
  {
    "name": "tertiary",
    "category": "highway",
    "subcategory": "tertiary",
    "latitude": 34.68988716541353,
    "longitude": 72.34396276691729,
    "id": 445432654
  },
  {
    "name": "secondary",
    "category": "highway",
    "subcategory": "secondary",
    "latitude": 34.75525631428572,
    "longitude": 72.35533957857143,
    "id": 445433385
  },
  {
    "name": "living_street",
    "category": "highway",
    "subcategory": "living_street",
    "latitude": 34.773737454545454,
    "longitude": 72.36031930909091,
    "id": 445434528
  },
  {
    "name": "living_street",
    "category": "highway",
    "subcategory": "living_street",
    "latitude": 34.774866223809525,
    "longitude": 72.35792406190477,
    "id": 445434530
  },
  {
    "name": "living_street",
    "category": "highway",
    "subcategory": "living_street",
    "latitude": 34.773274980000004,
    "longitude": 72.36209737,
    "id": 445434535
  },
  {
    "name": "living_street",
    "category": "highway",
    "subcategory": "living_street",
    "latitude": 34.77415433636364,
    "longitude": 72.3622604,
    "id": 445434536
  },
  {
    "name": "living_street",
    "category": "highway",
    "subcategory": "living_street",
    "latitude": 34.77256905,
    "longitude": 72.3612557125,
    "id": 445434539
  },
  {
    "name": "living_street",
    "category": "highway",
    "subcategory": "living_street",
    "latitude": 34.7729019,
    "longitude": 72.36098035,
    "id": 445434540
  },
  {
    "name": "secondary",
    "category": "highway",
    "subcategory": "secondary",
    "latitude": 34.779276482608694,
    "longitude": 72.36463256521739,
    "id": 445435373
  },
  {
    "name": "tertiary",
    "category": "highway",
    "subcategory": "tertiary",
    "latitude": 34.77736619444445,
    "longitude": 72.36776272777779,
    "id": 445435374
  },
  {
    "name": "tertiary",
    "category": "highway",
    "subcategory": "tertiary",
    "latitude": 34.773070088888886,
    "longitude": 72.36686068333333,
    "id": 445435375
  },
  {
    "name": "tertiary",
    "category": "highway",
    "subcategory": "tertiary",
    "latitude": 34.77463934,
    "longitude": 72.37118511599999,
    "id": 445435376
  },
  {
    "name": "living_street",
    "category": "highway",
    "subcategory": "living_street",
    "latitude": 34.78103279,
    "longitude": 72.37353506,
    "id": 445435377
  },
  {
    "name": "secondary",
    "category": "highway",
    "subcategory": "secondary",
    "latitude": 34.745817643537414,
    "longitude": 72.41376742653061,
    "id": 445435378
  },
  {
    "name": "residential",
    "category": "highway",
    "subcategory": "residential",
    "latitude": 34.76988492608696,
    "longitude": 72.35443561304348,
    "id": 445919125
  },
  {
    "name": "living_street",
    "category": "highway",
    "subcategory": "living_street",
    "latitude": 34.780952500000005,
    "longitude": 72.3570409,
    "id": 445937830
  },
  {
    "name": "St#3",
    "category": "highway",
    "subcategory": "living_street",
    "latitude": 34.76842717142857,
    "longitude": 72.36973657142858,
    "id": 445938485
  },
  {
    "name": "St#4",
    "category": "highway",
    "subcategory": "living_street",
    "latitude": 34.76818063333334,
    "longitude": 72.37028846666666,
    "id": 445938486
  },
  {
    "name": "St#5",
    "category": "highway",
    "subcategory": "living_street",
    "latitude": 34.7679207,
    "longitude": 72.3698105,
    "id": 445938487
  },
  {
    "name": "St#6",
    "category": "highway",
    "subcategory": "living_street",
    "latitude": 34.76774425714286,
    "longitude": 72.36984521428572,
    "id": 445938488
  },
  {
    "name": "St#7",
    "category": "highway",
    "subcategory": "living_street",
    "latitude": 34.7675651,
    "longitude": 72.369832125,
    "id": 445938489
  },
  {
    "name": "Mosque Street",
    "category": "highway",
    "subcategory": "living_street",
    "latitude": 34.76715323333334,
    "longitude": 72.36892073333333,
    "id": 445938490
  },
  {
    "name": "St#10",
    "category": "highway",
    "subcategory": "living_street",
    "latitude": 34.766887800000006,
    "longitude": 72.3690488,
    "id": 445938491
  },
  {
    "name": "living_street",
    "category": "highway",
    "subcategory": "living_street",
    "latitude": 34.75898225,
    "longitude": 72.3563117,
    "id": 445938492
  },
  {
    "name": "living_street",
    "category": "highway",
    "subcategory": "living_street",
    "latitude": 34.75929046666667,
    "longitude": 72.35546029999999,
    "id": 445938493
  },
  {
    "name": "residential",
    "category": "highway",
    "subcategory": "residential",
    "latitude": 34.758682625,
    "longitude": 72.35711480833334,
    "id": 445938494
  },
  {
    "name": "tertiary",
    "category": "highway",
    "subcategory": "tertiary",
    "latitude": 34.78360870454546,
    "longitude": 72.34650603636364,
    "id": 446077498
  },
  {
    "name": "secondary",
    "category": "highway",
    "subcategory": "secondary",
    "latitude": 34.777621735714284,
    "longitude": 72.35516040714286,
    "id": 446078350
  },
  {
    "name": "unclassified",
    "category": "highway",
    "subcategory": "unclassified",
    "latitude": 34.77716840714286,
    "longitude": 72.35637675714285,
    "id": 446078353
  },
  {
    "name": "living_street",
    "category": "highway",
    "subcategory": "living_street",
    "latitude": 34.776724824999995,
    "longitude": 72.355309625,
    "id": 446078355
  },
  {
    "name": "living_street",
    "category": "highway",
    "subcategory": "living_street",
    "latitude": 34.77642165,
    "longitude": 72.3550827,
    "id": 446078357
  },
  {
    "name": "living_street",
    "category": "highway",
    "subcategory": "living_street",
    "latitude": 34.77628775714286,
    "longitude": 72.35511568571428,
    "id": 446078359
  },
  {
    "name": "living_street",
    "category": "highway",
    "subcategory": "living_street",
    "latitude": 34.775987012499996,
    "longitude": 72.35535845,
    "id": 446078360
  },
  {
    "name": "living_street",
    "category": "highway",
    "subcategory": "living_street",
    "latitude": 34.77586545,
    "longitude": 72.35582637499999,
    "id": 446078361
  },
  {
    "name": "pedestrian",
    "category": "highway",
    "subcategory": "pedestrian",
    "latitude": 34.776672633333334,
    "longitude": 72.3537927,
    "id": 446078362
  },
  {
    "name": "living_street",
    "category": "highway",
    "subcategory": "living_street",
    "latitude": 34.7758129,
    "longitude": 72.3570285625,
    "id": 446078387
  },
  {
    "name": "living_street",
    "category": "highway",
    "subcategory": "living_street",
    "latitude": 34.77601415833333,
    "longitude": 72.357831725,
    "id": 446078388
  },
  {
    "name": "living_street",
    "category": "highway",
    "subcategory": "living_street",
    "latitude": 34.77258207368421,
    "longitude": 72.35870369473685,
    "id": 446078389
  },
  {
    "name": "living_street",
    "category": "highway",
    "subcategory": "living_street",
    "latitude": 34.7829027,
    "longitude": 72.3551035,
    "id": 446078764
  },
  {
    "name": "residential",
    "category": "highway",
    "subcategory": "residential",
    "latitude": 34.7742619,
    "longitude": 72.35653959166667,
    "id": 446078871
  },
  {
    "name": "living_street",
    "category": "highway",
    "subcategory": "living_street",
    "latitude": 34.77547170769231,
    "longitude": 72.35891802307692,
    "id": 446080048
  },
  {
    "name": "living_street",
    "category": "highway",
    "subcategory": "living_street",
    "latitude": 34.77541711,
    "longitude": 72.35916039,
    "id": 446080049
  },
  {
    "name": "Haji Qadar Gul Road",
    "category": "highway",
    "subcategory": "residential",
    "latitude": 34.768918078,
    "longitude": 72.362220928,
    "id": 446080051
  },
  {
    "name": "living_street",
    "category": "highway",
    "subcategory": "living_street",
    "latitude": 34.76964245,
    "longitude": 72.36402865833334,
    "id": 446080052
  },
  {
    "name": "living_street",
    "category": "highway",
    "subcategory": "living_street",
    "latitude": 34.770775900000004,
    "longitude": 72.36509858,
    "id": 446080053
  },
  {
    "name": "living_street",
    "category": "highway",
    "subcategory": "living_street",
    "latitude": 34.7686662,
    "longitude": 72.36282235,
    "id": 446080054
  },
  {
    "name": "living_street",
    "category": "highway",
    "subcategory": "living_street",
    "latitude": 34.769209724999996,
    "longitude": 72.362656125,
    "id": 446080055
  },
  {
    "name": "living_street",
    "category": "highway",
    "subcategory": "living_street",
    "latitude": 34.770061383333335,
    "longitude": 72.36241335,
    "id": 446080057
  },
  {
    "name": "living_street",
    "category": "highway",
    "subcategory": "living_street",
    "latitude": 34.77030965,
    "longitude": 72.36201289,
    "id": 446080058
  },
  {
    "name": "living_street",
    "category": "highway",
    "subcategory": "living_street",
    "latitude": 34.77133503333333,
    "longitude": 72.3619497888889,
    "id": 446080059
  },
  {
    "name": "pedestrian",
    "category": "highway",
    "subcategory": "pedestrian",
    "latitude": 34.771389666666664,
    "longitude": 72.3604068,
    "id": 446080061
  },
  {
    "name": "pedestrian",
    "category": "highway",
    "subcategory": "pedestrian",
    "latitude": 34.77137307142857,
    "longitude": 72.36062604285713,
    "id": 446080062
  },
  {
    "name": "path",
    "category": "highway",
    "subcategory": "path",
    "latitude": 34.771799475,
    "longitude": 72.360676875,
    "id": 446080063
  },
  {
    "name": "pedestrian",
    "category": "highway",
    "subcategory": "pedestrian",
    "latitude": 34.7712553,
    "longitude": 72.36131624444445,
    "id": 446080064
  },
  {
    "name": "pedestrian",
    "category": "highway",
    "subcategory": "pedestrian",
    "latitude": 34.771989366666666,
    "longitude": 72.36123429999999,
    "id": 446080065
  },
  {
    "name": "living_street",
    "category": "highway",
    "subcategory": "living_street",
    "latitude": 34.77501455,
    "longitude": 72.3662597,
    "id": 446080811
  },
  {
    "name": "living_street",
    "category": "highway",
    "subcategory": "living_street",
    "latitude": 34.77528003333333,
    "longitude": 72.36625438333333,
    "id": 446080812
  },
  {
    "name": "living_street",
    "category": "highway",
    "subcategory": "living_street",
    "latitude": 34.77559706666667,
    "longitude": 72.3667632,
    "id": 446080813
  },
  {
    "name": "living_street",
    "category": "highway",
    "subcategory": "living_street",
    "latitude": 34.775549455555556,
    "longitude": 72.36643462222223,
    "id": 446080814
  },
  {
    "name": "living_street",
    "category": "highway",
    "subcategory": "living_street",
    "latitude": 34.7763212,
    "longitude": 72.36588599090909,
    "id": 446080815
  },
  {
    "name": "living_street",
    "category": "highway",
    "subcategory": "living_street",
    "latitude": 34.779256575000005,
    "longitude": 72.365346525,
    "id": 446080817
  },
  {
    "name": "unclassified",
    "category": "highway",
    "subcategory": "unclassified",
    "latitude": 34.780103625,
    "longitude": 72.3650968,
    "id": 446080818
  },
  {
    "name": "unclassified",
    "category": "highway",
    "subcategory": "unclassified",
    "latitude": 34.7797907125,
    "longitude": 72.3656480875,
    "id": 446080819
  },
  {
    "name": "living_street",
    "category": "highway",
    "subcategory": "living_street",
    "latitude": 34.7779545375,
    "longitude": 72.363021375,
    "id": 446080823
  },
  {
    "name": "residential",
    "category": "highway",
    "subcategory": "residential",
    "latitude": 34.77882934666666,
    "longitude": 72.3625948,
    "id": 446081306
  },
  {
    "name": "unclassified",
    "category": "highway",
    "subcategory": "unclassified",
    "latitude": 34.78111447222222,
    "longitude": 72.36367269444445,
    "id": 446081307
  },
  {
    "name": "living_street",
    "category": "highway",
    "subcategory": "living_street",
    "latitude": 34.780096527272725,
    "longitude": 72.36944803030303,
    "id": 446081314
  },
  {
    "name": "living_street",
    "category": "highway",
    "subcategory": "living_street",
    "latitude": 34.7777355,
    "longitude": 72.36841452499999,
    "id": 446081319
  },
  {
    "name": "living_street",
    "category": "highway",
    "subcategory": "living_street",
    "latitude": 34.77855145,
    "longitude": 72.3687926,
    "id": 446081322
  },
  {
    "name": "unclassified",
    "category": "highway",
    "subcategory": "unclassified",
    "latitude": 34.77960933636364,
    "longitude": 72.36707742727273,
    "id": 446081333
  },
  {
    "name": "residential",
    "category": "highway",
    "subcategory": "residential",
    "latitude": 34.772649488235295,
    "longitude": 72.36410542352941,
    "id": 446081673
  },
  {
    "name": "living_street",
    "category": "highway",
    "subcategory": "living_street",
    "latitude": 34.77325948888889,
    "longitude": 72.36448764444444,
    "id": 446081674
  },
  {
    "name": "living_street",
    "category": "highway",
    "subcategory": "living_street",
    "latitude": 34.77257145,
    "longitude": 72.3642491,
    "id": 446081675
  },
  {
    "name": "living_street",
    "category": "highway",
    "subcategory": "living_street",
    "latitude": 34.77335525,
    "longitude": 72.36537983333334,
    "id": 446081676
  },
  {
    "name": "living_street",
    "category": "highway",
    "subcategory": "living_street",
    "latitude": 34.772756775,
    "longitude": 72.3660656375,
    "id": 446081678
  },
  {
    "name": "residential",
    "category": "highway",
    "subcategory": "residential",
    "latitude": 34.771864460869566,
    "longitude": 72.36462170869565,
    "id": 446081680
  },
  {
    "name": "living_street",
    "category": "highway",
    "subcategory": "living_street",
    "latitude": 34.77136285,
    "longitude": 72.3652736,
    "id": 446081681
  },
  {
    "name": "living_street",
    "category": "highway",
    "subcategory": "living_street",
    "latitude": 34.77263335,
    "longitude": 72.36582225000001,
    "id": 446081682
  },
  {
    "name": "unclassified",
    "category": "highway",
    "subcategory": "unclassified",
    "latitude": 34.7717156375,
    "longitude": 72.3667159125,
    "id": 446081906
  },
  {
    "name": "residential",
    "category": "highway",
    "subcategory": "residential",
    "latitude": 34.77260041,
    "longitude": 72.36803728999999,
    "id": 446081907
  },
  {
    "name": "living_street",
    "category": "highway",
    "subcategory": "living_street",
    "latitude": 34.774099771875,
    "longitude": 72.36834953125,
    "id": 446081908
  },
  {
    "name": "living_street",
    "category": "highway",
    "subcategory": "living_street",
    "latitude": 34.77047148571429,
    "longitude": 72.36858345714286,
    "id": 446082858
  },
  {
    "name": "Tablighy Markas Road",
    "category": "highway",
    "subcategory": "residential",
    "latitude": 34.767523534090905,
    "longitude": 72.35639397045455,
    "id": 446083128
  },
  {
    "name": "residential",
    "category": "highway",
    "subcategory": "residential",
    "latitude": 34.76736283333333,
    "longitude": 72.3594444,
    "id": 446083129
  },
  {
    "name": "residential",
    "category": "highway",
    "subcategory": "residential",
    "latitude": 34.7696394,
    "longitude": 72.35499999999999,
    "id": 446083131
  },
  {
    "name": "living_street",
    "category": "highway",
    "subcategory": "living_street",
    "latitude": 34.7682158,
    "longitude": 72.3544321,
    "id": 446083132
  },
  {
    "name": "living_street",
    "category": "highway",
    "subcategory": "living_street",
    "latitude": 34.767748399999995,
    "longitude": 72.35396146666666,
    "id": 446083133
  },
  {
    "name": "living_street",
    "category": "highway",
    "subcategory": "living_street",
    "latitude": 34.767293625,
    "longitude": 72.35414985,
    "id": 446083134
  },
  {
    "name": "living_street",
    "category": "highway",
    "subcategory": "living_street",
    "latitude": 34.7682761,
    "longitude": 72.35547545,
    "id": 446083135
  },
  {
    "name": "living_street",
    "category": "highway",
    "subcategory": "living_street",
    "latitude": 34.768037,
    "longitude": 72.355791525,
    "id": 446083136
  },
  {
    "name": "pedestrian",
    "category": "highway",
    "subcategory": "pedestrian",
    "latitude": 34.7681202,
    "longitude": 72.356707025,
    "id": 446083137
  },
  {
    "name": "residential",
    "category": "highway",
    "subcategory": "residential",
    "latitude": 34.76873154,
    "longitude": 72.3661234175,
    "id": 446992215
  },
  {
    "name": "living_street",
    "category": "highway",
    "subcategory": "living_street",
    "latitude": 34.7693697,
    "longitude": 72.366229525,
    "id": 446992711
  },
  {
    "name": "living_street",
    "category": "highway",
    "subcategory": "living_street",
    "latitude": 34.76940943333333,
    "longitude": 72.36566950000001,
    "id": 446992712
  },
  {
    "name": "living_street",
    "category": "highway",
    "subcategory": "living_street",
    "latitude": 34.76907155714286,
    "longitude": 72.36623717142858,
    "id": 446992716
  },
  {
    "name": "living_street",
    "category": "highway",
    "subcategory": "living_street",
    "latitude": 34.7694634375,
    "longitude": 72.3660453625,
    "id": 446992717
  },
  {
    "name": "living_street",
    "category": "highway",
    "subcategory": "living_street",
    "latitude": 34.769159,
    "longitude": 72.36613385000001,
    "id": 446992718
  },
  {
    "name": "living_street",
    "category": "highway",
    "subcategory": "living_street",
    "latitude": 34.7685648,
    "longitude": 72.36627936666666,
    "id": 446992726
  },
  {
    "name": "living_street",
    "category": "highway",
    "subcategory": "living_street",
    "latitude": 34.769067033333336,
    "longitude": 72.3643151,
    "id": 446992728
  },
  {
    "name": "living_street",
    "category": "highway",
    "subcategory": "living_street",
    "latitude": 34.76947876666667,
    "longitude": 72.36437253333334,
    "id": 446992729
  },
  {
    "name": "living_street",
    "category": "highway",
    "subcategory": "living_street",
    "latitude": 34.77065035,
    "longitude": 72.36594840000001,
    "id": 446992731
  },
  {
    "name": "living_street",
    "category": "highway",
    "subcategory": "living_street",
    "latitude": 34.770483260000006,
    "longitude": 72.36608792,
    "id": 446992733
  },
  {
    "name": "living_street",
    "category": "highway",
    "subcategory": "living_street",
    "latitude": 34.77030404,
    "longitude": 72.36649437999999,
    "id": 446992734
  },
  {
    "name": "Khwaja Abad",
    "category": "highway",
    "subcategory": "residential",
    "latitude": 34.76757692352941,
    "longitude": 72.37643843235294,
    "id": 446999763
  },
  {
    "name": "living_street",
    "category": "highway",
    "subcategory": "living_street",
    "latitude": 34.766042666666664,
    "longitude": 72.37540601666666,
    "id": 447000577
  },
  {
    "name": "living_street",
    "category": "highway",
    "subcategory": "living_street",
    "latitude": 34.76578417142857,
    "longitude": 72.37602445714286,
    "id": 447000579
  },
  {
    "name": "living_street",
    "category": "highway",
    "subcategory": "living_street",
    "latitude": 34.76543527407407,
    "longitude": 72.37732955185186,
    "id": 447000581
  },
  {
    "name": "living_street",
    "category": "highway",
    "subcategory": "living_street",
    "latitude": 34.764091433333334,
    "longitude": 72.37604361111111,
    "id": 447000582
  },
  {
    "name": "living_street",
    "category": "highway",
    "subcategory": "living_street",
    "latitude": 34.7634257,
    "longitude": 72.37617387142856,
    "id": 447000583
  },
  {
    "name": "living_street",
    "category": "highway",
    "subcategory": "living_street",
    "latitude": 34.7634123875,
    "longitude": 72.3766919625,
    "id": 447000584
  },
  {
    "name": "living_street",
    "category": "highway",
    "subcategory": "living_street",
    "latitude": 34.76315696666666,
    "longitude": 72.3771378,
    "id": 447000585
  },
  {
    "name": "living_street",
    "category": "highway",
    "subcategory": "living_street",
    "latitude": 34.762820233333336,
    "longitude": 72.37737766666667,
    "id": 447000586
  },
  {
    "name": "living_street",
    "category": "highway",
    "subcategory": "living_street",
    "latitude": 34.763075557142855,
    "longitude": 72.3789797952381,
    "id": 447000587
  },
  {
    "name": "living_street",
    "category": "highway",
    "subcategory": "living_street",
    "latitude": 34.7660142,
    "longitude": 72.37285045,
    "id": 447000588
  },
  {
    "name": "living_street",
    "category": "highway",
    "subcategory": "living_street",
    "latitude": 34.766145949999995,
    "longitude": 72.37319045000001,
    "id": 447000589
  },
  {
    "name": "living_street",
    "category": "highway",
    "subcategory": "living_street",
    "latitude": 34.76631166666667,
    "longitude": 72.37398083333333,
    "id": 447000590
  },
  {
    "name": "living_street",
    "category": "highway",
    "subcategory": "living_street",
    "latitude": 34.7684997125,
    "longitude": 72.371877025,
    "id": 447000591
  },
  {
    "name": "living_street",
    "category": "highway",
    "subcategory": "living_street",
    "latitude": 34.76907545,
    "longitude": 72.37131744999999,
    "id": 447000593
  },
  {
    "name": "حاجی بابا روڈ",
    "category": "highway",
    "subcategory": "secondary",
    "latitude": 34.7694167,
    "longitude": 72.36759549047619,
    "id": 447002451
  },
  {
    "name": "living_street",
    "category": "highway",
    "subcategory": "living_street",
    "latitude": 34.784398833333334,
    "longitude": 72.35850001666667,
    "id": 447002452
  },
  {
    "name": "living_street",
    "category": "highway",
    "subcategory": "living_street",
    "latitude": 34.7854842,
    "longitude": 72.35857096666666,
    "id": 447002453
  },
  {
    "name": "residential",
    "category": "highway",
    "subcategory": "residential",
    "latitude": 34.78417434285714,
    "longitude": 72.35762732857143,
    "id": 447002454
  },
  {
    "name": "residential",
    "category": "highway",
    "subcategory": "residential",
    "latitude": 34.784659647058824,
    "longitude": 72.36034531764706,
    "id": 447002455
  },
  {
    "name": "living_street",
    "category": "highway",
    "subcategory": "living_street",
    "latitude": 34.783687625,
    "longitude": 72.35990220000001,
    "id": 447002459
  },
  {
    "name": "living_street",
    "category": "highway",
    "subcategory": "living_street",
    "latitude": 34.78354143333333,
    "longitude": 72.35982113333334,
    "id": 447002460
  },
  {
    "name": "living_street",
    "category": "highway",
    "subcategory": "living_street",
    "latitude": 34.78325761666667,
    "longitude": 72.3591151,
    "id": 447002461
  },
  {
    "name": "living_street",
    "category": "highway",
    "subcategory": "living_street",
    "latitude": 34.783700925,
    "longitude": 72.360564275,
    "id": 447002462
  },
  {
    "name": "living_street",
    "category": "highway",
    "subcategory": "living_street",
    "latitude": 34.7831634,
    "longitude": 72.35969060000001,
    "id": 447002463
  },
  {
    "name": "living_street",
    "category": "highway",
    "subcategory": "living_street",
    "latitude": 34.782652075,
    "longitude": 72.35815025,
    "id": 447002464
  },
  {
    "name": "living_street",
    "category": "highway",
    "subcategory": "living_street",
    "latitude": 34.7823828,
    "longitude": 72.358201275,
    "id": 447002465
  },
  {
    "name": "living_street",
    "category": "highway",
    "subcategory": "living_street",
    "latitude": 34.782470133333334,
    "longitude": 72.3596567,
    "id": 447002466
  },
  {
    "name": "living_street",
    "category": "highway",
    "subcategory": "living_street",
    "latitude": 34.781667425,
    "longitude": 72.358650825,
    "id": 447002467
  },
  {
    "name": "living_street",
    "category": "highway",
    "subcategory": "living_street",
    "latitude": 34.780646825000005,
    "longitude": 72.35901675,
    "id": 447002908
  },
  {
    "name": "living_street",
    "category": "highway",
    "subcategory": "living_street",
    "latitude": 34.78127935,
    "longitude": 72.35882935000001,
    "id": 447002910
  },
  {
    "name": "living_street",
    "category": "highway",
    "subcategory": "living_street",
    "latitude": 34.78086185,
    "longitude": 72.3583447,
    "id": 447002911
  },
  {
    "name": "living_street",
    "category": "highway",
    "subcategory": "living_street",
    "latitude": 34.78084854,
    "longitude": 72.35891308000001,
    "id": 447002912
  },
  {
    "name": "unclassified",
    "category": "highway",
    "subcategory": "unclassified",
    "latitude": 34.7775574,
    "longitude": 72.35777726666667,
    "id": 447002915
  },
  {
    "name": "living_street",
    "category": "highway",
    "subcategory": "living_street",
    "latitude": 34.76822552857143,
    "longitude": 72.36405397142858,
    "id": 447007133
  },
  {
    "name": "living_street",
    "category": "highway",
    "subcategory": "living_street",
    "latitude": 34.76811412,
    "longitude": 72.36343222,
    "id": 447007134
  },
  {
    "name": "residential",
    "category": "highway",
    "subcategory": "residential",
    "latitude": 34.76928085,
    "longitude": 72.36486275,
    "id": 447007135
  },
  {
    "name": "Sharif-Abad Makan-Bagh Road",
    "category": "highway",
    "subcategory": "tertiary",
    "latitude": 34.76728176428571,
    "longitude": 72.36648892857143,
    "id": 447007136
  },
  {
    "name": "Makan Bagh Road",
    "category": "highway",
    "subcategory": "primary",
    "latitude": 34.76969024444444,
    "longitude": 72.35987432222221,
    "id": 447007138
  },
  {
    "name": "residential",
    "category": "highway",
    "subcategory": "residential",
    "latitude": 34.770491830000005,
    "longitude": 72.36039489,
    "id": 447007251
  },
  {
    "name": "living_street",
    "category": "highway",
    "subcategory": "living_street",
    "latitude": 34.769713960000004,
    "longitude": 72.36091968000001,
    "id": 447007252
  },
  {
    "name": "living_street",
    "category": "highway",
    "subcategory": "living_street",
    "latitude": 34.768863075,
    "longitude": 72.360996825,
    "id": 447007253
  },
  {
    "name": "living_street",
    "category": "highway",
    "subcategory": "living_street",
    "latitude": 34.76839843333334,
    "longitude": 72.3613692,
    "id": 447007254
  },
  {
    "name": "living_street",
    "category": "highway",
    "subcategory": "living_street",
    "latitude": 34.768146699999996,
    "longitude": 72.3616497,
    "id": 447007255
  },
  {
    "name": "living_street",
    "category": "highway",
    "subcategory": "living_street",
    "latitude": 34.76810725,
    "longitude": 72.36193564999999,
    "id": 447007256
  },
  {
    "name": "living_street",
    "category": "highway",
    "subcategory": "living_street",
    "latitude": 34.767747650000004,
    "longitude": 72.36243015,
    "id": 447007257
  },
  {
    "name": "pedestrian",
    "category": "highway",
    "subcategory": "pedestrian",
    "latitude": 34.7715749875,
    "longitude": 72.3617449875,
    "id": 447007872
  },
  {
    "name": "living_street",
    "category": "highway",
    "subcategory": "living_street",
    "latitude": 34.770390475,
    "longitude": 72.36529015,
    "id": 447007874
  },
  {
    "name": "living_street",
    "category": "highway",
    "subcategory": "living_street",
    "latitude": 34.770364650000005,
    "longitude": 72.36577205,
    "id": 447008187
  },
  {
    "name": "living_street",
    "category": "highway",
    "subcategory": "living_street",
    "latitude": 34.7634108,
    "longitude": 72.31966941190477,
    "id": 447685966
  },
  {
    "name": "living_street",
    "category": "highway",
    "subcategory": "living_street",
    "latitude": 34.764647966666665,
    "longitude": 72.32376538333334,
    "id": 447685967
  },
  {
    "name": "living_street",
    "category": "highway",
    "subcategory": "living_street",
    "latitude": 34.76383562857143,
    "longitude": 72.3232162,
    "id": 447685968
  },
  {
    "name": "living_street",
    "category": "highway",
    "subcategory": "living_street",
    "latitude": 34.7629406,
    "longitude": 72.32126435,
    "id": 447685969
  },
  {
    "name": "living_street",
    "category": "highway",
    "subcategory": "living_street",
    "latitude": 34.7625743,
    "longitude": 72.3205676,
    "id": 447685970
  },
  {
    "name": "residential",
    "category": "highway",
    "subcategory": "residential",
    "latitude": 34.758055066666664,
    "longitude": 72.31790538333333,
    "id": 447685971
  },
  {
    "name": "living_street",
    "category": "highway",
    "subcategory": "living_street",
    "latitude": 34.76436276666667,
    "longitude": 72.325544225,
    "id": 447685972
  },
  {
    "name": "living_street",
    "category": "highway",
    "subcategory": "living_street",
    "latitude": 34.76388429642857,
    "longitude": 72.37229358214286,
    "id": 447686318
  },
  {
    "name": "living_street",
    "category": "highway",
    "subcategory": "living_street",
    "latitude": 34.7620791,
    "longitude": 72.37967219999999,
    "id": 447686475
  },
  {
    "name": "living_street",
    "category": "highway",
    "subcategory": "living_street",
    "latitude": 34.762310209999995,
    "longitude": 72.38023681,
    "id": 447686476
  },
  {
    "name": "living_street",
    "category": "highway",
    "subcategory": "living_street",
    "latitude": 34.769837085714286,
    "longitude": 72.36873735714286,
    "id": 447687797
  },
  {
    "name": "grave_yard",
    "category": "amenity",
    "subcategory": "grave_yard",
    "latitude": 34.77103204583333,
    "longitude": 72.36776087916667,
    "id": 447687800
  },
  {
    "name": "living_street",
    "category": "highway",
    "subcategory": "living_street",
    "latitude": 34.765317152173914,
    "longitude": 72.36705759130435,
    "id": 447688625
  },
  {
    "name": "living_street",
    "category": "highway",
    "subcategory": "living_street",
    "latitude": 34.76502178571429,
    "longitude": 72.36633444285714,
    "id": 447688626
  },
  {
    "name": "فاروق اعظم مسجد گلی",
    "category": "highway",
    "subcategory": "living_street",
    "latitude": 34.76554470909091,
    "longitude": 72.36755391818181,
    "id": 447688627
  },
  {
    "name": "living_street",
    "category": "highway",
    "subcategory": "living_street",
    "latitude": 34.76451319333333,
    "longitude": 72.36837664,
    "id": 447688628
  },
  {
    "name": "living_street",
    "category": "highway",
    "subcategory": "living_street",
    "latitude": 34.76359195,
    "longitude": 72.36871491666666,
    "id": 447688629
  },
  {
    "name": "living_street",
    "category": "highway",
    "subcategory": "living_street",
    "latitude": 34.763660675,
    "longitude": 72.3682187,
    "id": 447688630
  },
  {
    "name": "living_street",
    "category": "highway",
    "subcategory": "living_street",
    "latitude": 34.763809916666666,
    "longitude": 72.3678914,
    "id": 447688631
  },
  {
    "name": "living_street",
    "category": "highway",
    "subcategory": "living_street",
    "latitude": 34.763532925,
    "longitude": 72.36733255,
    "id": 447688632
  },
  {
    "name": "living_street",
    "category": "highway",
    "subcategory": "living_street",
    "latitude": 34.764691150000004,
    "longitude": 72.36958394999999,
    "id": 447688633
  },
  {
    "name": "living_street",
    "category": "highway",
    "subcategory": "living_street",
    "latitude": 34.7644136,
    "longitude": 72.36988565,
    "id": 447688634
  },
  {
    "name": "living_street",
    "category": "highway",
    "subcategory": "living_street",
    "latitude": 34.7649671,
    "longitude": 72.36878147499999,
    "id": 447688635
  },
  {
    "name": "living_street",
    "category": "highway",
    "subcategory": "living_street",
    "latitude": 34.76551575,
    "longitude": 72.3704963,
    "id": 447688636
  },
  {
    "name": "living_street",
    "category": "highway",
    "subcategory": "living_street",
    "latitude": 34.764935699999995,
    "longitude": 72.3710117,
    "id": 447688637
  },
  {
    "name": "living_street",
    "category": "highway",
    "subcategory": "living_street",
    "latitude": 34.7640581,
    "longitude": 72.37149885,
    "id": 447688638
  },
  {
    "name": "living_street",
    "category": "highway",
    "subcategory": "living_street",
    "latitude": 34.7634106,
    "longitude": 72.371711,
    "id": 447688639
  },
  {
    "name": "tertiary",
    "category": "highway",
    "subcategory": "tertiary",
    "latitude": 34.76314944074074,
    "longitude": 72.36614228333333,
    "id": 447689962
  },
  {
    "name": "tertiary",
    "category": "highway",
    "subcategory": "tertiary",
    "latitude": 34.75460266190476,
    "longitude": 72.37834725714285,
    "id": 447689963
  },
  {
    "name": "living_street",
    "category": "highway",
    "subcategory": "living_street",
    "latitude": 34.76725166666667,
    "longitude": 72.37115147777779,
    "id": 447690785
  },
  {
    "name": "living_street",
    "category": "highway",
    "subcategory": "living_street",
    "latitude": 34.7671692125,
    "longitude": 72.371592975,
    "id": 447690788
  },
  {
    "name": "living_street",
    "category": "highway",
    "subcategory": "living_street",
    "latitude": 34.767444075,
    "longitude": 72.37090595000001,
    "id": 447690790
  },
  {
    "name": "living_street",
    "category": "highway",
    "subcategory": "living_street",
    "latitude": 34.76819824,
    "longitude": 72.37094568,
    "id": 447690791
  },
  {
    "name": "tertiary",
    "category": "highway",
    "subcategory": "tertiary",
    "latitude": 34.76576616,
    "longitude": 72.35409230666666,
    "id": 447692447
  },
  {
    "name": "living_street",
    "category": "highway",
    "subcategory": "living_street",
    "latitude": 34.766960825,
    "longitude": 72.35108170000001,
    "id": 447692450
  },
  {
    "name": "living_street",
    "category": "highway",
    "subcategory": "living_street",
    "latitude": 34.77203946666666,
    "longitude": 72.36172083333334,
    "id": 447694530
  },
  {
    "name": "pedestrian",
    "category": "highway",
    "subcategory": "pedestrian",
    "latitude": 34.77165095,
    "longitude": 72.36142095,
    "id": 447694532
  },
  {
    "name": "path",
    "category": "highway",
    "subcategory": "path",
    "latitude": 34.771407550000006,
    "longitude": 72.3615322,
    "id": 447694533
  },
  {
    "name": "marketplace",
    "category": "amenity",
    "subcategory": "marketplace",
    "latitude": 34.77159684666666,
    "longitude": 72.36134449333333,
    "id": 447694535
  },
  {
    "name": "grave_yard",
    "category": "amenity",
    "subcategory": "grave_yard",
    "latitude": 34.779071792857145,
    "longitude": 72.36213976428571,
    "id": 447695197
  },
  {
    "name": "Dehrai",
    "category": "landuse",
    "subcategory": "residential",
    "latitude": 34.767415525,
    "longitude": 72.37110165,
    "id": 447696226
  },
  {
    "name": "living_street",
    "category": "highway",
    "subcategory": "living_street",
    "latitude": 34.76516815,
    "longitude": 72.3753289375,
    "id": 448270930
  },
  {
    "name": "living_street",
    "category": "highway",
    "subcategory": "living_street",
    "latitude": 34.76543848,
    "longitude": 72.36026202000001,
    "id": 449089034
  },
  {
    "name": "living_street",
    "category": "highway",
    "subcategory": "living_street",
    "latitude": 34.765460733333335,
    "longitude": 72.36099116666666,
    "id": 449089035
  },
  {
    "name": "living_street",
    "category": "highway",
    "subcategory": "living_street",
    "latitude": 34.7653182,
    "longitude": 72.36149911666666,
    "id": 449089036
  },
  {
    "name": "living_street",
    "category": "highway",
    "subcategory": "living_street",
    "latitude": 34.765540220000005,
    "longitude": 72.36223046,
    "id": 449089037
  },
  {
    "name": "living_street",
    "category": "highway",
    "subcategory": "living_street",
    "latitude": 34.76610804285714,
    "longitude": 72.36208578571429,
    "id": 449089038
  },
  {
    "name": "living_street",
    "category": "highway",
    "subcategory": "living_street",
    "latitude": 34.7662902,
    "longitude": 72.36247195,
    "id": 449089039
  },
  {
    "name": "living_street",
    "category": "highway",
    "subcategory": "living_street",
    "latitude": 34.76484624,
    "longitude": 72.36327372000001,
    "id": 449089040
  },
  {
    "name": "living_street",
    "category": "highway",
    "subcategory": "living_street",
    "latitude": 34.765512425,
    "longitude": 72.363886325,
    "id": 449089041
  },
  {
    "name": "living_street",
    "category": "highway",
    "subcategory": "living_street",
    "latitude": 34.76580554444445,
    "longitude": 72.36412986666667,
    "id": 449089042
  },
  {
    "name": "living_street",
    "category": "highway",
    "subcategory": "living_street",
    "latitude": 34.76659663333333,
    "longitude": 72.36311690000001,
    "id": 449089043
  },
  {
    "name": "Khepal Kor Foundation Ground",
    "category": "amenity",
    "subcategory": "college",
    "latitude": 34.7674406,
    "longitude": 72.3609995625,
    "id": 449089840
  },
  {
    "name": "living_street",
    "category": "highway",
    "subcategory": "living_street",
    "latitude": 34.76775263333334,
    "longitude": 72.3646127,
    "id": 449090758
  },
  {
    "name": "living_street",
    "category": "highway",
    "subcategory": "living_street",
    "latitude": 34.7678059,
    "longitude": 72.36419463333334,
    "id": 449090759
  },
  {
    "name": "living_street",
    "category": "highway",
    "subcategory": "living_street",
    "latitude": 34.76789114,
    "longitude": 72.36405396,
    "id": 449090760
  },
  {
    "name": "living_street",
    "category": "highway",
    "subcategory": "living_street",
    "latitude": 34.767452899999995,
    "longitude": 72.36491945,
    "id": 449091501
  },
  {
    "name": "living_street",
    "category": "highway",
    "subcategory": "living_street",
    "latitude": 34.767317750000004,
    "longitude": 72.36480230000001,
    "id": 449091502
  },
  {
    "name": "living_street",
    "category": "highway",
    "subcategory": "living_street",
    "latitude": 34.76724485,
    "longitude": 72.36466920000001,
    "id": 449091503
  },
  {
    "name": "living_street",
    "category": "highway",
    "subcategory": "living_street",
    "latitude": 34.768757750000006,
    "longitude": 72.3612468,
    "id": 449091505
  },
  {
    "name": "living_street",
    "category": "highway",
    "subcategory": "living_street",
    "latitude": 34.76912795,
    "longitude": 72.3608612,
    "id": 449091506
  },
  {
    "name": "residential",
    "category": "highway",
    "subcategory": "residential",
    "latitude": 34.77425229285714,
    "longitude": 72.35216141785715,
    "id": 449094436
  },
  {
    "name": "unclassified",
    "category": "highway",
    "subcategory": "unclassified",
    "latitude": 34.7747545,
    "longitude": 72.350470125,
    "id": 449094437
  },
  {
    "name": "residential",
    "category": "highway",
    "subcategory": "residential",
    "latitude": 34.78026245,
    "longitude": 72.35333908125,
    "id": 449094440
  },
  {
    "name": "residential",
    "category": "highway",
    "subcategory": "residential",
    "latitude": 34.7608883,
    "longitude": 72.38841368064516,
    "id": 449325755
  },
  {
    "name": "living_street",
    "category": "highway",
    "subcategory": "living_street",
    "latitude": 34.75945383333333,
    "longitude": 72.38549016666667,
    "id": 449325756
  },
  {
    "name": "living_street",
    "category": "highway",
    "subcategory": "living_street",
    "latitude": 34.759530999999996,
    "longitude": 72.385823375,
    "id": 449325758
  },
  {
    "name": "living_street",
    "category": "highway",
    "subcategory": "living_street",
    "latitude": 34.75974763333333,
    "longitude": 72.38608006666668,
    "id": 449325759
  },
  {
    "name": "living_street",
    "category": "highway",
    "subcategory": "living_street",
    "latitude": 34.75985688,
    "longitude": 72.3863728,
    "id": 449325761
  },
  {
    "name": "living_street",
    "category": "highway",
    "subcategory": "living_street",
    "latitude": 34.76119279,
    "longitude": 72.38653815,
    "id": 449325762
  },
  {
    "name": "living_street",
    "category": "highway",
    "subcategory": "living_street",
    "latitude": 34.759928,
    "longitude": 72.38668899999999,
    "id": 449325764
  },
  {
    "name": "living_street",
    "category": "highway",
    "subcategory": "living_street",
    "latitude": 34.7601053,
    "longitude": 72.3873352,
    "id": 449325765
  },
  {
    "name": "living_street",
    "category": "highway",
    "subcategory": "living_street",
    "latitude": 34.7602155,
    "longitude": 72.3876414,
    "id": 449325767
  },
  {
    "name": "living_street",
    "category": "highway",
    "subcategory": "living_street",
    "latitude": 34.7609106,
    "longitude": 72.388574425,
    "id": 449325768
  },
  {
    "name": "living_street",
    "category": "highway",
    "subcategory": "living_street",
    "latitude": 34.76050725,
    "longitude": 72.38890255,
    "id": 449325770
  },
  {
    "name": "living_street",
    "category": "highway",
    "subcategory": "living_street",
    "latitude": 34.760411000000005,
    "longitude": 72.38852,
    "id": 449325771
  },
  {
    "name": "living_street",
    "category": "highway",
    "subcategory": "living_street",
    "latitude": 34.76101445,
    "longitude": 72.389601,
    "id": 449325773
  },
  {
    "name": "living_street",
    "category": "highway",
    "subcategory": "living_street",
    "latitude": 34.7591692,
    "longitude": 72.38526060000001,
    "id": 449325774
  },
  {
    "name": "Naeem Coloney",
    "category": "landuse",
    "subcategory": "residential",
    "latitude": 34.760736636842104,
    "longitude": 72.38338741578947,
    "id": 449326016
  },
  {
    "name": "playground",
    "category": "leisure",
    "subcategory": "playground",
    "latitude": 34.760617159999995,
    "longitude": 72.38481443999999,
    "id": 449326175
  },
  {
    "name": "living_street",
    "category": "highway",
    "subcategory": "living_street",
    "latitude": 34.7651028,
    "longitude": 72.36478306666667,
    "id": 449326965
  },
  {
    "name": "living_street",
    "category": "highway",
    "subcategory": "living_street",
    "latitude": 34.76486671428571,
    "longitude": 72.36603175714285,
    "id": 449326966
  },
  {
    "name": "pedestrian",
    "category": "highway",
    "subcategory": "pedestrian",
    "latitude": 34.766325280000004,
    "longitude": 72.366689,
    "id": 449326967
  },
  {
    "name": "residential",
    "category": "highway",
    "subcategory": "residential",
    "latitude": 34.76858465,
    "longitude": 72.36030155,
    "id": 450090581
  },
  {
    "name": "residential",
    "category": "highway",
    "subcategory": "residential",
    "latitude": 34.76822865555555,
    "longitude": 72.36123492222222,
    "id": 450090895
  },
  {
    "name": "Sultan Tower",
    "category": "landuse",
    "subcategory": "commercial",
    "latitude": 34.76710884,
    "longitude": 72.35916619999999,
    "id": 450091678
  },
  {
    "name": "commercial",
    "category": "landuse",
    "subcategory": "commercial",
    "latitude": 34.76510088888889,
    "longitude": 72.35946274444444,
    "id": 450091681
  },
  {
    "name": "cemetery",
    "category": "landuse",
    "subcategory": "cemetery",
    "latitude": 34.76591248333333,
    "longitude": 72.35968438333333,
    "id": 450091682
  },
  {
    "name": "residential",
    "category": "highway",
    "subcategory": "residential",
    "latitude": 34.76690725,
    "longitude": 72.35527747500001,
    "id": 450093160
  },
  {
    "name": "residential",
    "category": "highway",
    "subcategory": "residential",
    "latitude": 34.769656365,
    "longitude": 72.35729777,
    "id": 450093161
  },
  {
    "name": "residential",
    "category": "highway",
    "subcategory": "residential",
    "latitude": 34.7699264,
    "longitude": 72.35548969999999,
    "id": 450093162
  },
  {
    "name": "residential",
    "category": "highway",
    "subcategory": "residential",
    "latitude": 34.7703709,
    "longitude": 72.35729554,
    "id": 450093163
  },
  {
    "name": "residential",
    "category": "highway",
    "subcategory": "residential",
    "latitude": 34.77023,
    "longitude": 72.35556835,
    "id": 450093164
  },
  {
    "name": "residential",
    "category": "highway",
    "subcategory": "residential",
    "latitude": 34.770100299999996,
    "longitude": 72.3574649,
    "id": 450093165
  },
  {
    "name": "path",
    "category": "highway",
    "subcategory": "path",
    "latitude": 34.77095655,
    "longitude": 72.35931963125,
    "id": 450093166
  },
  {
    "name": "living_street",
    "category": "highway",
    "subcategory": "living_street",
    "latitude": 34.76843731666667,
    "longitude": 72.35798186666666,
    "id": 450093167
  },
  {
    "name": "living_street",
    "category": "highway",
    "subcategory": "living_street",
    "latitude": 34.76068020555555,
    "longitude": 72.35672684444444,
    "id": 450094149
  },
  {
    "name": "university",
    "category": "amenity",
    "subcategory": "university",
    "latitude": 34.75602182222222,
    "longitude": 72.35744304444444,
    "id": 450094150
  },
  {
    "name": "residential",
    "category": "landuse",
    "subcategory": "residential",
    "latitude": 34.754367439999996,
    "longitude": 72.35672512,
    "id": 450094151
  },
  {
    "name": "Saidu Medical College",
    "category": "amenity",
    "subcategory": "college",
    "latitude": 34.75155623333333,
    "longitude": 72.3563114,
    "id": 450094153
  },
  {
    "name": "Saidu Group of Teaching Hospital",
    "category": "amenity",
    "subcategory": "hospital",
    "latitude": 34.74972692666667,
    "longitude": 72.35610493333334,
    "id": 450094154
  },
  {
    "name": "college",
    "category": "amenity",
    "subcategory": "college",
    "latitude": 34.75531661428572,
    "longitude": 72.35820488571429,
    "id": 450094915
  },
  {
    "name": "residential",
    "category": "landuse",
    "subcategory": "residential",
    "latitude": 34.75584130625,
    "longitude": 72.35926326875,
    "id": 450094916
  },
  {
    "name": "park",
    "category": "leisure",
    "subcategory": "park",
    "latitude": 34.75711021428571,
    "longitude": 72.35999771428571,
    "id": 450094917
  },
  {
    "name": "hospital",
    "category": "amenity",
    "subcategory": "hospital",
    "latitude": 34.757896075,
    "longitude": 72.35902751875,
    "id": 450094918
  },
  {
    "name": "grave_yard",
    "category": "amenity",
    "subcategory": "grave_yard",
    "latitude": 34.76110774285714,
    "longitude": 72.35933384285714,
    "id": 450094919
  },
  {
    "name": "ajaeb ghar",
    "category": "tourism",
    "subcategory": "museum",
    "latitude": 34.76372399090909,
    "longitude": 72.35921616363636,
    "id": 450094924
  },
  {
    "name": "government",
    "category": "office",
    "subcategory": "government",
    "latitude": 34.76401908333333,
    "longitude": 72.36106260833334,
    "id": 450094925
  },
  {
    "name": "living_street",
    "category": "highway",
    "subcategory": "living_street",
    "latitude": 34.765130742857146,
    "longitude": 72.36350401428571,
    "id": 450094926
  },
  {
    "name": "Butkara Stupa",
    "category": "tourism",
    "subcategory": "museum",
    "latitude": 34.765837787500004,
    "longitude": 72.36777475,
    "id": 450094928
  },
  {
    "name": "tertiary",
    "category": "highway",
    "subcategory": "tertiary",
    "latitude": 34.75156681111111,
    "longitude": 72.35824521111111,
    "id": 452268951
  },
  {
    "name": "living_street",
    "category": "highway",
    "subcategory": "living_street",
    "latitude": 34.754533125,
    "longitude": 72.360402675,
    "id": 452268954
  },
  {
    "name": "residential",
    "category": "highway",
    "subcategory": "residential",
    "latitude": 34.75382856666667,
    "longitude": 72.35869530000001,
    "id": 452268955
  },
  {
    "name": "living_street",
    "category": "highway",
    "subcategory": "living_street",
    "latitude": 34.755239800000005,
    "longitude": 72.36131642857143,
    "id": 452268956
  },
  {
    "name": "living_street",
    "category": "highway",
    "subcategory": "living_street",
    "latitude": 34.755250399999994,
    "longitude": 72.36055385,
    "id": 452268957
  },
  {
    "name": "living_street",
    "category": "highway",
    "subcategory": "living_street",
    "latitude": 34.754373975,
    "longitude": 72.362076625,
    "id": 452268958
  },
  {
    "name": "living_street",
    "category": "highway",
    "subcategory": "living_street",
    "latitude": 34.756313375000005,
    "longitude": 72.3619961,
    "id": 452268959
  },
  {
    "name": "residential",
    "category": "highway",
    "subcategory": "residential",
    "latitude": 34.75312276666667,
    "longitude": 72.35951115,
    "id": 452269560
  },
  {
    "name": "residential",
    "category": "highway",
    "subcategory": "residential",
    "latitude": 34.75267964347826,
    "longitude": 72.36166926521739,
    "id": 452269561
  },
  {
    "name": "living_street",
    "category": "highway",
    "subcategory": "living_street",
    "latitude": 34.7536193,
    "longitude": 72.35982225000001,
    "id": 452269952
  },
  {
    "name": "living_street",
    "category": "highway",
    "subcategory": "living_street",
    "latitude": 34.7534628,
    "longitude": 72.36011255,
    "id": 452269954
  },
  {
    "name": "living_street",
    "category": "highway",
    "subcategory": "living_street",
    "latitude": 34.752155699999996,
    "longitude": 72.35909099090908,
    "id": 452270270
  },
  {
    "name": "residential",
    "category": "highway",
    "subcategory": "residential",
    "latitude": 34.75135041666667,
    "longitude": 72.35898715,
    "id": 452270272
  },
  {
    "name": "living_street",
    "category": "highway",
    "subcategory": "living_street",
    "latitude": 34.751033500000005,
    "longitude": 72.359218,
    "id": 452270273
  },
  {
    "name": "living_street",
    "category": "highway",
    "subcategory": "living_street",
    "latitude": 34.7513346,
    "longitude": 72.35919893333333,
    "id": 452270274
  },
  {
    "name": "living_street",
    "category": "highway",
    "subcategory": "living_street",
    "latitude": 34.75108118,
    "longitude": 72.36131363333334,
    "id": 452270275
  },
  {
    "name": "residential",
    "category": "highway",
    "subcategory": "residential",
    "latitude": 34.750644375,
    "longitude": 72.3593303,
    "id": 452270276
  },
  {
    "name": "residential",
    "category": "highway",
    "subcategory": "residential",
    "latitude": 34.74949084285714,
    "longitude": 72.36052148571429,
    "id": 452270277
  },
  {
    "name": "secondary",
    "category": "highway",
    "subcategory": "secondary",
    "latitude": 34.7847549,
    "longitude": 72.33729688709677,
    "id": 453261041
  },
  {
    "name": "residential",
    "category": "highway",
    "subcategory": "residential",
    "latitude": 34.7726229,
    "longitude": 72.34141107307693,
    "id": 454011956
  },
  {
    "name": "residential",
    "category": "highway",
    "subcategory": "residential",
    "latitude": 34.770690781249996,
    "longitude": 72.336305125,
    "id": 454011958
  },
  {
    "name": "unclassified",
    "category": "highway",
    "subcategory": "unclassified",
    "latitude": 34.77158021666667,
    "longitude": 72.33737785,
    "id": 454011959
  },
  {
    "name": "service",
    "category": "highway",
    "subcategory": "service",
    "latitude": 34.771746199999995,
    "longitude": 72.33743525,
    "id": 454011960
  },
  {
    "name": "service",
    "category": "highway",
    "subcategory": "service",
    "latitude": 34.77168435,
    "longitude": 72.33728475000001,
    "id": 454011961
  },
  {
    "name": "service",
    "category": "highway",
    "subcategory": "service",
    "latitude": 34.77150455,
    "longitude": 72.3368561,
    "id": 454011962
  },
  {
    "name": "living_street",
    "category": "highway",
    "subcategory": "living_street",
    "latitude": 34.7714542,
    "longitude": 72.33976996666667,
    "id": 454011963
  },
  {
    "name": "residential",
    "category": "highway",
    "subcategory": "residential",
    "latitude": 34.77026486666667,
    "longitude": 72.35214086666667,
    "id": 454011964
  },
  {
    "name": "living_street",
    "category": "highway",
    "subcategory": "living_street",
    "latitude": 34.76973796923077,
    "longitude": 72.3520357,
    "id": 454011965
  },
  {
    "name": "living_street",
    "category": "highway",
    "subcategory": "living_street",
    "latitude": 34.7717277,
    "longitude": 72.35103120000001,
    "id": 454011966
  },
  {
    "name": "living_street",
    "category": "highway",
    "subcategory": "living_street",
    "latitude": 34.76644366,
    "longitude": 72.3538861,
    "id": 454011968
  },
  {
    "name": "living_street",
    "category": "highway",
    "subcategory": "living_street",
    "latitude": 34.7662721,
    "longitude": 72.35422976666666,
    "id": 454011969
  },
  {
    "name": "living_street",
    "category": "highway",
    "subcategory": "living_street",
    "latitude": 34.76597605,
    "longitude": 72.35488575,
    "id": 454011970
  },
  {
    "name": "living_street",
    "category": "highway",
    "subcategory": "living_street",
    "latitude": 34.76531657857143,
    "longitude": 72.35316849285714,
    "id": 454011971
  },
  {
    "name": "living_street",
    "category": "highway",
    "subcategory": "living_street",
    "latitude": 34.764756606666666,
    "longitude": 72.35243004666667,
    "id": 454011972
  },
  {
    "name": "living_street",
    "category": "highway",
    "subcategory": "living_street",
    "latitude": 34.76456053333333,
    "longitude": 72.35269903333334,
    "id": 454011973
  },
  {
    "name": "living_street",
    "category": "highway",
    "subcategory": "living_street",
    "latitude": 34.76486075,
    "longitude": 72.35301425,
    "id": 454011974
  },
  {
    "name": "living_street",
    "category": "highway",
    "subcategory": "living_street",
    "latitude": 34.75727396,
    "longitude": 72.35541832,
    "id": 454011976
  },
  {
    "name": "forest",
    "category": "landuse",
    "subcategory": "forest",
    "latitude": 34.75559150833333,
    "longitude": 72.356267,
    "id": 454011977
  },
  {
    "name": "fire_station",
    "category": "amenity",
    "subcategory": "fire_station",
    "latitude": 34.75376875,
    "longitude": 72.35622463333334,
    "id": 454012663
  },
  {
    "name": "clinic",
    "category": "amenity",
    "subcategory": "clinic",
    "latitude": 34.7561364,
    "longitude": 72.3554291375,
    "id": 454012664
  },
  {
    "name": "forest",
    "category": "landuse",
    "subcategory": "forest",
    "latitude": 34.755726679999995,
    "longitude": 72.35543788,
    "id": 454012665
  },
  {
    "name": "residential",
    "category": "highway",
    "subcategory": "residential",
    "latitude": 34.75439153333333,
    "longitude": 72.35423293333334,
    "id": 454012666
  },
  {
    "name": "living_street",
    "category": "highway",
    "subcategory": "living_street",
    "latitude": 34.75445589375,
    "longitude": 72.352678471875,
    "id": 454012667
  },
  {
    "name": "living_street",
    "category": "highway",
    "subcategory": "living_street",
    "latitude": 34.74842643333333,
    "longitude": 72.3536617111111,
    "id": 454012668
  },
  {
    "name": "unclassified",
    "category": "highway",
    "subcategory": "unclassified",
    "latitude": 34.74648092222222,
    "longitude": 72.35057304444445,
    "id": 454012669
  },
  {
    "name": "residential",
    "category": "highway",
    "subcategory": "residential",
    "latitude": 34.762287372222225,
    "longitude": 72.3508343111111,
    "id": 454013061
  },
  {
    "name": "living_street",
    "category": "highway",
    "subcategory": "living_street",
    "latitude": 34.75628136428571,
    "longitude": 72.35168027142858,
    "id": 454013064
  },
  {
    "name": "residential",
    "category": "highway",
    "subcategory": "residential",
    "latitude": 34.7539338,
    "longitude": 72.3515572,
    "id": 454013065
  },
  {
    "name": "living_street",
    "category": "highway",
    "subcategory": "living_street",
    "latitude": 34.752729725,
    "longitude": 72.348784875,
    "id": 454013066
  },
  {
    "name": "living_street",
    "category": "highway",
    "subcategory": "living_street",
    "latitude": 34.75354036666667,
    "longitude": 72.3514041,
    "id": 454013491
  },
  {
    "name": "living_street",
    "category": "highway",
    "subcategory": "living_street",
    "latitude": 34.752999194736844,
    "longitude": 72.35097658421053,
    "id": 454013492
  },
  {
    "name": "park",
    "category": "leisure",
    "subcategory": "park",
    "latitude": 34.755752257894734,
    "longitude": 72.35418391052632,
    "id": 454013493
  },
  {
    "name": "forest",
    "category": "landuse",
    "subcategory": "forest",
    "latitude": 34.75493334,
    "longitude": 72.35522592,
    "id": 454013494
  },
  {
    "name": "Swat Serena",
    "category": "tourism",
    "subcategory": "hotel",
    "latitude": 34.75267692,
    "longitude": 72.35786401,
    "id": 454013497
  },
  {
    "name": "living_street",
    "category": "highway",
    "subcategory": "living_street",
    "latitude": 34.751503725,
    "longitude": 72.3613624,
    "id": 454013635
  },
  {
    "name": "residential",
    "category": "highway",
    "subcategory": "residential",
    "latitude": 34.748813266666666,
    "longitude": 72.36054523333333,
    "id": 454013722
  },
  {
    "name": "living_street",
    "category": "highway",
    "subcategory": "living_street",
    "latitude": 34.747338405,
    "longitude": 72.36145890166667,
    "id": 454013725
  },
  {
    "name": "grave_yard",
    "category": "amenity",
    "subcategory": "grave_yard",
    "latitude": 34.74771371666667,
    "longitude": 72.36077697500001,
    "id": 454013752
  },
  {
    "name": "tertiary",
    "category": "highway",
    "subcategory": "tertiary",
    "latitude": 34.74002486,
    "longitude": 72.36159112,
    "id": 454014114
  },
  {
    "name": "grave_yard",
    "category": "amenity",
    "subcategory": "grave_yard",
    "latitude": 34.7460445125,
    "longitude": 72.360245278125,
    "id": 454014115
  },
  {
    "name": "living_street",
    "category": "highway",
    "subcategory": "living_street",
    "latitude": 34.74711014137931,
    "longitude": 72.36027785862069,
    "id": 454014330
  },
  {
    "name": "residential",
    "category": "landuse",
    "subcategory": "residential",
    "latitude": 34.74769604814815,
    "longitude": 72.3587874074074,
    "id": 454014331
  },
  {
    "name": "residential",
    "category": "landuse",
    "subcategory": "residential",
    "latitude": 34.744444915625,
    "longitude": 72.355919871875,
    "id": 454014560
  },
  {
    "name": "residential",
    "category": "highway",
    "subcategory": "residential",
    "latitude": 34.7432492,
    "longitude": 72.35304523333333,
    "id": 454014926
  },
  {
    "name": "residential",
    "category": "landuse",
    "subcategory": "residential",
    "latitude": 34.74205931428572,
    "longitude": 72.35582424761904,
    "id": 454014927
  },
  {
    "name": "living_street",
    "category": "highway",
    "subcategory": "living_street",
    "latitude": 34.7421351,
    "longitude": 72.35435644166667,
    "id": 454015121
  },
  {
    "name": "living_street",
    "category": "highway",
    "subcategory": "living_street",
    "latitude": 34.74274688333333,
    "longitude": 72.35435923333334,
    "id": 454015122
  },