[
  {
    "name": "پاکستان اسٹیٹ آئل",
    "category": "amenity",
    "subcategory": "fuel",
    "latitude": 32.116172,
    "longitude": 74.8561163,
    "id": 3252928095
  },
  {
    "name": "بینک الفلاح",
    "category": "amenity",
    "subcategory": "bank",
    "latitude": 32.0931973,
    "longitude": 74.8677225,
    "id": 4102737790
  },
  {
    "name": "Five Star Marriage Hall",
    "category": "amenity",
    "subcategory": "restaurant",
    "latitude": 32.0946874,
    "longitude": 74.8820041,
    "id": 4102771489
  },
  {
    "name": "Allieb Bank",
    "category": "amenity",
    "subcategory": "bank",
    "latitude": 32.0939302,
    "longitude": 74.8664674,
    "id": 4102771589
  },
  {
    "name": "Safdar Medical Store",
    "category": "amenity",
    "subcategory": "pharmacy",
    "latitude": 32.1011778,
    "longitude": 74.8710534,
    "id": 4258681192
  },
  {
    "name": "Moon Restaurant",
    "category": "tourism",
    "subcategory": "hotel",
    "latitude": 32.0945632,
    "longitude": 74.8812993,
    "id": 4366554292
  },
  {
    "name": "Government Islamia College Narowal",
    "category": "amenity",
    "subcategory": "school",
    "latitude": 32.0946388,
    "longitude": 74.8749323,
    "id": 4398442489
  },
  {
    "name": "University of Engineering and Technology UET Narowal Campus",
    "category": "amenity",
    "subcategory": "school",
    "latitude": 32.0943513,
    "longitude": 74.8740235,
    "id": 4558830123
  },
  {
    "name": "شیل",
    "category": "amenity",
    "subcategory": "fuel",
    "latitude": 32.1110978,
    "longitude": 74.8614919,
    "id": 4562351390
  },
  {
    "name": "ADMORE",
    "category": "amenity",
    "subcategory": "fuel",
    "latitude": 32.0950713,
    "longitude": 74.8873843,
    "id": 4562368089
  },
  {
    "name": "ٹوٹل",
    "category": "amenity",
    "subcategory": "fuel",
    "latitude": 32.1107852,
    "longitude": 74.8619222,
    "id": 4562368189
  },
  {
    "name": "Narowal Sports Complex",
    "category": "leisure",
    "subcategory": "sports_centre",
    "latitude": 32.1100236,
    "longitude": 74.8679562,
    "id": 5551887683
  },
  {
    "name": "Shell Petroliam",
    "category": "amenity",
    "subcategory": "fuel",
    "latitude": 32.110143,
    "longitude": 74.8698082,
    "id": 5551887687
  },
  {
    "name": "ایچ بی ایل پاکستان",
    "category": "amenity",
    "subcategory": "bank",
    "latitude": 32.1096051,
    "longitude": 74.8705554,
    "id": 5551887689
  },
  {
    "name": "Ali Foundation School",
    "category": "amenity",
    "subcategory": "school",
    "latitude": 32.0976855,
    "longitude": 74.8703241,
    "id": 6573076589
  },
  {
    "name": "Ajmal Hardware Store",
    "category": "shop",
    "subcategory": "hardware",
    "latitude": 32.1054981,
    "longitude": 74.8687424,
    "id": 11147020705
  },
  {
    "name": "Al Haram Pharmacy",
    "category": "amenity",
    "subcategory": "pharmacy",
    "latitude": 32.1100321,
    "longitude": 74.8732216,
    "id": 11488880624
  }
]