[
  {
    "name": "fuel",
    "category": "amenity",
    "subcategory": "fuel",
    "latitude": 33.9830164,
    "longitude": 71.5685241,
    "id": 307372612
  },
  {
    "name": "Total Parco",
    "category": "amenity",
    "subcategory": "fuel",
    "latitude": 33.9731869,
    "longitude": 71.5442984,
    "id": 307372704
  },
  {
    "name": "fuel",
    "category": "amenity",
    "subcategory": "fuel",
    "latitude": 33.9632792,
    "longitude": 71.5287235,
    "id": 307372727
  },
  {
    "name": "fuel",
    "category": "amenity",
    "subcategory": "fuel",
    "latitude": 33.9996369,
    "longitude": 71.5535572,
    "id": 307637275
  },
  {
    "name": "Shah Qabool Road",
    "category": "highway",
    "subcategory": "traffic_signals",
    "latitude": 34.0074438,
    "longitude": 71.5645187,
    "id": 307639408
  },
  {
    "name": "traffic_signals",
    "category": "highway",
    "subcategory": "traffic_signals",
    "latitude": 34.0095638,
    "longitude": 71.565459,
    "id": 307639469
  },
  {
    "name": "Shuuba Chowk / شوبہ چوک",
    "category": "tourism",
    "subcategory": "attraction",
    "latitude": 34.0087538,
    "longitude": 71.5636382,
    "id": 307639472
  },
  {
    "name": "fuel",
    "category": "amenity",
    "subcategory": "fuel",
    "latitude": 33.9812763,
    "longitude": 71.5240915,
    "id": 307660089
  },
  {
    "name": "Sirki Chowk",
    "category": "highway",
    "subcategory": "traffic_signals",
    "latitude": 34.0021418,
    "longitude": 71.5682007,
    "id": 307775149
  },
  {
    "name": "Rose Hotel",
    "category": "tourism",
    "subcategory": "hotel",
    "latitude": 34.0085611,
    "longitude": 71.563989,
    "id": 742145824
  },
  {
    "name": "Hidayat Hotel",
    "category": "tourism",
    "subcategory": "hotel",
    "latitude": 34.0160404,
    "longitude": 71.5734886,
    "id": 742146088
  },
  {
    "name": "Rampura Chowk",
    "category": "highway",
    "subcategory": "traffic_signals",
    "latitude": 34.0124238,
    "longitude": 71.5745125,
    "id": 851845831
  },
  {
    "name": "CMH Peshawar - Combined Military Hospital",
    "category": "amenity",
    "subcategory": "hospital",
    "latitude": 34.0034083,
    "longitude": 71.5427023,
    "id": 854341089
  },
  {
    "name": "بہادر خان کلے",
    "category": "place",
    "subcategory": "village",
    "latitude": 33.9664052,
    "longitude": 71.5523419,
    "id": 866575494
  },
  {
    "name": "parking",
    "category": "amenity",
    "subcategory": "parking",
    "latitude": 33.9917951,
    "longitude": 71.4992986,
    "id": 1223074603
  },
  {
    "name": "Sher Khan Shaheed Stadium park",
    "category": "tourism",
    "subcategory": "theme_park",
    "latitude": 34.0148846,
    "longitude": 71.5487586,
    "id": 1223082738
  },
  {
    "name": "fountain",
    "category": "amenity",
    "subcategory": "fountain",
    "latitude": 34.0147601,
    "longitude": 71.5515052,
    "id": 1223088280
  },
  {
    "name": "Jan's Shopping Plaza",
    "category": "shop",
    "subcategory": "supermarket",
    "latitude": 34.0025718,
    "longitude": 71.5449956,
    "id": 1223932413
  },
  {
    "name": "Tehkal Juma'at",
    "category": "amenity",
    "subcategory": "place_of_worship",
    "latitude": 34.0088032,
    "longitude": 71.5188688,
    "id": 1223933221
  },
  {
    "name": "waste_basket",
    "category": "amenity",
    "subcategory": "waste_basket",
    "latitude": 33.9920467,
    "longitude": 71.4980688,
    "id": 1223941862
  },
  {
    "name": "Blue Palace",
    "category": "tourism",
    "subcategory": "hotel",
    "latitude": 33.9902134,
    "longitude": 71.5021855,
    "id": 1223943705
  },
  {
    "name": "Revoli Guest House",
    "category": "tourism",
    "subcategory": "guest_house",
    "latitude": 33.9989929,
    "longitude": 71.5001363,
    "id": 1223945822
  },
  {
    "name": "Inter Con Guest House",
    "category": "tourism",
    "subcategory": "guest_house",
    "latitude": 33.9973118,
    "longitude": 71.5012842,
    "id": 1223958742
  },
  {
    "name": "جہانگیر آباد",
    "category": "place",
    "subcategory": "suburb",
    "latitude": 34.0048054,
    "longitude": 71.4987703,
    "id": 1224044715
  },
  {
    "name": "Grand Hotel",
    "category": "tourism",
    "subcategory": "hotel",
    "latitude": 34.0072046,
    "longitude": 71.508882,
    "id": 1224121359
  },
  {
    "name": "کے ایف سی",
    "category": "amenity",
    "subcategory": "restaurant",
    "latitude": 34.0072935,
    "longitude": 71.5255332,
    "id": 1224121362
  },
  {
    "name": "شیل",
    "category": "amenity",
    "subcategory": "fuel",
    "latitude": 34.0070267,
    "longitude": 71.5266061,
    "id": 1224127544
  },
  {
    "name": "Defence Shop",
    "category": "shop",
    "subcategory": "convenience",
    "latitude": 34.0108332,
    "longitude": 71.5343105,
    "id": 1224127547
  },
  {
    "name": "Fauji Foundation School",
    "category": "amenity",
    "subcategory": "school",
    "latitude": 34.0124548,
    "longitude": 71.5331494,
    "id": 1224127555
  },
  {
    "name": "cemetery",
    "category": "landuse",
    "subcategory": "cemetery",
    "latitude": 34.0158312,
    "longitude": 71.5384293,
    "id": 1224141047
  },
  {
    "name": "Abu Bakar",
    "category": "amenity",
    "subcategory": "place_of_worship",
    "latitude": 34.0230342,
    "longitude": 71.5480637,
    "id": 1224141080
  },
  {
    "name": "سعید آباد",
    "category": "place",
    "subcategory": "suburb",
    "latitude": 34.0214158,
    "longitude": 71.569736,
    "id": 1224175049
  },
  {
    "name": "شاہی باغ مسجد",
    "category": "amenity",
    "subcategory": "place_of_worship",
    "latitude": 34.0202953,
    "longitude": 71.5734482,
    "id": 1224175058
  },
  {
    "name": "Mayor's Office",
    "category": "amenity",
    "subcategory": "townhall",
    "latitude": 34.0174853,
    "longitude": 71.5716457,
    "id": 1224175063
  },
  {
    "name": "Bank al-Falah",
    "category": "amenity",
    "subcategory": "bank",
    "latitude": 34.0024773,
    "longitude": 71.5455959,
    "id": 1225241975
  },
  {
    "name": "Khyber Pakhtunkhwa Provincial Assembly",
    "category": "amenity",
    "subcategory": "townhall",
    "latitude": 34.0141103,
    "longitude": 71.56656,
    "id": 1226368129
  },
  {
    "name": "Central Police Office",
    "category": "amenity",
    "subcategory": "police",
    "latitude": 34.0094966,
    "longitude": 71.5561238,
    "id": 1226368131
  },
  {
    "name": "پشاور پریس کلب",
    "category": "tourism",
    "subcategory": "guest_house",
    "latitude": 34.0039715,
    "longitude": 71.551132,
    "id": 1226368132
  },
  {
    "name": "Peshawar Museum",
    "category": "tourism",
    "subcategory": "museum",
    "latitude": 34.007712,
    "longitude": 71.5582754,
    "id": 1226368134
  },
  {
    "name": "parking",
    "category": "amenity",
    "subcategory": "parking",
    "latitude": 33.9989176,
    "longitude": 71.4946776,
    "id": 1226386618
  },
  {
    "name": "Avon",
    "category": "shop",
    "subcategory": "cosmetics",
    "latitude": 33.9988732,
    "longitude": 71.4944308,
    "id": 1226386624
  },
  {
    "name": "butcher",
    "category": "shop",
    "subcategory": "butcher",
    "latitude": 33.9987486,
    "longitude": 71.4948386,
    "id": 1226386631
  },
  {
    "name": "Avon Gift Shop",
    "category": "shop",
    "subcategory": "gift",
    "latitude": 33.9990911,
    "longitude": 71.4948439,
    "id": 1226386637
  },
  {
    "name": "fuel",
    "category": "amenity",
    "subcategory": "fuel",
    "latitude": 34.0002429,
    "longitude": 71.4967998,
    "id": 1226391239
  },
  {
    "name": "Thames Burger",
    "category": "amenity",
    "subcategory": "fast_food",
    "latitude": 33.9986824,
    "longitude": 71.4946614,
    "id": 1226713187
  },
  {
    "name": "Abdarra",
    "category": "place",
    "subcategory": "neighbourhood",
    "latitude": 33.9771544,
    "longitude": 71.5070346,
    "id": 1227889422
  },
  {
    "name": "Gulberg",
    "category": "highway",
    "subcategory": "bus_stop",
    "latitude": 33.9924884,
    "longitude": 71.5404265,
    "id": 1350017100
  },
  {
    "name": "Fork restaurant",
    "category": "amenity",
    "subcategory": "restaurant",
    "latitude": 34.0204974,
    "longitude": 71.5594087,
    "id": 1350054380
  },
  {
    "name": "Wapda Hospital",
    "category": "amenity",
    "subcategory": "hospital",
    "latitude": 34.0234601,
    "longitude": 71.5577474,
    "id": 2345384102
  },
  {
    "name": "Wapda Guest House",
    "category": "tourism",
    "subcategory": "guest_house",
    "latitude": 34.025034,
    "longitude": 71.5580231,
    "id": 2345410961
  },
  {
    "name": "Wapda High School",
    "category": "amenity",
    "subcategory": "school",
    "latitude": 34.0231678,
    "longitude": 71.5608377,
    "id": 2345410962
  },
  {
    "name": "Army Public Toddlers Academy",
    "category": "amenity",
    "subcategory": "school",
    "latitude": 34.0132008,
    "longitude": 71.5349004,
    "id": 2345410963
  },
  {
    "name": "Police Lines Peshawar",
    "category": "amenity",
    "subcategory": "townhall",
    "latitude": 34.0122854,
    "longitude": 71.5607005,
    "id": 2345410964
  },
  {
    "name": "Judicial Complex",
    "category": "amenity",
    "subcategory": "townhall",
    "latitude": 34.0141525,
    "longitude": 71.5625655,
    "id": 2345410965
  },
  {
    "name": "Supreme Court Peshawar",
    "category": "amenity",
    "subcategory": "townhall",
    "latitude": 34.0140809,
    "longitude": 71.5637256,
    "id": 2345410966
  },
  {
    "name": "Army Stadium",
    "category": "leisure",
    "subcategory": "stadium",
    "latitude": 34.0166898,
    "longitude": 71.5506902,
    "id": 2429988462
  },
  {
    "name": "Chit Chat",
    "category": "amenity",
    "subcategory": "marketplace",
    "latitude": 34.0181019,
    "longitude": 71.5551823,
    "id": 2429988463
  },
  {
    "name": "McDonalds",
    "category": "amenity",
    "subcategory": "restaurant",
    "latitude": 34.0175343,
    "longitude": 71.5479581,
    "id": 2429988465
  },
  {
    "name": "Pizza Hut",
    "category": "amenity",
    "subcategory": "restaurant",
    "latitude": 34.0153546,
    "longitude": 71.5520491,
    "id": 2429988467
  },
  {
    "name": "Directorate General of Excise & Taxation",
    "category": "office",
    "subcategory": "government",
    "latitude": 34.0166964,
    "longitude": 71.5538833,
    "id": 2429988468
  },
  {
    "name": "parking",
    "category": "amenity",
    "subcategory": "parking",
    "latitude": 34.0150765,
    "longitude": 71.563705,
    "id": 2429988483
  },
  {
    "name": "parking",
    "category": "amenity",
    "subcategory": "parking",
    "latitude": 34.0170031,
    "longitude": 71.553634,
    "id": 2429988485
  },
  {
    "name": "شیل",
    "category": "amenity",
    "subcategory": "fuel",
    "latitude": 34.0000193,
    "longitude": 71.5463329,
    "id": 2430009635
  },
  {
    "name": "RA Bazaar",
    "category": "amenity",
    "subcategory": "marketplace",
    "latitude": 34.0101025,
    "longitude": 71.5489058,
    "id": 2432745331
  },
  {
    "name": "traffic_signals",
    "category": "highway",
    "subcategory": "traffic_signals",
    "latitude": 34.0118274,
    "longitude": 71.5400138,
    "id": 2432745346
  },
  {
    "name": "Warsak Square",
    "category": "highway",
    "subcategory": "traffic_signals",
    "latitude": 34.0139082,
    "longitude": 71.5420644,
    "id": 2432745363
  },
  {
    "name": "اکاؤنٹنٹ جنرل آفس",
    "category": "office",
    "subcategory": "government",
    "latitude": 34.0080067,
    "longitude": 71.5476179,
    "id": 2432768426
  },
  {
    "name": "آرمی ہاسٹل",
    "category": "amenity",
    "subcategory": "restaurant",
    "latitude": 34.0077175,
    "longitude": 71.545804,
    "id": 2432768427
  },
  {
    "name": "Wapda House, Peshawar",
    "category": "office",
    "subcategory": "government",
    "latitude": 34.0241747,
    "longitude": 71.5583907,
    "id": 2432768428
  },
  {
    "name": "tennis",
    "category": "sport",
    "subcategory": "tennis",
    "latitude": 34.0138987,
    "longitude": 71.5556805,
    "id": 2432768444
  },
  {
    "name": "parking_space",
    "category": "amenity",
    "subcategory": "parking_space",
    "latitude": 34.0232912,
    "longitude": 71.5586497,
    "id": 2432768455
  },
  {
    "name": "traffic_signals",
    "category": "highway",
    "subcategory": "traffic_signals",
    "latitude": 34.0142794,
    "longitude": 71.5477539,
    "id": 2432780036
  },
  {
    "name": "traffic_signals",
    "category": "highway",
    "subcategory": "traffic_signals",
    "latitude": 34.0142759,
    "longitude": 71.5476438,
    "id": 2432780039
  },
  {
    "name": "FG Boys Public College for Boys",
    "category": "amenity",
    "subcategory": "college",
    "latitude": 34.0021901,
    "longitude": 71.5318963,
    "id": 2432782479
  },
  {
    "name": "FG Boys Public College for Girls",
    "category": "amenity",
    "subcategory": "college",
    "latitude": 34.0032971,
    "longitude": 71.5302318,
    "id": 2432782480
  },
  {
    "name": "Civil Secreteriat",
    "category": "office",
    "subcategory": "government",
    "latitude": 34.0091268,
    "longitude": 71.5590999,
    "id": 2738948412
  },
  {
    "name": "Attached Department Complex",
    "category": "office",
    "subcategory": "government",
    "latitude": 34.0141298,
    "longitude": 71.5588286,
    "id": 2738948804
  },
  {
    "name": "Pak Bakers",
    "category": "shop",
    "subcategory": "bakery",
    "latitude": 33.9996607,
    "longitude": 71.536554,
    "id": 2738962898
  },
  {
    "name": "Sha Posh",
    "category": "shop",
    "subcategory": "mall",
    "latitude": 34.0017516,
    "longitude": 71.4984306,
    "id": 2781378242
  },
  {
    "name": "Shan CNG Station",
    "category": "amenity",
    "subcategory": "fuel",
    "latitude": 33.9625231,
    "longitude": 71.5203502,
    "id": 3273162626
  },
  {
    "name": "Market",
    "category": "amenity",
    "subcategory": "marketplace",
    "latitude": 33.9609226,
    "longitude": 71.5055886,
    "id": 3273193519
  },
  {
    "name": "super store",
    "category": "shop",
    "subcategory": "supermarket",
    "latitude": 33.961106,
    "longitude": 71.5054711,
    "id": 3273193520
  },
  {
    "name": "Hyper Shopping Mall Parking",
    "category": "shop",
    "subcategory": "mall",
    "latitude": 33.9636371,
    "longitude": 71.4993184,
    "id": 3273193528
  },
  {
    "name": "Market",
    "category": "amenity",
    "subcategory": "marketplace",
    "latitude": 33.9620611,
    "longitude": 71.5019997,
    "id": 3273266474
  },
  {
    "name": "Gov. Degree College - Achini",
    "category": "amenity",
    "subcategory": "college",
    "latitude": 33.9639558,
    "longitude": 71.5166852,
    "id": 3273298426
  },
  {
    "name": "Paid Parking",
    "category": "amenity",
    "subcategory": "parking",
    "latitude": 33.9888037,
    "longitude": 71.5381685,
    "id": 3276207328
  },
  {
    "name": "parking",
    "category": "amenity",
    "subcategory": "parking",
    "latitude": 33.9945088,
    "longitude": 71.55141,
    "id": 3276241566
  },
  {
    "name": "CHOTA QABRISTAN",
    "category": "amenity",
    "subcategory": "grave_yard",
    "latitude": 33.9725524,
    "longitude": 71.5530437,
    "id": 3276299541
  },
  {
    "name": "CHOTA QABRISTAN",
    "category": "amenity",
    "subcategory": "grave_yard",
    "latitude": 33.9730971,
    "longitude": 71.5548662,
    "id": 3276299542
  },
  {
    "name": "marketplace",
    "category": "amenity",
    "subcategory": "marketplace",
    "latitude": 33.9615352,
    "longitude": 71.5047912,
    "id": 3276386481
  },
  {
    "name": "supermarket",
    "category": "shop",
    "subcategory": "supermarket",
    "latitude": 33.9615469,
    "longitude": 71.5045788,
    "id": 3276386482
  },
  {
    "name": "Market",
    "category": "amenity",
    "subcategory": "marketplace",
    "latitude": 33.9624319,
    "longitude": 71.5032853,
    "id": 3276386483
  },
  {
    "name": "Market",
    "category": "amenity",
    "subcategory": "marketplace",
    "latitude": 33.9622617,
    "longitude": 71.5035065,
    "id": 3276386484
  },
  {
    "name": "Market",
    "category": "amenity",
    "subcategory": "marketplace",
    "latitude": 33.9628033,
    "longitude": 71.5029756,
    "id": 3276386485
  },
  {
    "name": "QABRISTAN",
    "category": "amenity",
    "subcategory": "grave_yard",
    "latitude": 33.9786703,
    "longitude": 71.523284,
    "id": 3276626776
  },
  {
    "name": "QABRISTAN",
    "category": "amenity",
    "subcategory": "grave_yard",
    "latitude": 33.9973996,
    "longitude": 71.5590215,
    "id": 3276652022
  },
  {
    "name": "Namak Mandi Restaurants",
    "category": "amenity",
    "subcategory": "restaurant",
    "latitude": 34.0056467,
    "longitude": 71.5659871,
    "id": 3276662979
  },
  {
    "name": "Nandar Sher / Andar Sehar",
    "category": "landuse",
    "subcategory": "residential",
    "latitude": 34.0054561,
    "longitude": 71.5618973,
    "id": 3276662980
  },
  {
    "name": "Walled city - Peshawar",
    "category": "historic",
    "subcategory": "yes",
    "latitude": 34.0051075,
    "longitude": 71.5617778,
    "id": 3276662981
  },
  {
    "name": "Shuuba Car  repair Workshops",
    "category": "shop",
    "subcategory": "car_repair",
    "latitude": 34.0081646,
    "longitude": 71.5612522,
    "id": 3276669603
  },
  {
    "name": "فداء آ باد کولونی",
    "category": "place",
    "subcategory": "neighbourhood",
    "latitude": 33.9996806,
    "longitude": 71.5729181,
    "id": 3276950232
  },
  {
    "name": "کاکشال",
    "category": "place",
    "subcategory": "suburb",
    "latitude": 33.9979581,
    "longitude": 71.5664549,
    "id": 3276987767
  },
  {
    "name": "قائدآباد",
    "category": "place",
    "subcategory": "neighbourhood",
    "latitude": 33.9969416,
    "longitude": 71.5622417,
    "id": 3276987768
  },
  {
    "name": "ندر شہر بازار",
    "category": "shop",
    "subcategory": "jewelry",
    "latitude": 34.0103998,
    "longitude": 71.5727791,
    "id": 3279797711
  },
  {
    "name": "ڈیفنس کالونی",
    "category": "place",
    "subcategory": "suburb",
    "latitude": 34.0112501,
    "longitude": 71.5364524,
    "id": 3280215412
  },
  {
    "name": "Shiraz",
    "category": "amenity",
    "subcategory": "restaurant",
    "latitude": 34.0062974,
    "longitude": 71.5069079,
    "id": 3280227538
  },
  {
    "name": "Fawad Plaza",
    "category": "shop",
    "subcategory": "mall",
    "latitude": 34.0023224,
    "longitude": 71.4990494,
    "id": 3280255620
  },
  {
    "name": "قصہ خوني بازار",
    "category": "amenity",
    "subcategory": "marketplace",
    "latitude": 34.0079027,
    "longitude": 71.5702562,
    "id": 3302030380
  },
  {
    "name": "Nishtar Hall / نشتر ہال",
    "category": "amenity",
    "subcategory": "theatre",
    "latitude": 34.0124275,
    "longitude": 71.5639081,
    "id": 3302057690
  },
  {
    "name": "Directorate of Archives & Libraries, Peshawar",
    "category": "amenity",
    "subcategory": "library",
    "latitude": 34.0079363,
    "longitude": 71.5589611,
    "id": 3302069404
  },
  {
    "name": "Haleem Ghar",
    "category": "amenity",
    "subcategory": "fast_food",
    "latitude": 33.999292,
    "longitude": 71.5348888,
    "id": 3492786305
  },
  {
    "name": "Shaheen Chemist",
    "category": "shop",
    "subcategory": "chemist",
    "latitude": 33.9991519,
    "longitude": 71.5346313,
    "id": 3492788639
  },
  {
    "name": "Jani Cone",
    "category": "amenity",
    "subcategory": "fast_food",
    "latitude": 33.9974596,
    "longitude": 71.5371955,
    "id": 3492790093
  },
  {
    "name": "traffic_signals",
    "category": "highway",
    "subcategory": "traffic_signals",
    "latitude": 34.0145336,
    "longitude": 71.5518441,
    "id": 3821822236
  },
  {
    "name": "restaurant",
    "category": "amenity",
    "subcategory": "restaurant",
    "latitude": 34.0273968,
    "longitude": 71.5677833,
    "id": 3861801666
  },
  {
    "name": "اقبال میاں چوک",
    "category": "highway",
    "subcategory": "traffic_signals",
    "latitude": 33.9960151,
    "longitude": 71.5357004,
    "id": 3972339293
  },
  {
    "name": "Governer House Peshawar",
    "category": "amenity",
    "subcategory": "townhall",
    "latitude": 34.0082573,
    "longitude": 71.5549455,
    "id": 3972340245
  },
  {
    "name": "parking",
    "category": "amenity",
    "subcategory": "parking",
    "latitude": 34.0042256,
    "longitude": 71.5316008,
    "id": 3972340663
  },
  {
    "name": "Shiraz Arena",
    "category": "tourism",
    "subcategory": "hotel",
    "latitude": 34.0009367,
    "longitude": 71.5440875,
    "id": 4112393499
  },
  {
    "name": "car_repair",
    "category": "shop",
    "subcategory": "car_repair",
    "latitude": 34.0034466,
    "longitude": 71.5539145,
    "id": 4142382789
  },
  {
    "name": "restaurant",
    "category": "amenity",
    "subcategory": "restaurant",
    "latitude": 34.005162,
    "longitude": 71.5662543,
    "id": 4151703089
  },
  {
    "name": "Afridi Model School & College Pishtakhara Campus",
    "category": "amenity",
    "subcategory": "school",
    "latitude": 33.9593607,
    "longitude": 71.5036711,
    "id": 4186717289
  },
  {
    "name": "place_of_worship",
    "category": "amenity",
    "subcategory": "place_of_worship",
    "latitude": 33.9749445,
    "longitude": 71.5340117,
    "id": 4225101925
  },
  {
    "name": "c",
    "category": "amenity",
    "subcategory": "parking",
    "latitude": 33.9854245,
    "longitude": 71.5367022,
    "id": 4225103294
  },
  {
    "name": "Truck Adda",
    "category": "amenity",
    "subcategory": "parking",
    "latitude": 33.9792724,
    "longitude": 71.5566905,
    "id": 4225117635
  },
  {
    "name": "Harshay Superstore",
    "category": "shop",
    "subcategory": "supermarket",
    "latitude": 34.0070392,
    "longitude": 71.5245739,
    "id": 4271106790
  },
  {
    "name": "Capital CNG ",
    "category": "amenity",
    "subcategory": "fuel",
    "latitude": 33.9943515,
    "longitude": 71.5590809,
    "id": 4290844490
  },
  {
    "name": "Custom chock",
    "category": "highway",
    "subcategory": "bus_stop",
    "latitude": 33.9729979,
    "longitude": 71.5159351,
    "id": 4318912891
  },
  {
    "name": "Pishtakhar Chock",
    "category": "shop",
    "subcategory": "bookmaker",
    "latitude": 33.9609321,
    "longitude": 71.504925,
    "id": 4318963493
  },
  {
    "name": "Pishtakha Police Station",
    "category": "amenity",
    "subcategory": "police",
    "latitude": 33.968223,
    "longitude": 71.5114218,
    "id": 4318963494
  },
  {
    "name": "Masjid Abuzar",
    "category": "amenity",
    "subcategory": "place_of_worship",
    "latitude": 33.9594636,
    "longitude": 71.5023297,
    "id": 4355289705
  },
  {
    "name": "ایچ بی ایل پاکستان",
    "category": "amenity",
    "subcategory": "bank",
    "latitude": 33.9635929,
    "longitude": 71.5004644,
    "id": 4355297122
  },
  {
    "name": "Medina CNG",
    "category": "amenity",
    "subcategory": "fuel",
    "latitude": 33.9630281,
    "longitude": 71.502267,
    "id": 4355315056
  },
  {
    "name": "یونائیٹڈ بینک لمیٹڈ",
    "category": "amenity",
    "subcategory": "bank",
    "latitude": 33.9622102,
    "longitude": 71.501971,
    "id": 4355317570
  },
  {
    "name": "Bank Al Habib Ltd",
    "category": "amenity",
    "subcategory": "bank",
    "latitude": 33.9627702,
    "longitude": 71.5026747,
    "id": 4355326000
  },
  {
    "name": "Toyota Frontier Motors",
    "category": "shop",
    "subcategory": "car_repair",
    "latitude": 34.006949,
    "longitude": 71.508442,
    "id": 4360778590
  },
  {
    "name": "Toyota khyber motors",
    "category": "shop",
    "subcategory": "car_parts",
    "latitude": 33.9699586,
    "longitude": 71.5383486,
    "id": 4360781690
  },
  {
    "name": "Barrha Tikka and Kabuli Pulao (باڑہ تکہ اینڈ کابلی پلاو)",
    "category": "amenity",
    "subcategory": "restaurant",
    "latitude": 34.00833,
    "longitude": 71.516706,
    "id": 4403895296
  },
  {
    "name": "majlis e soat ul islam pakistan",
    "category": "amenity",
    "subcategory": "school",
    "latitude": 34.0050995,
    "longitude": 71.5103874,
    "id": 4403919591
  },
  {
    "name": "place_of_worship",
    "category": "amenity",
    "subcategory": "place_of_worship",
    "latitude": 33.9640538,
    "longitude": 71.4998345,
    "id": 4464844195
  },
  {
    "name": "servis store",
    "category": "shop",
    "subcategory": "shoes",
    "latitude": 33.963529,
    "longitude": 71.5005624,
    "id": 4464860389
  },
  {
    "name": "Agha Khan laboratory Collection Point",
    "category": "amenity",
    "subcategory": "clinic",
    "latitude": 34.003656,
    "longitude": 71.560438,
    "id": 4476250689
  },
  {
    "name": "Central Jail Peshawar",
    "category": "amenity",
    "subcategory": "police",
    "latitude": 34.0104544,
    "longitude": 71.5611119,
    "id": 4481034198
  },
  {
    "name": "Jewellery Shop",
    "category": "shop",
    "subcategory": "jewelry",
    "latitude": 34.0103981,
    "longitude": 71.5716923,
    "id": 4481034199
  },
  {
    "name": "Jewellery Shop",
    "category": "shop",
    "subcategory": "jewelry",
    "latitude": 34.0104375,
    "longitude": 71.5715706,
    "id": 4481034295
  },
  {
    "name": "Arshad Cinema",
    "category": "amenity",
    "subcategory": "cinema",
    "latitude": 34.0102216,
    "longitude": 71.5641391,
    "id": 4481034296
  },
  {
    "name": "Traffic Police Head Quarter",
    "category": "amenity",
    "subcategory": "police",
    "latitude": 34.0168891,
    "longitude": 71.5710666,
    "id": 4481034699
  },
  {
    "name": "Army Check Point",
    "category": "amenity",
    "subcategory": "police",
    "latitude": 34.0144907,
    "longitude": 71.5657881,
    "id": 4481034700
  },
  {
    "name": "Army Check Point",
    "category": "amenity",
    "subcategory": "police",
    "latitude": 34.0146066,
    "longitude": 71.5528207,
    "id": 4481034701
  },
  {
    "name": "Army Check Point",
    "category": "amenity",
    "subcategory": "police",
    "latitude": 34.0066389,
    "longitude": 71.5304058,
    "id": 4481034702
  },
  {
    "name": "Takhto Jumaat al-Rahman",
    "category": "amenity",
    "subcategory": "place_of_worship",
    "latitude": 33.997048,
    "longitude": 71.5376543,
    "id": 4481034703
  },
  {
    "name": "Ayina Sabrina Cinema",
    "category": "amenity",
    "subcategory": "cinema",
    "latitude": 34.0103133,
    "longitude": 71.5639865,
    "id": 4484284696
  },
  {
    "name": "Pak Medical Centre",
    "category": "amenity",
    "subcategory": "doctors",
    "latitude": 34.0103174,
    "longitude": 71.5644589,
    "id": 4484291394
  },
  {
    "name": "Magistrate and Session Court",
    "category": "office",
    "subcategory": "government",
    "latitude": 34.0141307,
    "longitude": 71.5625988,
    "id": 4514104990
  },
  {
    "name": "یونائیٹڈ بینک لمیٹڈ",
    "category": "amenity",
    "subcategory": "bank",
    "latitude": 33.9992308,
    "longitude": 71.5403183,
    "id": 4514124889
  },
  {
    "name": "Pakistan Currency",
    "category": "amenity",
    "subcategory": "bureau_de_change",
    "latitude": 33.9990053,
    "longitude": 71.5407197,
    "id": 4514124890
  },
  {
    "name": "TCS Head Office",
    "category": "office",
    "subcategory": "government",
    "latitude": 33.9909055,
    "longitude": 71.5294666,
    "id": 4533742498
  },
  {
    "name": "car_repair",
    "category": "shop",
    "subcategory": "car_repair",
    "latitude": 34.0002801,
    "longitude": 71.5528555,
    "id": 4535605995
  },
  {
    "name": "Taimoor moter work shop",
    "category": "shop",
    "subcategory": "car_repair",
    "latitude": 33.9940078,
    "longitude": 71.5577511,
    "id": 4535616095
  },
  {
    "name": "Riaz and Sons engineering works",
    "category": "shop",
    "subcategory": "car_repair",
    "latitude": 33.9940841,
    "longitude": 71.557925,
    "id": 4535627291
  },
  {
    "name": "butcher",
    "category": "shop",
    "subcategory": "butcher",
    "latitude": 33.994054,
    "longitude": 71.5581035,
    "id": 4535636690
  },
  {
    "name": "chungi chowk",
    "category": "highway",
    "subcategory": "bus_stop",
    "latitude": 33.9951322,
    "longitude": 71.5589605,
    "id": 4535637289
  },
  {
    "name": "Bilal autos",
    "category": "shop",
    "subcategory": "car_repair",
    "latitude": 33.9939534,
    "longitude": 71.5575157,
    "id": 4535637290
  },
  {
    "name": "Silk Bank",
    "category": "amenity",
    "subcategory": "bank",
    "latitude": 34.0008619,
    "longitude": 71.542055,
    "id": 4537273296
  },
  {
    "name": "عسکری بینک",
    "category": "amenity",
    "subcategory": "bank",
    "latitude": 34.0014194,
    "longitude": 71.542107,
    "id": 4537292092
  },
  {
    "name": "atm",
    "category": "amenity",
    "subcategory": "atm",
    "latitude": 34.001385,
    "longitude": 71.542178,
    "id": 4537292093
  },
  {
    "name": "NIB Bank",
    "category": "amenity",
    "subcategory": "bank",
    "latitude": 34.0008156,
    "longitude": 71.542452,
    "id": 4537301194
  },
  {
    "name": "The Bank Of Khyber",
    "category": "amenity",
    "subcategory": "bank",
    "latitude": 34.0012377,
    "longitude": 71.543182,
    "id": 4537301195
  },
  {
    "name": "فیصل بینک",
    "category": "amenity",
    "subcategory": "bank",
    "latitude": 34.0012017,
    "longitude": 71.5418402,
    "id": 4537304489
  },
  {
    "name": "Imran tyre centre",
    "category": "shop",
    "subcategory": "tyres",
    "latitude": 34.0003244,
    "longitude": 71.543007,
    "id": 4537336689
  },
  {
    "name": "Hermain tyre centre",
    "category": "shop",
    "subcategory": "tyres",
    "latitude": 34.000173,
    "longitude": 71.5431205,
    "id": 4537336789
  },
  {
    "name": "Public service Commission",
    "category": "office",
    "subcategory": "government",
    "latitude": 34.0075899,
    "longitude": 71.5531897,
    "id": 4556477289
  },
  {
    "name": "Police Check Point",
    "category": "amenity",
    "subcategory": "police",
    "latitude": 34.0078143,
    "longitude": 71.5535654,
    "id": 4556553889
  },
  {
    "name": "Governor House",
    "category": "office",
    "subcategory": "government",
    "latitude": 34.0094135,
    "longitude": 71.5570234,
    "id": 4556553890
  },
  {
    "name": "mission hospital peshawar",
    "category": "amenity",
    "subcategory": "hospital",
    "latitude": 34.0037555,
    "longitude": 71.5571769,
    "id": 4570305408
  },
  {
    "name": "shaukat khanum hospital collection point",
    "category": "amenity",
    "subcategory": "pharmacy",
    "latitude": 34.0035523,
    "longitude": 71.5594165,
    "id": 4570305409
  },
  {
    "name": "car_repair",
    "category": "shop",
    "subcategory": "car_repair",
    "latitude": 34.0004686,
    "longitude": 71.5527595,
    "id": 4570305410
  },
  {
    "name": "allied bank",
    "category": "amenity",
    "subcategory": "bank",
    "latitude": 34.0032602,
    "longitude": 71.5597023,
    "id": 4570316416
  },
  {
    "name": "afridi tyre and air shop",
    "category": "shop",
    "subcategory": "tyres",
    "latitude": 33.99681,
    "longitude": 71.555187,
    "id": 4570342094
  },
  {
    "name": "zarqa travellers",
    "category": "shop",
    "subcategory": "travel_agency",
    "latitude": 34.0036627,
    "longitude": 71.558704,
    "id": 4570346697
  },
  {
    "name": "sadiq medicose",
    "category": "amenity",
    "subcategory": "pharmacy",
    "latitude": 34.0034627,
    "longitude": 71.5596978,
    "id": 4570347090
  },
  {
    "name": "Army Check Point",
    "category": "amenity",
    "subcategory": "police",
    "latitude": 34.0049781,
    "longitude": 71.5503022,
    "id": 4572635390
  },
  {
    "name": "Army Check Point",
    "category": "amenity",
    "subcategory": "police",
    "latitude": 34.0076946,
    "longitude": 71.5530169,
    "id": 4572654289
  },
  {
    "name": "place_of_worship",
    "category": "amenity",
    "subcategory": "place_of_worship",
    "latitude": 34.0040386,
    "longitude": 71.5565677,
    "id": 4581586894
  },
  {
    "name": "wheel balancing",
    "category": "shop",
    "subcategory": "tyres",
    "latitude": 34.0036142,
    "longitude": 71.5539413,
    "id": 4581606591
  },
  {
    "name": "Elizabeth Girls school and college",
    "category": "amenity",
    "subcategory": "school",
    "latitude": 34.0038173,
    "longitude": 71.5566291,
    "id": 4581606592
  },
  {
    "name": "united bank limited",
    "category": "amenity",
    "subcategory": "bank",
    "latitude": 34.0039554,
    "longitude": 71.557212,
    "id": 4581606593
  },
  {
    "name": "syed anwar medical centre",
    "category": "amenity",
    "subcategory": "hospital",
    "latitude": 34.0038113,
    "longitude": 71.5553226,
    "id": 4581606691
  },
  {
    "name": "bank",
    "category": "amenity",
    "subcategory": "bank",
    "latitude": 34.0083921,
    "longitude": 71.5625848,
    "id": 4581607089
  },
  {
    "name": "Chief Burger",
    "category": "amenity",
    "subcategory": "fast_food",
    "latitude": 34.0020459,
    "longitude": 71.4989253,
    "id": 4585251697
  },
  {
    "name": "Dr Tahira nasreen gynaecologist",
    "category": "amenity",
    "subcategory": "clinic",
    "latitude": 34.0233043,
    "longitude": 71.5553035,
    "id": 4586526189
  },
  {
    "name": "Prime Fabrics",
    "category": "shop",
    "subcategory": "clothes",
    "latitude": 33.9971725,
    "longitude": 71.5385691,
    "id": 4599363489
  },
  {
    "name": "Drug Bank",
    "category": "amenity",
    "subcategory": "pharmacy",
    "latitude": 33.9973302,
    "longitude": 71.5399826,
    "id": 4599364389
  },
  {
    "name": "Madni Masjid",
    "category": "amenity",
    "subcategory": "place_of_worship",
    "latitude": 34.0055244,
    "longitude": 71.5085767,
    "id": 4607765399
  },
  {
    "name": "car_repair",
    "category": "shop",
    "subcategory": "car_repair",
    "latitude": 34.0056124,
    "longitude": 71.5088517,
    "id": 4607765893
  },
  {
    "name": "yakaa toot chowk",
    "category": "highway",
    "subcategory": "bus_stop",
    "latitude": 34.0048522,
    "longitude": 71.5776674,
    "id": 4628268590
  },
  {
    "name": "PAF Cinema",
    "category": "amenity",
    "subcategory": "cinema",
    "latitude": 33.997418,
    "longitude": 71.5266484,
    "id": 4656630791
  },
  {
    "name": "Khyber colony no 2",
    "category": "historic",
    "subcategory": "castle",
    "latitude": 34.0071453,
    "longitude": 71.5176613,
    "id": 4672018289
  },
  {
    "name": "protector office",
    "category": "office",
    "subcategory": "government",
    "latitude": 33.9882041,
    "longitude": 71.4951906,
    "id": 4693828691
  },
  {
    "name": "PAF base (Camp) Badabear Badhber",
    "category": "tourism",
    "subcategory": "camp_site",
    "latitude": 33.9590059,
    "longitude": 71.5724483,
    "id": 4706449383
  },
  {
    "name": "میزان بینک",
    "category": "amenity",
    "subcategory": "bank",
    "latitude": 34.0022605,
    "longitude": 71.5457577,
    "id": 4739418922
  },
  {
    "name": "Peshawar Garrison Club",
    "category": "amenity",
    "subcategory": "restaurant",
    "latitude": 33.9983281,
    "longitude": 71.5314482,
    "id": 4743126723
  },
  {
    "name": "Home Sweet Home",
    "category": "shop",
    "subcategory": "confectionery",
    "latitude": 33.9803723,
    "longitude": 71.5086019,
    "id": 4793422121
  },
  {
    "name": "Kohat Adda (Kohat Bus Station) Peshawar",
    "category": "amenity",
    "subcategory": "bus_station",
    "latitude": 33.9691317,
    "longitude": 71.5614788,
    "id": 4854914621
  },
  {
    "name": "fuel",
    "category": "amenity",
    "subcategory": "fuel",
    "latitude": 33.965738,
    "longitude": 71.4954963,
    "id": 4925249297
  },
  {
    "name": "fuel",
    "category": "amenity",
    "subcategory": "fuel",
    "latitude": 33.9661672,
    "longitude": 71.4962322,
    "id": 4925249298
  },
  {
    "name": "Tri Zone",
    "category": "amenity",
    "subcategory": "fuel",
    "latitude": 33.9607718,
    "longitude": 71.5115876,
    "id": 4925249472
  },
  {
    "name": "fuel",
    "category": "amenity",
    "subcategory": "fuel",
    "latitude": 33.9634873,
    "longitude": 71.5266231,
    "id": 4925249488
  },
  {
    "name": "fuel",
    "category": "amenity",
    "subcategory": "fuel",
    "latitude": 33.9711859,
    "longitude": 71.5408388,
    "id": 4925249494
  },
  {
    "name": "Panther CNG",
    "category": "amenity",
    "subcategory": "fuel",
    "latitude": 33.9710915,
    "longitude": 71.5423999,
    "id": 4925249495
  },
  {
    "name": "Byco petroleum",
    "category": "amenity",
    "subcategory": "fuel",
    "latitude": 33.9698508,
    "longitude": 71.5402046,
    "id": 4925249496
  },
  {
    "name": "Fahad CNG",
    "category": "amenity",
    "subcategory": "fuel",
    "latitude": 33.96656,
    "longitude": 71.5344642,
    "id": 4925249508
  },
  {
    "name": "fountain",
    "category": "amenity",
    "subcategory": "fountain",
    "latitude": 33.9861617,
    "longitude": 71.5265791,
    "id": 4925249717
  },
  {
    "name": "Professional Works",
    "category": "shop",
    "subcategory": "car_repair",
    "latitude": 33.9755288,
    "longitude": 71.5485517,
    "id": 4984232425
  },
  {
    "name": "Honda North",
    "category": "shop",
    "subcategory": "car_repair",
    "latitude": 34.0062727,
    "longitude": 71.5074712,
    "id": 4984760226
  },
  {
    "name": "restaurant",
    "category": "amenity",
    "subcategory": "restaurant",
    "latitude": 34.0085127,
    "longitude": 71.5636964,
    "id": 4989815221
  },
  {
    "name": "قطر ائیرویز",
    "category": "office",
    "subcategory": "company",
    "latitude": 34.0022924,
    "longitude": 71.5402025,
    "id": 5030321424
  },
  {
    "name": "Oxford University Press",
    "category": "shop",
    "subcategory": "books",
    "latitude": 34.0016976,
    "longitude": 71.5012473,
    "id": 5061737121
  },
  {
    "name": "motorcycle_parking",
    "category": "amenity",
    "subcategory": "motorcycle_parking",
    "latitude": 34.0023304,
    "longitude": 71.5012599,
    "id": 5067312827
  },
  {
    "name": "Express Mail Service",
    "category": "amenity",
    "subcategory": "post_office",
    "latitude": 33.9995594,
    "longitude": 71.5372531,
    "id": 5101543542
  },
  {
    "name": "tehkal work shop",
    "category": "shop",
    "subcategory": "car_repair",
    "latitude": 34.0050658,
    "longitude": 71.5090656,
    "id": 5137020924
  },
  {
    "name": "Laeeq Ahmad Ropes Merchant and Manufacturer",
    "category": "shop",
    "subcategory": "outdoor",
    "latitude": 34.0078258,
    "longitude": 71.5703592,
    "id": 5159054723
  },
  {
    "name": "Transport & Mass Transit Department",
    "category": "office",
    "subcategory": "government",
    "latitude": 34.0105256,
    "longitude": 71.5589267,
    "id": 5179991923
  },
  {
    "name": "Saudi Airlines Office",
    "category": "shop",
    "subcategory": "ticket",
    "latitude": 34.0025886,
    "longitude": 71.5452995,
    "id": 5253363022
  },
  {
    "name": "Aman hospital",
    "category": "amenity",
    "subcategory": "hospital",
    "latitude": 34.002047,
    "longitude": 71.5585967,
    "id": 5275615025
  },
  {
    "name": "Cake o'clock",
    "category": "shop",
    "subcategory": "bakery",
    "latitude": 34.0224186,
    "longitude": 71.5374639,
    "id": 5302603123
  },
  {
    "name": "Jinnah Medical College",
    "category": "amenity",
    "subcategory": "college",
    "latitude": 34.0378783,
    "longitude": 71.5296291,
    "id": 5302603124
  },
  {
    "name": "bus_stop",
    "category": "highway",
    "subcategory": "bus_stop",
    "latitude": 34.0140237,
    "longitude": 71.5431059,
    "id": 5302612821
  },
  {
    "name": "bus_stop",
    "category": "highway",
    "subcategory": "bus_stop",
    "latitude": 34.0137706,
    "longitude": 71.5423333,
    "id": 5302612822
  },
  {
    "name": "Mercy Teaching Hospital",
    "category": "amenity",
    "subcategory": "hospital",
    "latitude": 34.0073522,
    "longitude": 71.5234501,
    "id": 5302612921
  },
  {
    "name": "Warsak Mall",
    "category": "shop",
    "subcategory": "variety_store",
    "latitude": 34.0223073,
    "longitude": 71.537533,
    "id": 5308034722
  },
  {
    "name": "Pizza Papa Jan's",
    "category": "amenity",
    "subcategory": "fast_food",
    "latitude": 33.9812758,
    "longitude": 71.523981,
    "id": 5318680744
  },
  {
    "name": "Time's Pharmacy",
    "category": "amenity",
    "subcategory": "pharmacy",
    "latitude": 33.9989466,
    "longitude": 71.4948582,
    "id": 5329973540
  },
  {
    "name": "Agha Khan Laboratory Collection Point",
    "category": "amenity",
    "subcategory": "laboratory",
    "latitude": 34.0109492,
    "longitude": 71.5725392,
    "id": 5369612521
  },
  {
    "name": "Grandeur Lounge",
    "category": "tourism",
    "subcategory": "motel",
    "latitude": 34.0235128,
    "longitude": 71.5424059,
    "id": 5422392621
  },
  {
    "name": "Office",
    "category": "shop",
    "subcategory": "bookmaker",
    "latitude": 33.9911032,
    "longitude": 71.5336568,
    "id": 5443021922
  },
  {
    "name": "Lamsy Arcade",
    "category": "office",
    "subcategory": "company",
    "latitude": 34.0009346,
    "longitude": 71.54216,
    "id": 5448672724
  },
  {
    "name": "Green Shadi Hall",
    "category": "amenity",
    "subcategory": "community_centre",
    "latitude": 34.00114,
    "longitude": 71.5426525,
    "id": 5448704521
  },
  {
    "name": "Gerry's Visa",
    "category": "amenity",
    "subcategory": "post_office",
    "latitude": 34.0006657,
    "longitude": 71.5459418,
    "id": 5480036421
  },
  {
    "name": "kamo",
    "category": "office",
    "subcategory": "company",
    "latitude": 33.9654498,
    "longitude": 71.5313236,
    "id": 5488488623
  },
  {
    "name": "Town wedding hall",
    "category": "amenity",
    "subcategory": "restaurant",
    "latitude": 33.9973677,
    "longitude": 71.4938721,
    "id": 5502461822
  },
  {
    "name": "65174. E.Sahulath",
    "category": "amenity",
    "subcategory": "bank",
    "latitude": 33.9826436,
    "longitude": 71.548151,
    "id": 5542264925
  },
  {
    "name": "Money link Exchange co.(Pvt) Ltd",
    "category": "amenity",
    "subcategory": "bureau_de_change",
    "latitude": 34.0005723,
    "longitude": 71.5461061,
    "id": 5639161022
  },
  {
    "name": "Fata Secretariat Peshawar",
    "category": "office",
    "subcategory": "government",
    "latitude": 34.0239093,
    "longitude": 71.5339902,
    "id": 5640983021
  },
  {
    "name": "Health secretariat Peshawar0919211",
    "category": "office",
    "subcategory": "government",
    "latitude": 34.0139773,
    "longitude": 71.5593519,
    "id": 5641391822
  },
  {
    "name": "تمام سینٹس چرچ",
    "category": "amenity",
    "subcategory": "place_of_worship",
    "latitude": 34.0053072,
    "longitude": 71.5712297,
    "id": 5755599521
  },
  {
    "name": "Emaraat Hotel",
    "category": "tourism",
    "subcategory": "hotel",
    "latitude": 34.0042828,
    "longitude": 71.5665804,
    "id": 5756150023
  },
  {
    "name": "Mazeban Hotel",
    "category": "tourism",
    "subcategory": "hotel",
    "latitude": 34.0071082,
    "longitude": 71.5646213,
    "id": 5756198423
  },
  {
    "name": "Ayan Clinic",
    "category": "amenity",
    "subcategory": "clinic",
    "latitude": 34.0001258,
    "longitude": 71.4955987,
    "id": 5948635885
  },
  {
    "name": "Home department KPK",
    "category": "office",
    "subcategory": "government",
    "latitude": 34.0100174,
    "longitude": 71.5591178,
    "id": 5977417285
  },
  {
    "name": "TEVTA",
    "category": "office",
    "subcategory": "government",
    "latitude": 33.996003,
    "longitude": 71.5012016,
    "id": 6019346687
  },
  {
    "name": "Al-Ibadat Hotel",
    "category": "tourism",
    "subcategory": "hotel",
    "latitude": 34.00447,
    "longitude": 71.5668089,
    "id": 6065587285
  },
  {
    "name": "Nayatel Pvt office",
    "category": "office",
    "subcategory": "company",
    "latitude": 34.0087058,
    "longitude": 71.5111607,
    "id": 6068475686
  },
  {
    "name": "Pizza Hut",
    "category": "amenity",
    "subcategory": "restaurant",
    "latitude": 34.0006952,
    "longitude": 71.496881,
    "id": 6077828686
  },
  {
    "name": "Sanan’s House",
    "category": "tourism",
    "subcategory": "apartment",
    "latitude": 34.0214268,
    "longitude": 71.557341,
    "id": 6172762085
  },
  {
    "name": "atm",
    "category": "amenity",
    "subcategory": "atm",
    "latitude": 34.0120903,
    "longitude": 71.5736934,
    "id": 6174510485
  },
  {
    "name": "Golf Club (Home)",
    "category": "tourism",
    "subcategory": "guest_house",
    "latitude": 34.0197471,
    "longitude": 71.5564629,
    "id": 6174729789
  },
  {
    "name": "China Terrace",
    "category": "amenity",
    "subcategory": "restaurant",
    "latitude": 34.0050376,
    "longitude": 71.5063109,
    "id": 6190923085
  },
  {
    "name": "Namak Mandi",
    "category": "amenity",
    "subcategory": "restaurant",
    "latitude": 34.0051218,
    "longitude": 71.5656644,
    "id": 6190923385
  },
  {
    "name": "Ufone Main-Office",
    "category": "office",
    "subcategory": "company",
    "latitude": 34.0103264,
    "longitude": 71.5660135,
    "id": 6191923087
  },
  {
    "name": "Habibi Restaurant",
    "category": "amenity",
    "subcategory": "restaurant",
    "latitude": 34.0179657,
    "longitude": 71.5449112,
    "id": 6206468188
  },
  {
    "name": "Base MI Room",
    "category": "amenity",
    "subcategory": "hospital",
    "latitude": 33.993523,
    "longitude": 71.5232521,
    "id": 6260489785
  },
  {
    "name": "Fine Drive Rent A Car",
    "category": "amenity",
    "subcategory": "car_rental",
    "latitude": 34.001308,
    "longitude": 71.5430115,
    "id": 6341638799
  },
  {
    "name": "Khyber Medical Centre,Peshawar",
    "category": "amenity",
    "subcategory": "clinic",
    "latitude": 34.0048054,
    "longitude": 71.559758,
    "id": 6341638800
  },
  {
    "name": "Dr. Yousan Paracha",
    "category": "amenity",
    "subcategory": "doctors",
    "latitude": 34.0033995,
    "longitude": 71.5601626,
    "id": 6360170323
  },
  {
    "name": "Dr Younas Paracha",
    "category": "amenity",
    "subcategory": "doctors",
    "latitude": 34.0042971,
    "longitude": 71.5595024,
    "id": 6360193100
  },
  {
    "name": "Ghosia Masjid",
    "category": "amenity",
    "subcategory": "place_of_worship",
    "latitude": 33.9925471,
    "longitude": 71.537748,
    "id": 6382857186
  },
  {
    "name": "National Bank Of Pakistan",
    "category": "amenity",
    "subcategory": "bank",
    "latitude": 33.9998845,
    "longitude": 71.5416437,
    "id": 6445662386
  },
  {
    "name": "Suzuki Sarwar Automobiles",
    "category": "shop",
    "subcategory": "car",
    "latitude": 34.000182,
    "longitude": 71.5418239,
    "id": 6445666985
  },
  {
    "name": "R Sheen",
    "category": "shop",
    "subcategory": "clothes",
    "latitude": 33.9979173,
    "longitude": 71.5370733,
    "id": 6450683495
  },
  {
    "name": "Prince Books House",
    "category": "shop",
    "subcategory": "books",
    "latitude": 33.9976581,
    "longitude": 71.5368832,
    "id": 6450683496
  },
  {
    "name": "Surkhab Centre",
    "category": "shop",
    "subcategory": "clothes",
    "latitude": 33.9978177,
    "longitude": 71.5371839,
    "id": 6450693689
  },
  {
    "name": "University Book Store",
    "category": "shop",
    "subcategory": "books",
    "latitude": 34.0085962,
    "longitude": 71.5678554,
    "id": 6581436185
  },
  {
    "name": "Islamia Law College",
    "category": "amenity",
    "subcategory": "college",
    "latitude": 34.0041462,
    "longitude": 71.5034913,
    "id": 6609000685
  },
  {
    "name": "Rafsan Neuro Rehabilitation Centre",
    "category": "amenity",
    "subcategory": "hospital",
    "latitude": 33.9902768,
    "longitude": 71.5368514,
    "id": 6926824286
  },
  {
    "name": "Khattak steel corporation",
    "category": "shop",
    "subcategory": "hardware",
    "latitude": 33.9815257,
    "longitude": 71.5666202,
    "id": 6938818685
  },
  {
    "name": "NCS University system",
    "category": "amenity",
    "subcategory": "school",
    "latitude": 33.9797151,
    "longitude": 71.5041083,
    "id": 7051227185
  },
  {
    "name": "Benovolent Fund Building",
    "category": "office",
    "subcategory": "government",
    "latitude": 34.002723,
    "longitude": 71.5472745,
    "id": 7081974585
  },
  {
    "name": "Madrasa lilbanat Mufti Mohammd Qaim bijli ghar",
    "category": "amenity",
    "subcategory": "place_of_worship",
    "latitude": 33.9916636,
    "longitude": 71.5573162,
    "id": 7088124485
  },
  {
    "name": "JB Tower",
    "category": "shop",
    "subcategory": "supermarket",
    "latitude": 34.0050446,
    "longitude": 71.5061659,
    "id": 7149736386
  },
  {
    "name": "PSO filling station",
    "category": "amenity",
    "subcategory": "fuel",
    "latitude": 34.0042479,
    "longitude": 71.5043645,
    "id": 7149749485
  },
  {
    "name": "اسٹینڈرڈ چارٹرڈ",
    "category": "amenity",
    "subcategory": "bank",
    "latitude": 34.0032121,
    "longitude": 71.5023667,
    "id": 7149749486
  },
  {
    "name": "Kohati Gate",
    "category": "historic",
    "subcategory": "city_gate",
    "latitude": 34.0045063,
    "longitude": 71.5700846,
    "id": 7159388091
  },
  {
    "name": "Sirki Gate",
    "category": "historic",
    "subcategory": "city_gate",
    "latitude": 34.0023819,
    "longitude": 71.5681276,
    "id": 7159388092
  },
  {
    "name": "Sard Chah Gate",
    "category": "historic",
    "subcategory": "city_gate",
    "latitude": 34.0006102,
    "longitude": 71.566895,
    "id": 7159388093
  },
  {
    "name": "Bereskian Gate",
    "category": "historic",
    "subcategory": "Bereskian_gate",
    "latitude": 33.9993787,
    "longitude": 71.5639057,
    "id": 7159388094
  },
  {
    "name": "Dabgari Gate",
    "category": "historic",
    "subcategory": "city_gate",
    "latitude": 34.0032977,
    "longitude": 71.560169,
    "id": 7159388095
  },
  {
    "name": "Ramdas Gate",
    "category": "historic",
    "subcategory": "city_gate",
    "latitude": 33.9993523,
    "longitude": 71.5599693,
    "id": 7159388096
  },
  {
    "name": "Kabuli Gate",
    "category": "historic",
    "subcategory": "city_gate",
    "latitude": 34.0084108,
    "longitude": 71.568756,
    "id": 7159388110
  },
  {
    "name": "Bajori Gate",
    "category": "historic",
    "subcategory": "city_gate",
    "latitude": 34.0073549,
    "longitude": 71.5645908,
    "id": 7159388111
  },
  {
    "name": "Shayan autos",
    "category": "shop",
    "subcategory": "motorcycle",
    "latitude": 33.9816422,
    "longitude": 71.5666726,
    "id": 7159866085
  },
  {
    "name": "CNG Pump",
    "category": "amenity",
    "subcategory": "fuel",
    "latitude": 34.0226125,
    "longitude": 71.5643769,
    "id": 7271406385
  },
  {
    "name": "Sabrina Marquee, Shami Road, Peshawar",
    "category": "tourism",
    "subcategory": "viewpoint",
    "latitude": 34.0216199,
    "longitude": 71.5590909,
    "id": 7271406386
  },
  {
    "name": "Cafe Crunch",
    "category": "amenity",
    "subcategory": "cafe",
    "latitude": 33.9969859,
    "longitude": 71.4991126,
    "id": 7408857499
  },
  {
    "name": "Jamia Masjid Hanafia",
    "category": "amenity",
    "subcategory": "place_of_worship",
    "latitude": 34.0317284,
    "longitude": 71.5655718,
    "id": 7426815537
  },
  {
    "name": "Corporate Automobile Ptv Ltd",
    "category": "amenity",
    "subcategory": "car_rental",
    "latitude": 34.0019291,
    "longitude": 71.4981916,
    "id": 7546192685
  },
  {
    "name": "Hujra Arbab Abdul Kareem",
    "category": "historic",
    "subcategory": "castle",
    "latitude": 34.0110229,
    "longitude": 71.4985787,
    "id": 7690916596
  },
  {
    "name": "Kohati Chowk",
    "category": "highway",
    "subcategory": "traffic_signals",
    "latitude": 34.0046332,
    "longitude": 71.5700274,
    "id": 7818124485
  },
  {
    "name": "Madni",
    "category": "amenity",
    "subcategory": "place_of_worship",
    "latitude": 34.0053049,
    "longitude": 71.5664816,
    "id": 7818735568
  },
  {
    "name": "Picture House Cinema",
    "category": "amenity",
    "subcategory": "cinema",
    "latitude": 34.007965,
    "longitude": 71.5686851,
    "id": 7819030507
  },
  {
    "name": "Tasveer Mahal Cinema",
    "category": "amenity",
    "subcategory": "cinema",
    "latitude": 34.0078719,
    "longitude": 71.567141,
    "id": 7819030508
  },
  {
    "name": "Drey Cinema",
    "category": "amenity",
    "subcategory": "cinema",
    "latitude": 34.0082666,
    "longitude": 71.5680623,
    "id": 7819185626
  },
  {
    "name": "Shrine of Syed Sittar Shah",
    "category": "amenity",
    "subcategory": "place_of_worship",
    "latitude": 34.0007486,
    "longitude": 71.557825,
    "id": 7819185666
  },
  {
    "name": "پشاور چھاؤنی",
    "category": "place",
    "subcategory": "town",
    "latitude": 33.998598,
    "longitude": 71.533832,
    "id": 7819496891
  },
  {
    "name": "یونیورسٹی ٹاؤن",
    "category": "place",
    "subcategory": "town",
    "latitude": 33.9941425,
    "longitude": 71.4967131,
    "id": 7819502796
  },
  {
    "name": "Shama Cinema",
    "category": "amenity",
    "subcategory": "cinema",
    "latitude": 34.0186037,
    "longitude": 71.5702136,
    "id": 7821509390
  },
  {
    "name": "مار جان کیتھیڈرل",
    "category": "amenity",
    "subcategory": "place_of_worship",
    "latitude": 33.9988533,
    "longitude": 71.5307582,
    "id": 7821509404
  },
  {
    "name": "ساتویں روزہ ایڈونٹسٹ چرچ",
    "category": "amenity",
    "subcategory": "place_of_worship",
    "latitude": 33.9983333,
    "longitude": 71.5284545,
    "id": 7821509405
  },
  {
    "name": "Pishatakhara Payan",
    "category": "place",
    "subcategory": "neighbourhood",
    "latitude": 33.9637588,
    "longitude": 71.5111243,
    "id": 7822029032
  },
  {
    "name": "سعید آباد",
    "category": "place",
    "subcategory": "suburb",
    "latitude": 34.0226477,
    "longitude": 71.567771,
    "id": 7825179037
  },
  {
    "name": "Tableeghi Markaz",
    "category": "amenity",
    "subcategory": "place_of_worship",
    "latitude": 34.023036,
    "longitude": 71.5616021,
    "id": 7825179038
  },
  {
    "name": "ملک آباد",
    "category": "place",
    "subcategory": "neighbourhood",
    "latitude": 34.0253464,
    "longitude": 71.5637504,
    "id": 7825179039
  },
  {
    "name": "ابراہیم ٹاؤن",
    "category": "place",
    "subcategory": "neighbourhood",
    "latitude": 34.0261688,
    "longitude": 71.5659137,
    "id": 7825179040
  },
  {
    "name": "رشید آباد",
    "category": "place",
    "subcategory": "neighbourhood",
    "latitude": 34.0251131,
    "longitude": 71.5721236,
    "id": 7825179041
  },
  {
    "name": "Zintara",
    "category": "place",
    "subcategory": "neighbourhood",
    "latitude": 34.0323295,
    "longitude": 71.5702224,
    "id": 7825179043
  },
  {
    "name": "خواجہ ٹاؤن",
    "category": "place",
    "subcategory": "suburb",
    "latitude": 34.029235,
    "longitude": 71.5628604,
    "id": 7825179044
  },
  {
    "name": "قدیر ٹاؤن",
    "category": "place",
    "subcategory": "neighbourhood",
    "latitude": 34.0285924,
    "longitude": 71.5716962,
    "id": 7825179045
  },
  {
    "name": "حسین آباد",
    "category": "place",
    "subcategory": "suburb",
    "latitude": 34.0273629,
    "longitude": 71.557339,
    "id": 7825179046
  },
  {
    "name": "بشیر آباد",
    "category": "place",
    "subcategory": "suburb",
    "latitude": 34.0270333,
    "longitude": 71.5512451,
    "id": 7825179047
  },
  {
    "name": "مومین",
    "category": "amenity",
    "subcategory": "place_of_worship",
    "latitude": 33.9952365,
    "longitude": 71.5339528,
    "id": 7825179049
  },
  {
    "name": "Defence Flats",
    "category": "place",
    "subcategory": "neighbourhood",
    "latitude": 34.0096267,
    "longitude": 71.5316437,
    "id": 7825179053
  },
  {
    "name": "Defence",
    "category": "amenity",
    "subcategory": "place_of_worship",
    "latitude": 34.0077755,
    "longitude": 71.5349906,
    "id": 7825179054
  },
  {
    "name": "نوتھیہ",
    "category": "place",
    "subcategory": "suburb",
    "latitude": 33.9919903,
    "longitude": 71.5464843,
    "id": 7825179060
  },
  {
    "name": "Mir Ahmad Shah",
    "category": "amenity",
    "subcategory": "place_of_worship",
    "latitude": 33.9992992,
    "longitude": 71.5610547,
    "id": 7848603205
  },
  {
    "name": "مسجد بلال",
    "category": "amenity",
    "subcategory": "place_of_worship",
    "latitude": 33.9998013,
    "longitude": 71.5600769,
    "id": 7848603210
  },
  {
    "name": "Talaab Wali",
    "category": "amenity",
    "subcategory": "place_of_worship",
    "latitude": 34.0030908,
    "longitude": 71.5613741,
    "id": 7848603298
  },
  {
    "name": "place_of_worship",
    "category": "amenity",
    "subcategory": "place_of_worship",
    "latitude": 34.0004605,
    "longitude": 71.5628669,
    "id": 7848603436
  },
  {
    "name": "Shrine of Shah Mardan",
    "category": "amenity",
    "subcategory": "place_of_worship",
    "latitude": 34.0009744,
    "longitude": 71.5631483,
    "id": 7848603487
  },
  {
    "name": "Shrine of Pir Iman Shah",
    "category": "amenity",
    "subcategory": "place_of_worship",
    "latitude": 33.9998075,
    "longitude": 71.5640155,
    "id": 7848623232
  },
  {
    "name": "Sethi Mir Ahmad",
    "category": "amenity",
    "subcategory": "place_of_worship",
    "latitude": 34.0047351,
    "longitude": 71.5672635,
    "id": 7848785883
  },
  {
    "name": "Shrine of Shah Bilor",
    "category": "amenity",
    "subcategory": "place_of_worship",
    "latitude": 34.0068159,
    "longitude": 71.5694043,
    "id": 7849502610
  },
  {
    "name": "PRCS Dabgari Gate Branch",
    "category": "amenity",
    "subcategory": "organization",
    "latitude": 34.0049143,
    "longitude": 71.559557,
    "id": 8005478363
  },
  {
    "name": "Khwaja Town",
    "category": "tourism",
    "subcategory": "viewpoint",
    "latitude": 34.0312847,
    "longitude": 71.5600502,
    "id": 8280575320
  },
  {
    "name": "Bacha Khan Markaz",
    "category": "amenity",
    "subcategory": "community_centre",
    "latitude": 34.0317194,
    "longitude": 71.5575034,
    "id": 8280575321
  },
  {
    "name": "hujra arbab abdul karim",
    "category": "amenity",
    "subcategory": "community_centre",
    "latitude": 34.0109907,
    "longitude": 71.4977069,
    "id": 8325727517
  },
  {
    "name": "خلیل کامریڈ ہاسٹل راحت آباد",
    "category": "tourism",
    "subcategory": "hostel",
    "latitude": 34.0157457,
    "longitude": 71.4953401,
    "id": 8325727617
  },
  {
    "name": "Gemstone Market",
    "category": "amenity",
    "subcategory": "marketplace",
    "latitude": 34.0046514,
    "longitude": 71.5650549,
    "id": 8414257577
  },
  {
    "name": "Kashmiri",
    "category": "amenity",
    "subcategory": "place_of_worship",
    "latitude": 34.0038063,
    "longitude": 71.56663,
    "id": 8414257578
  },
  {
    "name": "Muhammadi",
    "category": "amenity",
    "subcategory": "place_of_worship",
    "latitude": 34.0012992,
    "longitude": 71.5648076,
    "id": 8414360057
  },
  {
    "name": "Bhana Mari Tomb",
    "category": "historic",
    "subcategory": "monument",
    "latitude": 34.000224,
    "longitude": 71.5547971,
    "id": 8414377635
  },
  {
    "name": "Kapoor Haveli",
    "category": "historic",
    "subcategory": "manor",
    "latitude": 34.0090531,
    "longitude": 71.5714804,
    "id": 8414433360
  },
  {
    "name": "Jahangirpura",
    "category": "place",
    "subcategory": "neighbourhood",
    "latitude": 34.0072001,
    "longitude": 71.5692724,
    "id": 8414523984
  },
  {
    "name": "کوٹلہ محسن خان",
    "category": "place",
    "subcategory": "suburb",
    "latitude": 33.9988296,
    "longitude": 71.5563602,
    "id": 8414523985
  },
  {
    "name": "firdous(qisa khwani road)",
    "category": "highway",
    "subcategory": "bus_stop",
    "latitude": 34.0118196,
    "longitude": 71.5715032,
    "id": 8420424854
  },
  {
    "name": "place_of_worship",
    "category": "amenity",
    "subcategory": "place_of_worship",
    "latitude": 33.989572,
    "longitude": 71.5342024,
    "id": 8420517097
  },
  {
    "name": "The Perfection House Brothers Store",
    "category": "shop",
    "subcategory": "clothes",
    "latitude": 33.9969208,
    "longitude": 71.5375283,
    "id": 8424752994
  },
  {
    "name": "Bata",
    "category": "shop",
    "subcategory": "shoes",
    "latitude": 33.9968871,
    "longitude": 71.5374752,
    "id": 8424752995
  },
  {
    "name": "Shah Qabool Police",
    "category": "amenity",
    "subcategory": "police",
    "latitude": 34.0033916,
    "longitude": 71.5605747,
    "id": 8424760923
  },
  {
    "name": "شفا میڈیکل مركز",
    "category": "amenity",
    "subcategory": "clinic",
    "latitude": 34.0033461,
    "longitude": 71.5608233,
    "id": 8424760924
  },
  {
    "name": "Dar Qurra",
    "category": "amenity",
    "subcategory": "place_of_worship",
    "latitude": 34.0050431,
    "longitude": 71.5626221,
    "id": 8424760929
  },
  {
    "name": "Imambargah Adil Baig",
    "category": "amenity",
    "subcategory": "place_of_worship",
    "latitude": 34.0059905,
    "longitude": 71.5702492,
    "id": 8424760931
  },
  {
    "name": "Abu Balr",
    "category": "amenity",
    "subcategory": "place_of_worship",
    "latitude": 34.0045633,
    "longitude": 71.5702208,
    "id": 8424760932
  },
  {
    "name": "Imambargah",
    "category": "amenity",
    "subcategory": "place_of_worship",
    "latitude": 34.0069331,
    "longitude": 71.5717159,
    "id": 8424760938
  },
  {
    "name": "Quba",
    "category": "amenity",
    "subcategory": "place_of_worship",
    "latitude": 33.9944065,
    "longitude": 71.540862,
    "id": 8428082065
  },
  {
    "name": "Aisa Khan Colony",
    "category": "place",
    "subcategory": "neighbourhood",
    "latitude": 33.9823721,
    "longitude": 71.536812,
    "id": 8428082069
  },
  {
    "name": "Umer Farooq",
    "category": "amenity",
    "subcategory": "place_of_worship",
    "latitude": 33.9768859,
    "longitude": 71.535207,
    "id": 8428082070
  },
  {
    "name": "Yaseen",
    "category": "amenity",
    "subcategory": "place_of_worship",
    "latitude": 33.9788422,
    "longitude": 71.5372229,
    "id": 8428082071
  },
  {
    "name": "Chambelo Jumaat",
    "category": "amenity",
    "subcategory": "place_of_worship",
    "latitude": 33.9801976,
    "longitude": 71.5443193,
    "id": 8428082072
  },
  {
    "name": "Ghaz",
    "category": "amenity",
    "subcategory": "place_of_worship",
    "latitude": 33.9810047,
    "longitude": 71.5456189,
    "id": 8428082073
  },
  {
    "name": "Arbaban",
    "category": "amenity",
    "subcategory": "place_of_worship",
    "latitude": 33.9800949,
    "longitude": 71.5467127,
    "id": 8428082074
  },
  {
    "name": "Manz Jumaat",
    "category": "amenity",
    "subcategory": "place_of_worship",
    "latitude": 33.9809365,
    "longitude": 71.5480099,
    "id": 8428082078
  },
  {
    "name": "مسجد بلال",
    "category": "amenity",
    "subcategory": "place_of_worship",
    "latitude": 33.9811657,
    "longitude": 71.5497302,
    "id": 8428082079
  },
  {
    "name": "Gul Zaman",
    "category": "amenity",
    "subcategory": "place_of_worship",
    "latitude": 33.9824133,
    "longitude": 71.5521104,
    "id": 8428082080
  },
  {
    "name": "نواب رشید",
    "category": "amenity",
    "subcategory": "place_of_worship",
    "latitude": 33.9874866,
    "longitude": 71.5617823,
    "id": 8428082093
  },
  {
    "name": "Mohallah Sardanan",
    "category": "place",
    "subcategory": "neighbourhood",
    "latitude": 33.9992805,
    "longitude": 71.5612978,
    "id": 8433296108
  },
  {
    "name": "Mohallah Quwwatul Islam",
    "category": "place",
    "subcategory": "neighbourhood",
    "latitude": 34.0003434,
    "longitude": 71.5606541,
    "id": 8433296109
  },
  {
    "name": "Mohallah Joga Shah",
    "category": "place",
    "subcategory": "neighbourhood",
    "latitude": 34.0017398,
    "longitude": 71.5628482,
    "id": 8433296110
  },
  {
    "name": "Lakkar Mandi",
    "category": "place",
    "subcategory": "neighbourhood",
    "latitude": 34.0039642,
    "longitude": 71.5630796,
    "id": 8433296111
  },
  {
    "name": "Mohallah Shah Qabool",
    "category": "place",
    "subcategory": "neighbourhood",
    "latitude": 34.0042894,
    "longitude": 71.5644619,
    "id": 8433296112
  },
  {
    "name": "Mohallah Muhammad Dad",
    "category": "place",
    "subcategory": "neighbourhood",
    "latitude": 34.002857,
    "longitude": 71.5647421,
    "id": 8433296113
  },
  {
    "name": "Mohallah Beriskian",
    "category": "place",
    "subcategory": "neighbourhood",
    "latitude": 33.9995662,
    "longitude": 71.5644713,
    "id": 8433296114
  },
  {
    "name": "Dhaki Hameed Khan",
    "category": "place",
    "subcategory": "neighbourhood",
    "latitude": 34.0091061,
    "longitude": 71.5700194,
    "id": 8436248344
  },
  {
    "name": "Dhaki Nalbandi",
    "category": "place",
    "subcategory": "neighbourhood",
    "latitude": 34.0084402,
    "longitude": 71.5716445,
    "id": 8436248345
  },
  {
    "name": "Kucha Rasaldar",
    "category": "place",
    "subcategory": "neighbourhood",
    "latitude": 34.0063749,
    "longitude": 71.570459,
    "id": 8436248346
  },
  {
    "name": "Mohallah Risi Wata",
    "category": "place",
    "subcategory": "neighbourhood",
    "latitude": 34.0057206,
    "longitude": 71.5715704,
    "id": 8436248347
  },
  {
    "name": "یوسف آباد",
    "category": "place",
    "subcategory": "suburb",
    "latitude": 34.0013283,
    "longitude": 71.5736671,
    "id": 8436248357
  },
  {
    "name": "pishtakhara chowk",
    "category": "highway",
    "subcategory": "bus_stop",
    "latitude": 33.9610865,
    "longitude": 71.504247,
    "id": 8538797383
  },
  {
    "name": "Nice Education System",
    "category": "amenity",
    "subcategory": "school",
    "latitude": 33.9969198,
    "longitude": 71.4976184,
    "id": 8557726081
  },
  {
    "name": "Garhi Sikandar Khan",
    "category": "place",
    "subcategory": "neighbourhood",
    "latitude": 33.9702474,
    "longitude": 71.5287417,
    "id": 8573287839
  },
  {
    "name": "شیر علی ٹاؤن",
    "category": "place",
    "subcategory": "suburb",
    "latitude": 34.0244427,
    "longitude": 71.5356597,
    "id": 8909364261
  },
  {
    "name": "Ahmad Medical Institute Peshawar",
    "category": "amenity",
    "subcategory": "college",
    "latitude": 34.0018619,
    "longitude": 71.5043031,
    "id": 9032581718
  },
  {
    "name": "FES Higher Education",
    "category": "tourism",
    "subcategory": "attraction",
    "latitude": 34.0038017,
    "longitude": 71.5042725,
    "id": 9098547422
  },
  {
    "name": "Pakistan Post",
    "category": "amenity",
    "subcategory": "post_office",
    "latitude": 34.0046196,
    "longitude": 71.5037994,
    "id": 9111161571
  },
  {
    "name": "TCS",
    "category": "amenity",
    "subcategory": "post_office",
    "latitude": 33.9998817,
    "longitude": 71.5369415,
    "id": 9111578106
  },
  {
    "name": "TCS",
    "category": "amenity",
    "subcategory": "post_office",
    "latitude": 33.9904976,
    "longitude": 71.5330811,
    "id": 9111587314
  },
  {
    "name": "جے ایس بینک",
    "category": "amenity",
    "subcategory": "bank",
    "latitude": 33.9616356,
    "longitude": 71.5285797,
    "id": 9112902341
  },
  {
    "name": "نیشنل بینک آف پاکستان",
    "category": "amenity",
    "subcategory": "bank",
    "latitude": 33.9992294,
    "longitude": 71.5348129,
    "id": 9112902382
  },
  {
    "name": "Fazal Raheem Kabab House",
    "category": "amenity",
    "subcategory": "restaurant",
    "latitude": 34.0050181,
    "longitude": 71.569497,
    "id": 9195994217
  },
  {
    "name": "Fortune Holdings Real Estate Peshawar Pakistan",
    "category": "office",
    "subcategory": "estate_agent",
    "latitude": 34.0007512,
    "longitude": 71.4981418,
    "id": 9320217141
  },
  {
    "name": "Peshawar car stand Sadr bazar",
    "category": "amenity",
    "subcategory": "car_rental",
    "latitude": 34.0008486,
    "longitude": 71.5425346,
    "id": 9491614446
  },
  {
    "name": "Peshawar car stand - Sadar",
    "category": "amenity",
    "subcategory": "taxi",
    "latitude": 34.0008216,
    "longitude": 71.5425502,
    "id": 9491679409
  },
  {
    "name": "parking",
    "category": "amenity",
    "subcategory": "parking",
    "latitude": 34.0055501,
    "longitude": 71.5059743,
    "id": 9503963101
  },
  {
    "name": "parking",
    "category": "amenity",
    "subcategory": "parking",
    "latitude": 33.9977103,
    "longitude": 71.5386743,
    "id": 9513032145
  },
  {
    "name": "parking",
    "category": "amenity",
    "subcategory": "parking",
    "latitude": 33.9966674,
    "longitude": 71.5371204,
    "id": 9513043957
  },
  {
    "name": "parking",
    "category": "amenity",
    "subcategory": "parking",
    "latitude": 34.0008614,
    "longitude": 71.5448569,
    "id": 9513103858
  },
  {
    "name": "parking",
    "category": "amenity",
    "subcategory": "parking",
    "latitude": 33.9976197,
    "longitude": 71.535209,
    "id": 9513170756
  },
  {
    "name": "parking",
    "category": "amenity",
    "subcategory": "parking",
    "latitude": 33.9969064,
    "longitude": 71.5371135,
    "id": 9513222034
  },
  {
    "name": "parking",
    "category": "amenity",
    "subcategory": "parking",
    "latitude": 34.0072084,
    "longitude": 71.5251989,
    "id": 9518426041
  },
  {
    "name": "parking",
    "category": "amenity",
    "subcategory": "parking",
    "latitude": 33.99996,
    "longitude": 71.4953428,
    "id": 9518427105
  },
  {
    "name": "parking",
    "category": "amenity",
    "subcategory": "parking",
    "latitude": 34.0056623,
    "longitude": 71.5062478,
    "id": 9518441890
  },
  {
    "name": "parking",
    "category": "amenity",
    "subcategory": "parking",
    "latitude": 34.0002601,
    "longitude": 71.4967472,
    "id": 9518468150
  },
  {
    "name": "parking",
    "category": "amenity",
    "subcategory": "parking",
    "latitude": 34.0011178,
    "longitude": 71.4986164,
    "id": 9518481242
  },
  {
    "name": "parking",
    "category": "amenity",
    "subcategory": "parking",
    "latitude": 34.0026305,
    "longitude": 71.5013994,
    "id": 9518485180
  },
  {
    "name": "parking",
    "category": "amenity",
    "subcategory": "parking",
    "latitude": 34.0062633,
    "longitude": 71.5084308,
    "id": 9518487986
  },
  {
    "name": "parking",
    "category": "amenity",
    "subcategory": "parking",
    "latitude": 34.0029197,
    "longitude": 71.5011079,
    "id": 9518490679
  },
  {
    "name": "parking",
    "category": "amenity",
    "subcategory": "parking",
    "latitude": 34.0083318,
    "longitude": 71.5113224,
    "id": 9518510890
  },
  {
    "name": "parking",
    "category": "amenity",
    "subcategory": "parking",
    "latitude": 34.0075328,
    "longitude": 71.5242219,
    "id": 9518515614
  },
  {
    "name": "تاکال",
    "category": "place",
    "subcategory": "locality",
    "latitude": 34.0107257,
    "longitude": 71.5164331,
    "id": 9524514732
  },
  {
    "name": "crossing",
    "category": "highway",
    "subcategory": "crossing",
    "latitude": 34.0009537,
    "longitude": 71.4979952,
    "id": 9526684550
  },
  {
    "name": "crossing",
    "category": "highway",
    "subcategory": "crossing",
    "latitude": 33.989925,
    "longitude": 71.5789158,
    "id": 9532027641
  },
  {
    "name": "Oxygen Fitness Club",
    "category": "leisure",
    "subcategory": "fitness_centre",
    "latitude": 34.0229534,
    "longitude": 71.537364,
    "id": 9535295164
  },
  {
    "name": "crossing",
    "category": "highway",
    "subcategory": "crossing",
    "latitude": 33.9747278,
    "longitude": 71.5147395,
    "id": 9537230918
  },
  {
    "name": "firdous(qisa khwani road)",
    "category": "highway",
    "subcategory": "bus_stop",
    "latitude": 34.0120254,
    "longitude": 71.5715043,
    "id": 9550042167
  },
  {
    "name": "kohat road",
    "category": "highway",
    "subcategory": "bus_stop",
    "latitude": 33.9990412,
    "longitude": 71.5634283,
    "id": 9553939610
  },
  {
    "name": "chargano chowk adda",
    "category": "highway",
    "subcategory": "bus_stop",
    "latitude": 34.020352,
    "longitude": 71.5720608,
    "id": 9554573988
  },
  {
    "name": "kohat road(naseerullah memoral hospital)",
    "category": "highway",
    "subcategory": "bus_stop",
    "latitude": 33.9834979,
    "longitude": 71.5612151,
    "id": 9559895672
  },
  {
    "name": "Government Press",
    "category": "office",
    "subcategory": "government",
    "latitude": 34.0192999,
    "longitude": 71.5674432,
    "id": 9583407982
  },
  {
    "name": "Casagrande Lab",
    "category": "amenity",
    "subcategory": "place_of_worship",
    "latitude": 34.0086168,
    "longitude": 71.5112959,
    "id": 9589424280
  },
  {
    "name": "Peshawar Heights",
    "category": "tourism",
    "subcategory": "apartment",
    "latitude": 33.9900284,
    "longitude": 71.5054169,
    "id": 9600042433
  },
  {
    "name": "Park View Mall and Apartments Peshawar",
    "category": "shop",
    "subcategory": "mall",
    "latitude": 34.0223083,
    "longitude": 71.5398178,
    "id": 9703607612
  },
  {
    "name": "crossing",
    "category": "highway",
    "subcategory": "crossing",
    "latitude": 33.9782503,
    "longitude": 71.5144106,
    "id": 9840332303
  },
  {
    "name": "crossing",
    "category": "highway",
    "subcategory": "crossing",
    "latitude": 33.975633,
    "longitude": 71.5146872,
    "id": 9840332304
  },
  {
    "name": "Bolt Marketing",
    "category": "office",
    "subcategory": "advertising_agency",
    "latitude": 34.0086568,
    "longitude": 71.511195,
    "id": 9909632493
  },
  {
    "name": "Federal Insurance Mohtasib Office (دفتر وفاقی انشورنس محتسب)",
    "category": "office",
    "subcategory": "government",
    "latitude": 34.0043244,
    "longitude": 71.5031145,
    "id": 10250741012
  },
  {
    "name": "جوبلی فیمیلی تکافل صمد پلازہ",
    "category": "office",
    "subcategory": "insurance",
    "latitude": 34.0079093,
    "longitude": 71.5171996,
    "id": 10250742809
  },
  {
    "name": "IIUI SCHOOLS WARSAK ROAD PESHAWAR",
    "category": "amenity",
    "subcategory": "school",
    "latitude": 34.030147,
    "longitude": 71.5329728,
    "id": 10742936802
  },
  {
    "name": "Soup 100",
    "category": "amenity",
    "subcategory": "restaurant",
    "latitude": 34.0049712,
    "longitude": 71.5047839,
    "id": 11146575505
  },
  {
    "name": "Fruit bazar",
    "category": "shop",
    "subcategory": "supermarket",
    "latitude": 34.0089472,
    "longitude": 71.5188019,
    "id": 11146575506
  },
  {
    "name": "Pilav 4 people 1200 2023",
    "category": "amenity",
    "subcategory": "restaurant",
    "latitude": 34.008672,
    "longitude": 71.5117624,
    "id": 11152260605
  },
  {
    "name": "Chitral today",
    "category": "tourism",
    "subcategory": "hotel",
    "latitude": 33.9969832,
    "longitude": 71.5409195,
    "id": 11361634991
  },
  {
    "name": "crossing",
    "category": "highway",
    "subcategory": "crossing",
    "latitude": 34.0074063,
    "longitude": 71.5235422,
    "id": 11571694829
  },
  {
    "name": "Iftikhar Optico",
    "category": "shop",
    "subcategory": "optician",
    "latitude": 33.9974148,
    "longitude": 71.5377202,
    "id": 11728817480
  },
  {
    "name": "Haji Saad Ullah Sami Ullah Jewellers",
    "category": "shop",
    "subcategory": "jewelry",
    "latitude": 34.0103242,
    "longitude": 71.5734604,
    "id": 11728846353
  },
  {
    "name": "MM Academy",
    "category": "amenity",
    "subcategory": "college",
    "latitude": 34.0007002,
    "longitude": 71.5004958,
    "id": 11729139766
  },
  {
    "name": "Imtiaz",
    "category": "shop",
    "subcategory": "supermarket",
    "latitude": 33.9637583,
    "longitude": 71.5277822,
    "id": 12176304531
  },
  {
    "name": "Sarhad University of Science & Information Technology",
    "category": "amenity",
    "subcategory": "university",
    "latitude": 33.9628356,
    "longitude": 71.5275636,
    "id": 12176304532
  },
  {
    "name": "St Mary's High School",
    "category": "amenity",
    "subcategory": "school",
    "latitude": 34.0143585,
    "longitude": 71.5434341,
    "id": 12255770833
  },
  {
    "name": "Marbella Cave Wedding Hall",
    "category": "amenity",
    "subcategory": "events_venue",
    "latitude": 34.0234871,
    "longitude": 71.5414047,
    "id": 12257179195
  },
  {
    "name": "Dita Sweet House",
    "category": "shop",
    "subcategory": "bakery",
    "latitude": 34.0042267,
    "longitude": 71.5667648,
    "id": 12357225709
  },
  {
    "name": "Suleman Bakers & Cake Center",
    "category": "shop",
    "subcategory": "bakery",
    "latitude": 34.0042229,
    "longitude": 71.5669174,
    "id": 12357291087
  },
  {
    "name": "Asian Wok Peshawar",
    "category": "amenity",
    "subcategory": "restaurant",
    "latitude": 33.9970447,
    "longitude": 71.5298563,
    "id": 12973564321
  },
  {
    "name": "صدر بازار",
    "category": "highway",
    "subcategory": "bus_stop",
    "latitude": 33.9951083,
    "longitude": 71.5382762,
    "id": 13410825889
  },
  {
    "name": "صدر بازار",
    "category": "highway",
    "subcategory": "bus_stop",
    "latitude": 33.9950105,
    "longitude": 71.5383568,
    "id": 13410825890
  },
  {
    "name": "تہکال پایان",
    "category": "highway",
    "subcategory": "bus_stop",
    "latitude": 34.0083169,
    "longitude": 71.5193347,
    "id": 13410825891
  },
  {
    "name": "تہکال پایان",
    "category": "highway",
    "subcategory": "bus_stop",
    "latitude": 34.008226,
    "longitude": 71.5193238,
    "id": 13410825892
  },
  {
    "name": "تہکال بالا",
    "category": "highway",
    "subcategory": "bus_stop",
    "latitude": 34.0069779,
    "longitude": 71.5091006,
    "id": 13410825895
  },
  {
    "name": "تہکال بالا",
    "category": "highway",
    "subcategory": "bus_stop",
    "latitude": 34.0068866,
    "longitude": 71.5091664,
    "id": 13410825897
  },
  {
    "name": "ابدرہ روڈ",
    "category": "highway",
    "subcategory": "bus_stop",
    "latitude": 34.0032451,
    "longitude": 71.5019221,
    "id": 13410825898
  },
  {
    "name": "ابدرہ روڈ",
    "category": "highway",
    "subcategory": "bus_stop",
    "latitude": 34.0031425,
    "longitude": 71.5019753,
    "id": 13410825899
  },
  {
    "name": "یونیورسٹی ٹاؤن",
    "category": "highway",
    "subcategory": "bus_stop",
    "latitude": 33.9994535,
    "longitude": 71.4947282,
    "id": 13410825900
  },
  {
    "name": "یونیورسٹی ٹاؤن",
    "category": "highway",
    "subcategory": "bus_stop",
    "latitude": 33.9993651,
    "longitude": 71.4947813,
    "id": 13410827601
  },
  {
    "name": "ایف سی چوک",
    "category": "highway",
    "subcategory": "bus_stop",
    "latitude": 33.9990966,
    "longitude": 71.5443881,
    "id": 13410849458
  },
  {
    "name": "ایف سی چوک",
    "category": "highway",
    "subcategory": "bus_stop",
    "latitude": 33.999021,
    "longitude": 71.5444664,
    "id": 13410849459
  },
  {
    "name": "ریلوے اسٹیشن",
    "category": "highway",
    "subcategory": "bus_stop",
    "latitude": 34.0024935,
    "longitude": 71.5496757,
    "id": 13410849461
  },
  {
    "name": "ریلوے اسٹیشن",
    "category": "highway",
    "subcategory": "bus_stop",
    "latitude": 34.002591,
    "longitude": 71.5495811,
    "id": 13410849462
  },
  {
    "name": "ڈبگری گارڈنز",
    "category": "highway",
    "subcategory": "bus_stop",
    "latitude": 34.0054456,
    "longitude": 71.5570721,
    "id": 13410849463
  },
  {
    "name": "ڈبگری گارڈنز",
    "category": "highway",
    "subcategory": "bus_stop",
    "latitude": 34.0053545,
    "longitude": 71.5571428,
    "id": 13410849464
  },
  {
    "name": "شعبہ بازار",
    "category": "highway",
    "subcategory": "bus_stop",
    "latitude": 34.0078997,
    "longitude": 71.5620021,
    "id": 13410849465
  },
  {
    "name": "شعبہ بازار",
    "category": "highway",
    "subcategory": "bus_stop",
    "latitude": 34.0079718,
    "longitude": 71.561948,
    "id": 13410849466
  },
  {
    "name": "خیبر بازار",
    "category": "highway",
    "subcategory": "bus_stop",
    "latitude": 34.0105317,
    "longitude": 71.5665594,
    "id": 13410849467
  },
  {
    "name": "خیبر بازار",
    "category": "highway",
    "subcategory": "bus_stop",
    "latitude": 34.0104073,
    "longitude": 71.5666045,
    "id": 13410849468
  },
  {
    "name": "ملک سعد شہید",
    "category": "highway",
    "subcategory": "bus_stop",
    "latitude": 34.0146918,
    "longitude": 71.5742139,
    "id": 13410849469
  },
  {
    "name": "ملک سعد شہید",
    "category": "highway",
    "subcategory": "bus_stop",
    "latitude": 34.0145728,
    "longitude": 71.5742194,
    "id": 13410849470
  },
  {
    "name": "مال روڈ",
    "category": "highway",
    "subcategory": "bus_stop",
    "latitude": 33.9984398,
    "longitude": 71.5335096,
    "id": 13410851666
  },
  {
    "name": "مال روڈ",
    "category": "highway",
    "subcategory": "bus_stop",
    "latitude": 33.998389,
    "longitude": 71.5334001,
    "id": 13410851668
  },
  {
    "name": "Brightside High School",
    "category": "amenity",
    "subcategory": "school",
    "latitude": 33.9932532,
    "longitude": 71.4994734,
    "id": 13563591801
  },
  {
    "name": "Brightside High School",
    "category": "amenity",
    "subcategory": "school",
    "latitude": 33.99433,
    "longitude": 71.4960108,
    "id": 13563604101
  },
  {
    "name": "Peshawar Golf Club",
    "category": "leisure",
    "subcategory": "golf_course",
    "latitude": 34.01784048727273,
    "longitude": 71.56254226909091,
    "id": 7925249
  },
  {
    "name": "primary",
    "category": "highway",
    "subcategory": "primary",
    "latitude": 34.0053307,
    "longitude": 71.53427903333333,
    "id": 26810356
  },
  {
    "name": "گرینڈ ٹرنک روڈ",
    "category": "highway",
    "subcategory": "trunk",
    "latitude": 34.012094957575755,
    "longitude": 71.54326216666666,
    "id": 27380778
  },
  {
    "name": "پشاور رنگ روڈ",
    "category": "highway",
    "subcategory": "trunk",
    "latitude": 33.979146300000004,
    "longitude": 71.56196681666667,
    "id": 27381218
  },
  {
    "name": "پشاور رنگ روڈ",
    "category": "highway",
    "subcategory": "trunk",
    "latitude": 34.030462560000004,
    "longitude": 71.55238025999999,
    "id": 27991389
  },
  {
    "name": "trunk",
    "category": "highway",
    "subcategory": "trunk",
    "latitude": 33.979329725,
    "longitude": 71.563431025,
    "id": 27991393
  },
  {
    "name": "پشاور رنگ روڈ",
    "category": "highway",
    "subcategory": "trunk",
    "latitude": 33.98403763,
    "longitude": 71.57336298,
    "id": 27991400
  },
  {
    "name": "پشاور رنگ روڈ",
    "category": "highway",
    "subcategory": "trunk",
    "latitude": 33.96954100689655,
    "longitude": 71.48833899655173,
    "id": 27993866
  },
  {
    "name": "پشاور رنگ روڈ",
    "category": "highway",
    "subcategory": "trunk",
    "latitude": 33.98385068461538,
    "longitude": 71.57300208076923,
    "id": 27993884
  },
  {
    "name": "پشاور رنگ روڈ",
    "category": "highway",
    "subcategory": "trunk",
    "latitude": 33.9798683375,
    "longitude": 71.56453263750001,
    "id": 27993893
  },
  {
    "name": "پشاور رنگ روڈ",
    "category": "highway",
    "subcategory": "trunk",
    "latitude": 33.97556740666666,
    "longitude": 71.55053967666666,
    "id": 27993894
  },
  {
    "name": "گرینڈ ٹرنک روڈ",
    "category": "highway",
    "subcategory": "trunk",
    "latitude": 34.01455805,
    "longitude": 71.55893152499999,
    "id": 28012706
  },
  {
    "name": "Sir Syed Road",
    "category": "highway",
    "subcategory": "primary",
    "latitude": 33.99643757142857,
    "longitude": 71.54025678571428,
    "id": 28014888
  },
  {
    "name": "مال روڈ",
    "category": "highway",
    "subcategory": "primary",
    "latitude": 33.984829575,
    "longitude": 71.52639562499999,
    "id": 28015019
  },
  {
    "name": "ریلوے روڈ",
    "category": "highway",
    "subcategory": "residential",
    "latitude": 34.00212442,
    "longitude": 71.55269588,
    "id": 28015348
  },
  {
    "name": "ریلوے روڈ",
    "category": "highway",
    "subcategory": "primary",
    "latitude": 33.99975445,
    "longitude": 71.5473221,
    "id": 28015350
  },
  {
    "name": "ریلوے روڈ",
    "category": "highway",
    "subcategory": "primary",
    "latitude": 34.0002051,
    "longitude": 71.5468901,
    "id": 28015352
  },
  {
    "name": "Dora Road",
    "category": "highway",
    "subcategory": "primary",
    "latitude": 33.985421333333335,
    "longitude": 71.56199183333334,
    "id": 28015652
  },
  {
    "name": "Kohat Road",
    "category": "highway",
    "subcategory": "primary",
    "latitude": 33.9972832,
    "longitude": 71.55936527272728,
    "id": 28015789
  },
  {
    "name": "سرکلر روڈ",
    "category": "highway",
    "subcategory": "tertiary",
    "latitude": 34.010999005882354,
    "longitude": 71.57141767647059,
    "id": 28015812
  },
  {
    "name": "Dabgari Bazaar",
    "category": "highway",
    "subcategory": "tertiary",
    "latitude": 34.003730053846155,
    "longitude": 71.56418588461538,
    "id": 28015854
  },
  {
    "name": "Sirki Bazaar",
    "category": "highway",
    "subcategory": "secondary",
    "latitude": 34.00336253846154,
    "longitude": 71.56741764615384,
    "id": 28015916
  },
  {
    "name": "باجوڑ روڈ",
    "category": "highway",
    "subcategory": "secondary",
    "latitude": 34.009713,
    "longitude": 71.56207173749999,
    "id": 28015928
  },
  {
    "name": "باجوڑ روڈ",
    "category": "highway",
    "subcategory": "secondary",
    "latitude": 34.0097038,
    "longitude": 71.5613042,
    "id": 28015929
  },
  {
    "name": "ھسپتال روڈ",
    "category": "highway",
    "subcategory": "tertiary",
    "latitude": 34.01356462857143,
    "longitude": 71.56852444285714,
    "id": 28015946
  },
  {
    "name": "Khyber Bazaar Road",
    "category": "highway",
    "subcategory": "tertiary",
    "latitude": 34.0092116125,
    "longitude": 71.56458225,
    "id": 28016007
  },
  {
    "name": "گرینڈ ٹرنک روڈ",
    "category": "highway",
    "subcategory": "trunk",
    "latitude": 34.00564557692308,
    "longitude": 71.53421857692307,
    "id": 28016553
  },
  {
    "name": "trunk_link",
    "category": "highway",
    "subcategory": "trunk_link",
    "latitude": 34.0057968625,
    "longitude": 71.53323565625,
    "id": 28016591
  },
  {
    "name": "Old Bara Road",
    "category": "highway",
    "subcategory": "tertiary",
    "latitude": 33.992064425,
    "longitude": 71.51050609166667,
    "id": 28018273
  },
  {
    "name": "Abdarra Road",
    "category": "highway",
    "subcategory": "tertiary",
    "latitude": 33.999569550000004,
    "longitude": 71.5002964625,
    "id": 28018298
  },
  {
    "name": "Old Jamrud Road",
    "category": "highway",
    "subcategory": "tertiary",
    "latitude": 33.997519925,
    "longitude": 71.495323325,
    "id": 28018306
  },
  {
    "name": "Abdarra Road",
    "category": "highway",
    "subcategory": "tertiary",
    "latitude": 33.990876822222226,
    "longitude": 71.49959562222222,
    "id": 28018328
  },
  {
    "name": "Chinar Road",
    "category": "highway",
    "subcategory": "residential",
    "latitude": 33.99441075,
    "longitude": 71.49638941666667,
    "id": 28018329
  },
  {
    "name": "سرکلر روڈ",
    "category": "highway",
    "subcategory": "tertiary",
    "latitude": 33.990439245454546,
    "longitude": 71.49481503636365,
    "id": 28018371
  },
  {
    "name": "Syed Jamal-ud-Din Afghani Lane",
    "category": "highway",
    "subcategory": "residential",
    "latitude": 33.98924611428571,
    "longitude": 71.49410754285715,
    "id": 28018391
  },
  {
    "name": "ریلوے روڈ",
    "category": "highway",
    "subcategory": "residential",
    "latitude": 33.988944227272725,
    "longitude": 71.50786292727273,
    "id": 28018395
  },
  {
    "name": "Sahib Zadda Abdul Qayyum Road",
    "category": "highway",
    "subcategory": "residential",
    "latitude": 33.992004236363634,
    "longitude": 71.49587964999999,
    "id": 28018415
  },
  {
    "name": "Rehman Baba Road",
    "category": "highway",
    "subcategory": "residential",
    "latitude": 33.99458261111111,
    "longitude": 71.50191478888888,
    "id": 28018438
  },
  {
    "name": "اسکول روڈ",
    "category": "highway",
    "subcategory": "residential",
    "latitude": 34.00016336666667,
    "longitude": 71.4978953,
    "id": 28018439
  },
  {
    "name": "Mulberry Road",
    "category": "highway",
    "subcategory": "residential",
    "latitude": 33.99916855,
    "longitude": 71.49883084999999,
    "id": 28018467
  },
  {
    "name": "tertiary",
    "category": "highway",
    "subcategory": "tertiary",
    "latitude": 34.006217514285716,
    "longitude": 71.54224802857142,
    "id": 28018520
  },
  {
    "name": "tertiary",
    "category": "highway",
    "subcategory": "tertiary",
    "latitude": 34.01348902857143,
    "longitude": 71.54182534285715,
    "id": 28018523
  },
  {
    "name": "فورٹ روڈ",
    "category": "highway",
    "subcategory": "tertiary",
    "latitude": 34.00745453076923,
    "longitude": 71.54839256153846,
    "id": 28018528
  },
  {
    "name": "tertiary",
    "category": "highway",
    "subcategory": "tertiary",
    "latitude": 34.01007237,
    "longitude": 71.5548288,
    "id": 28018533
  },
  {
    "name": "unclassified",
    "category": "highway",
    "subcategory": "unclassified",
    "latitude": 34.00738784,
    "longitude": 71.55576982,
    "id": 28018550
  },
  {
    "name": "گنر روڈ",
    "category": "highway",
    "subcategory": "tertiary",
    "latitude": 34.00991957142857,
    "longitude": 71.54805027142858,
    "id": 28018581
  },
  {
    "name": "اسلامیہ روڈ",
    "category": "highway",
    "subcategory": "tertiary",
    "latitude": 34.0013706,
    "longitude": 71.5458502,
    "id": 28018629
  },
  {
    "name": "residential",
    "category": "highway",
    "subcategory": "residential",
    "latitude": 34.00985835,
    "longitude": 71.54325315,
    "id": 28018636
  },
  {
    "name": "primary_link",
    "category": "highway",
    "subcategory": "primary_link",
    "latitude": 34.00572572,
    "longitude": 71.53483262,
    "id": 28018666
  },
  {
    "name": "ورسک روڈ",
    "category": "highway",
    "subcategory": "primary",
    "latitude": 34.013855125,
    "longitude": 71.5417186125,
    "id": 28018689
  },
  {
    "name": "صدر روڈ",
    "category": "highway",
    "subcategory": "primary",
    "latitude": 34.007396422727275,
    "longitude": 71.55682011363636,
    "id": 28019385
  },
  {
    "name": "صدر روڈ",
    "category": "highway",
    "subcategory": "primary",
    "latitude": 34.009918577777775,
    "longitude": 71.56163450000001,
    "id": 28019427
  },
  {
    "name": "سرکلر روڈ",
    "category": "highway",
    "subcategory": "primary",
    "latitude": 34.00087714470588,
    "longitude": 71.56673914117647,
    "id": 28029572
  },
  {
    "name": "Jheel Road",
    "category": "highway",
    "subcategory": "residential",
    "latitude": 34.0068456,
    "longitude": 71.5525019,
    "id": 54633509
  },
  {
    "name": "New Shami Road",
    "category": "highway",
    "subcategory": "tertiary",
    "latitude": 34.0214311,
    "longitude": 71.55111260999999,
    "id": 54633511
  },
  {
    "name": "Shami Road",
    "category": "highway",
    "subcategory": "tertiary",
    "latitude": 34.020776190163936,
    "longitude": 71.55915781639344,
    "id": 54633512
  },
  {
    "name": "ابراہیم ٹاؤن روڈ",
    "category": "highway",
    "subcategory": "unclassified",
    "latitude": 34.0254562875,
    "longitude": 71.56721310416667,
    "id": 54633515
  },
  {
    "name": "tertiary",
    "category": "highway",
    "subcategory": "tertiary",
    "latitude": 34.01329082222222,
    "longitude": 71.56805491111112,
    "id": 59784162
  },
  {
    "name": "Malik Saad Shaheed Road",
    "category": "highway",
    "subcategory": "tertiary",
    "latitude": 34.0153074625,
    "longitude": 71.5725223625,
    "id": 59804257
  },
  {
    "name": "secondary",
    "category": "highway",
    "subcategory": "secondary",
    "latitude": 34.004829816666664,
    "longitude": 71.56046518333333,
    "id": 59804426
  },
  {
    "name": "پشاور رنگ روڈ",
    "category": "highway",
    "subcategory": "trunk",
    "latitude": 33.97903554,
    "longitude": 71.56183784,
    "id": 59804562
  },
  {
    "name": "پشاور رنگ روڈ",
    "category": "highway",
    "subcategory": "trunk",
    "latitude": 33.97945635,
    "longitude": 71.56318809999999,
    "id": 59804564
  },
  {
    "name": "پشاور رنگ روڈ",
    "category": "highway",
    "subcategory": "trunk",
    "latitude": 33.97994205,
    "longitude": 71.5644949875,
    "id": 59804565
  },
  {
    "name": "پشاور رنگ روڈ",
    "category": "highway",
    "subcategory": "trunk",
    "latitude": 33.97936985,
    "longitude": 71.56321679999999,
    "id": 59804566
  },
  {
    "name": "residential",
    "category": "highway",
    "subcategory": "residential",
    "latitude": 34.0200015,
    "longitude": 71.49493509999999,
    "id": 69464229
  },
  {
    "name": "tertiary",
    "category": "highway",
    "subcategory": "tertiary",
    "latitude": 34.0187427,
    "longitude": 71.49754996666667,
    "id": 69464233
  },
  {
    "name": "tertiary",
    "category": "highway",
    "subcategory": "tertiary",
    "latitude": 34.02423824444444,
    "longitude": 71.49212120555555,
    "id": 69464235
  },
  {
    "name": "راحت آباد روڈ",
    "category": "highway",
    "subcategory": "residential",
    "latitude": 34.01709817083333,
    "longitude": 71.49376682916666,
    "id": 69464269
  },
  {
    "name": "residential",
    "category": "highway",
    "subcategory": "residential",
    "latitude": 34.01886362857143,
    "longitude": 71.49398187142857,
    "id": 69464271
  },
  {
    "name": "residential",
    "category": "highway",
    "subcategory": "residential",
    "latitude": 34.019478,
    "longitude": 71.49312794,
    "id": 69464272
  },
  {
    "name": "Malik Mahasal Khan Road Shagi Hind Kian",
    "category": "highway",
    "subcategory": "residential",
    "latitude": 34.0264624,
    "longitude": 71.54904805000001,
    "id": 70979388
  },
  {
    "name": "Malik Mahasal Khan Road",
    "category": "highway",
    "subcategory": "residential",
    "latitude": 34.03144639736842,
    "longitude": 71.54227605526316,
    "id": 70979390
  },
  {
    "name": "unclassified",
    "category": "highway",
    "subcategory": "unclassified",
    "latitude": 34.031358778260866,
    "longitude": 71.54693854347826,
    "id": 70979394
  },
  {
    "name": "پجگی روڈ",
    "category": "highway",
    "subcategory": "residential",
    "latitude": 34.03090736,
    "longitude": 71.55750084,
    "id": 70979618
  },
  {
    "name": "پجگی روڈ",
    "category": "highway",
    "subcategory": "residential",
    "latitude": 34.0315667,
    "longitude": 71.55701210000001,
    "id": 70979619
  },
  {
    "name": "residential",
    "category": "highway",
    "subcategory": "residential",
    "latitude": 34.02540512727273,
    "longitude": 71.54870555454545,
    "id": 71076820
  },
  {
    "name": "tertiary",
    "category": "highway",
    "subcategory": "tertiary",
    "latitude": 34.02238442,
    "longitude": 71.5595216,
    "id": 71076821
  },
  {
    "name": "tertiary",
    "category": "highway",
    "subcategory": "tertiary",
    "latitude": 34.02277735,
    "longitude": 71.559648,
    "id": 71076822
  },
  {
    "name": "افغان کالونی روڈ",
    "category": "highway",
    "subcategory": "secondary",
    "latitude": 34.0232257862069,
    "longitude": 71.55467352068965,
    "id": 71076823
  },
  {
    "name": "residential",
    "category": "highway",
    "subcategory": "residential",
    "latitude": 34.02576035,
    "longitude": 71.55162005,
    "id": 71076825
  },
  {
    "name": "ورسک روڈ",
    "category": "highway",
    "subcategory": "primary",
    "latitude": 34.02567822727272,
    "longitude": 71.53536068181819,
    "id": 71076826
  },
  {
    "name": "ورسک روڈ",
    "category": "highway",
    "subcategory": "primary",
    "latitude": 34.02203385,
    "longitude": 71.5374483,
    "id": 71076827
  },
  {
    "name": "secondary",
    "category": "highway",
    "subcategory": "secondary",
    "latitude": 34.02326570192308,
    "longitude": 71.54184276538462,
    "id": 71076828
  },
  {
    "name": "residential",
    "category": "highway",
    "subcategory": "residential",
    "latitude": 34.0232963,
    "longitude": 71.54848390000001,
    "id": 71076829
  },
  {
    "name": "اسٹریٹ 14",
    "category": "highway",
    "subcategory": "residential",
    "latitude": 34.02069490769231,
    "longitude": 71.54857796153846,
    "id": 71076890
  },
  {
    "name": "residential",
    "category": "highway",
    "subcategory": "residential",
    "latitude": 34.02278517142857,
    "longitude": 71.55365773571428,
    "id": 71076891
  },
  {
    "name": "residential",
    "category": "highway",
    "subcategory": "residential",
    "latitude": 34.02327375,
    "longitude": 71.55338165,
    "id": 71076892
  },
  {
    "name": "residential",
    "category": "highway",
    "subcategory": "residential",
    "latitude": 34.024324122222225,
    "longitude": 71.55258887222222,
    "id": 71076893
  },
  {
    "name": "Rafiqui Road",
    "category": "highway",
    "subcategory": "tertiary",
    "latitude": 33.99291908181818,
    "longitude": 71.52563798181819,
    "id": 71613193
  },
  {
    "name": "service",
    "category": "highway",
    "subcategory": "service",
    "latitude": 33.9954011875,
    "longitude": 71.52724435,
    "id": 71613194
  },
  {
    "name": "Landhi Road",
    "category": "highway",
    "subcategory": "tertiary",
    "latitude": 33.9871237,
    "longitude": 71.52880365,
    "id": 71613200
  },
  {
    "name": "secondary_link",
    "category": "highway",
    "subcategory": "secondary_link",
    "latitude": 34.000773949999996,
    "longitude": 71.5378358,
    "id": 71613204
  },
  {
    "name": "Gora Bazaar",
    "category": "highway",
    "subcategory": "residential",
    "latitude": 33.99685712857143,
    "longitude": 71.53913728571429,
    "id": 71613205
  },
  {
    "name": "Sahib Zad Gul Road",
    "category": "highway",
    "subcategory": "tertiary",
    "latitude": 33.99729084285714,
    "longitude": 71.52779442857143,
    "id": 71613206
  },
  {
    "name": "جلیل روڈ",
    "category": "highway",
    "subcategory": "residential",
    "latitude": 33.998998057142856,
    "longitude": 71.52869428571428,
    "id": 71613208
  },
  {
    "name": "Sanan Road",
    "category": "highway",
    "subcategory": "residential",
    "latitude": 34.010303666666665,
    "longitude": 71.55078639999999,
    "id": 71613216
  },