[
  {
    "name": "سندھ",
    "category": "place",
    "subcategory": "state",
    "latitude": 25.5,
    "longitude": 69.0,
    "id": 316441014
  },
  {
    "name": "میرپور خاص",
    "category": "place",
    "subcategory": "city",
    "latitude": 25.5263882,
    "longitude": 69.0112387,
    "id": 1967476281
  },
  {
    "name": "Kauthar Electronics",
    "category": "shop",
    "subcategory": "electronics",
    "latitude": 25.5258296,
    "longitude": 69.0164576,
    "id": 4946572430
  },
  {
    "name": "Civil hospital main entrance",
    "category": "amenity",
    "subcategory": "hospital",
    "latitude": 25.5253514,
    "longitude": 69.0134912,
    "id": 4946572431
  },
  {
    "name": "Ashrafi Sweets and Bakers",
    "category": "shop",
    "subcategory": "bakery",
    "latitude": 25.5258522,
    "longitude": 69.0136447,
    "id": 4946572432
  },
  {
    "name": "N",
    "category": "shop",
    "subcategory": "hairdresser",
    "latitude": 25.5336069,
    "longitude": 69.0157973,
    "id": 4946597422
  },
  {
    "name": "Shah Hotel",
    "category": "tourism",
    "subcategory": "hotel",
    "latitude": 25.520547,
    "longitude": 68.9734548,
    "id": 4946597423
  },
  {
    "name": "Kaley Khan",
    "category": "amenity",
    "subcategory": "fuel",
    "latitude": 25.5276322,
    "longitude": 69.0177424,
    "id": 4946597521
  },
  {
    "name": "Baithak BBQ Grill & Karahi",
    "category": "amenity",
    "subcategory": "restaurant",
    "latitude": 25.5215161,
    "longitude": 68.9820472,
    "id": 4946597522
  },
  {
    "name": "chandni chowk",
    "category": "highway",
    "subcategory": "tertiary",
    "latitude": 25.5159235,
    "longitude": 69.0108927,
    "id": 4957876502
  },
  {
    "name": "Ali clinic Dr. Zafar Shaikh",
    "category": "amenity",
    "subcategory": "clinic",
    "latitude": 25.5094784,
    "longitude": 69.0173419,
    "id": 4959284323
  },
  {
    "name": "Evershine medical store",
    "category": "amenity",
    "subcategory": "pharmacy",
    "latitude": 25.5122704,
    "longitude": 69.0171951,
    "id": 4959284324
  },
  {
    "name": "Khan clinic",
    "category": "amenity",
    "subcategory": "clinic",
    "latitude": 25.5122389,
    "longitude": 69.0171902,
    "id": 4959284325
  },
  {
    "name": "Al Ahmad medical store",
    "category": "amenity",
    "subcategory": "pharmacy",
    "latitude": 25.5188235,
    "longitude": 69.0137551,
    "id": 4959284326
  },
  {
    "name": "Dr. Shoaib Anwar",
    "category": "amenity",
    "subcategory": "clinic",
    "latitude": 25.5188219,
    "longitude": 69.0136787,
    "id": 4959291323
  },
  {
    "name": "Dr. Bahadur",
    "category": "amenity",
    "subcategory": "clinic",
    "latitude": 25.519233,
    "longitude": 69.0122531,
    "id": 4959292921
  },
  {
    "name": "M.M Medical Center Dr. Rana C. Rathore",
    "category": "amenity",
    "subcategory": "clinic",
    "latitude": 25.5153356,
    "longitude": 69.0177971,
    "id": 4986056621
  },
  {
    "name": "Regal Medical Store",
    "category": "amenity",
    "subcategory": "pharmacy",
    "latitude": 25.5094117,
    "longitude": 69.0173281,
    "id": 4986056821
  },
  {
    "name": "Amir Medical Store",
    "category": "amenity",
    "subcategory": "pharmacy",
    "latitude": 25.5192657,
    "longitude": 69.0122765,
    "id": 4986057221
  },
  {
    "name": "Crystal CNG",
    "category": "amenity",
    "subcategory": "fuel",
    "latitude": 25.5207337,
    "longitude": 68.9714725,
    "id": 5019448022
  },
  {
    "name": "Shell Dadan Shah CNG & Patrol Pump",
    "category": "amenity",
    "subcategory": "fuel",
    "latitude": 25.5207529,
    "longitude": 68.9764369,
    "id": 5019448023
  },
  {
    "name": "Cafe Sharif Dosti Hotel",
    "category": "tourism",
    "subcategory": "hotel",
    "latitude": 25.5204283,
    "longitude": 68.9771887,
    "id": 5019448024
  },
  {
    "name": "Shahbaz Filling Station",
    "category": "amenity",
    "subcategory": "fuel",
    "latitude": 25.5210226,
    "longitude": 68.9789166,
    "id": 5019448025
  },
  {
    "name": "Chhuttan Channa Chaat",
    "category": "amenity",
    "subcategory": "fast_food",
    "latitude": 25.5208624,
    "longitude": 68.9793182,
    "id": 5019448026
  },
  {
    "name": "Alpine Guest House Mirpur khas",
    "category": "tourism",
    "subcategory": "guest_house",
    "latitude": 25.5204747,
    "longitude": 68.9774876,
    "id": 5019448027
  },
  {
    "name": "HINGORJO FILLING STATION",
    "category": "amenity",
    "subcategory": "fuel",
    "latitude": 25.5210984,
    "longitude": 68.9791361,
    "id": 5019448028
  },
  {
    "name": "Mirpurkhas Bus Terminal",
    "category": "amenity",
    "subcategory": "bus_station",
    "latitude": 25.5220298,
    "longitude": 68.9799253,
    "id": 5019448029
  },
  {
    "name": "Four Star CNG",
    "category": "amenity",
    "subcategory": "fuel",
    "latitude": 25.5213513,
    "longitude": 68.9813637,
    "id": 5019448030
  },
  {
    "name": "Admore",
    "category": "amenity",
    "subcategory": "fuel",
    "latitude": 25.5214314,
    "longitude": 68.9816719,
    "id": 5019448031
  },
  {
    "name": "Shell Pump",
    "category": "amenity",
    "subcategory": "fuel",
    "latitude": 25.5218949,
    "longitude": 68.9836427,
    "id": 5019448032
  },
  {
    "name": "PSO petrol Pump",
    "category": "amenity",
    "subcategory": "fuel",
    "latitude": 25.5220298,
    "longitude": 68.9842684,
    "id": 5019448033
  },
  {
    "name": "Suzuki Tharparkar Motors",
    "category": "shop",
    "subcategory": "car",
    "latitude": 25.5230033,
    "longitude": 68.9881072,
    "id": 5019448034
  },
  {
    "name": "Mega City Mall",
    "category": "shop",
    "subcategory": "mall",
    "latitude": 25.5233699,
    "longitude": 68.9886442,
    "id": 5019448035
  },
  {
    "name": "National Saving Centre",
    "category": "amenity",
    "subcategory": "bank",
    "latitude": 25.5232351,
    "longitude": 68.989186,
    "id": 5019448036
  },
  {
    "name": "Al Madina CNG",
    "category": "amenity",
    "subcategory": "fuel",
    "latitude": 25.5234837,
    "longitude": 68.9903348,
    "id": 5019448037
  },
  {
    "name": "Noor CNG Filling Station",
    "category": "amenity",
    "subcategory": "fuel",
    "latitude": 25.5241791,
    "longitude": 68.9911474,
    "id": 5019448038
  },
  {
    "name": "Bisma Restaurant & Hotel",
    "category": "amenity",
    "subcategory": "restaurant",
    "latitude": 25.5240737,
    "longitude": 68.9923335,
    "id": 5019448039
  },
  {
    "name": "سونیری بینک",
    "category": "amenity",
    "subcategory": "bank",
    "latitude": 25.5242001,
    "longitude": 68.9928566,
    "id": 5019448040
  },
  {
    "name": "Milan Marriage Hall Mirpur Khas Sindh",
    "category": "amenity",
    "subcategory": "community_centre",
    "latitude": 25.5243603,
    "longitude": 68.993487,
    "id": 5019448041
  },
  {
    "name": "Masjid Ali Al Murtaza",
    "category": "amenity",
    "subcategory": "place_of_worship",
    "latitude": 25.5255445,
    "longitude": 68.9914696,
    "id": 5019448042
  },
  {
    "name": "Dera Karhai & Bar B.Q",
    "category": "amenity",
    "subcategory": "restaurant",
    "latitude": 25.5245078,
    "longitude": 68.9942389,
    "id": 5019448043
  },
  {
    "name": "Al Shahbaz",
    "category": "amenity",
    "subcategory": "pharmacy",
    "latitude": 25.5255211,
    "longitude": 69.0136481,
    "id": 5338152496
  },
  {
    "name": "Dr. Iqbal Pathan",
    "category": "amenity",
    "subcategory": "doctors",
    "latitude": 25.529638,
    "longitude": 68.9943397,
    "id": 5338152497
  },
  {
    "name": "Khan medical store",
    "category": "amenity",
    "subcategory": "pharmacy",
    "latitude": 25.5316464,
    "longitude": 69.0120327,
    "id": 5338152500
  },
  {
    "name": "Dr. Suleman Jinji",
    "category": "amenity",
    "subcategory": "clinic",
    "latitude": 25.5303368,
    "longitude": 69.0104421,
    "id": 5338152503
  },
  {
    "name": "Dr. Capt. Aijaz Laghari",
    "category": "amenity",
    "subcategory": "clinic",
    "latitude": 25.5264491,
    "longitude": 69.0149847,
    "id": 5338152504
  },
  {
    "name": "The children's hospital",
    "category": "amenity",
    "subcategory": "hospital",
    "latitude": 25.5297716,
    "longitude": 68.9943365,
    "id": 5338152508
  },
  {
    "name": "Al Shifa Medical Store",
    "category": "amenity",
    "subcategory": "pharmacy",
    "latitude": 25.5258233,
    "longitude": 69.0141057,
    "id": 5355902889
  },
  {
    "name": "Madani medical store",
    "category": "amenity",
    "subcategory": "pharmacy",
    "latitude": 25.5294753,
    "longitude": 69.0204471,
    "id": 5355902890
  },
  {
    "name": "Dr. Zia ul Baaqi Ansari",
    "category": "amenity",
    "subcategory": "clinic",
    "latitude": 25.5287752,
    "longitude": 69.0214836,
    "id": 5355902891
  },
  {
    "name": "Dr. M. Faisal Khan;Dr. Yasmeen Aziz",
    "category": "amenity",
    "subcategory": "clinic",
    "latitude": 25.5293601,
    "longitude": 69.020403,
    "id": 5355903373
  },
  {
    "name": "clinic",
    "category": "amenity",
    "subcategory": "clinic",
    "latitude": 25.5325273,
    "longitude": 69.0257483,
    "id": 5355903374
  },
  {
    "name": "Dr. Mohan Lal",
    "category": "amenity",
    "subcategory": "clinic",
    "latitude": 25.5263373,
    "longitude": 68.9972237,
    "id": 5355903375
  },
  {
    "name": "Khan medical store",
    "category": "amenity",
    "subcategory": "pharmacy",
    "latitude": 25.5316494,
    "longitude": 69.0120958,
    "id": 5355903376
  },
  {
    "name": "Dr. Tabinda Ashraf",
    "category": "amenity",
    "subcategory": "clinic",
    "latitude": 25.5121059,
    "longitude": 69.0180175,
    "id": 5355903425
  },
  {
    "name": "Dr. Hameer Chand",
    "category": "amenity",
    "subcategory": "clinic",
    "latitude": 25.5318035,
    "longitude": 69.0242639,
    "id": 5355903426
  },
  {
    "name": "Dr. Rafia Manthar",
    "category": "amenity",
    "subcategory": "clinic",
    "latitude": 25.5259865,
    "longitude": 69.0153021,
    "id": 5355903427
  },
  {
    "name": "Dr. Nuzamuddin Gilal",
    "category": "amenity",
    "subcategory": "clinic",
    "latitude": 25.5262423,
    "longitude": 69.0151943,
    "id": 5365867974
  },
  {
    "name": "Dr. Naheed Naz",
    "category": "amenity",
    "subcategory": "clinic",
    "latitude": 25.5324549,
    "longitude": 69.0160185,
    "id": 5365867975
  },
  {
    "name": "clinic",
    "category": "amenity",
    "subcategory": "clinic",
    "latitude": 25.5436984,
    "longitude": 69.022287,
    "id": 5365868247
  },
  {
    "name": "Dr. Abdul Qadir Khan",
    "category": "amenity",
    "subcategory": "clinic",
    "latitude": 25.5260874,
    "longitude": 69.0147735,
    "id": 5384787750
  },
  {
    "name": "Dr. Mohammad Khan Panhwar",
    "category": "amenity",
    "subcategory": "clinic",
    "latitude": 25.5260185,
    "longitude": 69.0142304,
    "id": 5384787751
  },
  {
    "name": "Dr. Imran Khan Shirani",
    "category": "amenity",
    "subcategory": "clinic",
    "latitude": 25.5192897,
    "longitude": 69.0115282,
    "id": 5384787752
  },
  {
    "name": "عسکری بینک",
    "category": "amenity",
    "subcategory": "bank",
    "latitude": 25.5278527,
    "longitude": 69.0069427,
    "id": 5384787753
  },
  {
    "name": "Dr. Masoom Clinic",
    "category": "amenity",
    "subcategory": "clinic",
    "latitude": 25.5313463,
    "longitude": 69.0167947,
    "id": 5384787754
  },
  {
    "name": "میزان بینک",
    "category": "amenity",
    "subcategory": "bank",
    "latitude": 25.5144028,
    "longitude": 69.0107205,
    "id": 5384787755
  },
  {
    "name": "Dr. M. A. Khan",
    "category": "amenity",
    "subcategory": "clinic",
    "latitude": 25.5158508,
    "longitude": 69.0084473,
    "id": 5384787756
  },
  {
    "name": "Dr. Ashfaq Memon",
    "category": "amenity",
    "subcategory": "clinic",
    "latitude": 25.5260768,
    "longitude": 69.0152703,
    "id": 5384788143
  },
  {
    "name": "DR. Nigar AHMED",
    "category": "amenity",
    "subcategory": "clinic",
    "latitude": 25.5187969,
    "longitude": 69.013698,
    "id": 5384788144
  },
  {
    "name": "Naveen Clinic Dr. Balchand Motiani",
    "category": "amenity",
    "subcategory": "clinic",
    "latitude": 25.5131899,
    "longitude": 69.010773,
    "id": 5384788145
  },
  {
    "name": "Ali Medicare",
    "category": "amenity",
    "subcategory": "hospital",
    "latitude": 25.5279032,
    "longitude": 69.0203427,
    "id": 5384788146
  },
  {
    "name": "Dr. Lata Kamal",
    "category": "amenity",
    "subcategory": "clinic",
    "latitude": 25.5295533,
    "longitude": 69.0207297,
    "id": 5384788147
  },
  {
    "name": "Raheela Soomro",
    "category": "amenity",
    "subcategory": "clinic",
    "latitude": 25.5316022,
    "longitude": 69.0079439,
    "id": 5384788148
  },
  {
    "name": "Dr. Nasir Khan",
    "category": "amenity",
    "subcategory": "clinic",
    "latitude": 25.5190207,
    "longitude": 69.0129801,
    "id": 5384788149
  },
  {
    "name": "R.N Medical Store",
    "category": "amenity",
    "subcategory": "pharmacy",
    "latitude": 25.5155267,
    "longitude": 69.0122226,
    "id": 5406055515
  },
  {
    "name": "Dr. Zakaria Rao",
    "category": "amenity",
    "subcategory": "clinic",
    "latitude": 25.5221433,
    "longitude": 69.0184786,
    "id": 5406055828
  },
  {
    "name": "Rabbani Masjid",
    "category": "amenity",
    "subcategory": "place_of_worship",
    "latitude": 25.5181648,
    "longitude": 69.0078623,
    "id": 6571746986
  },
  {
    "name": "MIR PUR KHAS (میر پور خاص)",
    "category": "highway",
    "subcategory": "bus_stop",
    "latitude": 25.5249261,
    "longitude": 69.0108865,
    "id": 7684483185
  },
  {
    "name": "fuel",
    "category": "amenity",
    "subcategory": "fuel",
    "latitude": 25.4919724,
    "longitude": 69.0109114,
    "id": 8431956865
  },
  {
    "name": "atm",
    "category": "amenity",
    "subcategory": "atm",
    "latitude": 25.5144187,
    "longitude": 69.0107154,
    "id": 9016044617
  },
  {
    "name": "Goth Muhammad Hayat",
    "category": "place",
    "subcategory": "village",
    "latitude": 25.5419495,
    "longitude": 68.9808702,
    "id": 11276487737
  },
  {
    "name": "Goth Muhammad Hayat",
    "category": "place",
    "subcategory": "village",
    "latitude": 25.5523051,
    "longitude": 68.9878441,
    "id": 11276487738
  },
  {
    "name": "Goth Lakhmir Dal",
    "category": "place",
    "subcategory": "village",
    "latitude": 25.5571737,
    "longitude": 69.0038051,
    "id": 11276487739
  },
  {
    "name": "Goth Makrani",
    "category": "place",
    "subcategory": "village",
    "latitude": 25.552998,
    "longitude": 69.0152206,
    "id": 11276487740
  },
  {
    "name": "Goth Makrani",
    "category": "place",
    "subcategory": "village",
    "latitude": 25.559533,
    "longitude": 69.0258475,
    "id": 11276487741
  },
  {
    "name": "Goth Akber Dal",
    "category": "place",
    "subcategory": "village",
    "latitude": 25.5631654,
    "longitude": 69.0142243,
    "id": 11276487742
  },
  {
    "name": "Aziz Orthopaedic & General Hospital",
    "category": "amenity",
    "subcategory": "hospital",
    "latitude": 25.5270817,
    "longitude": 69.0179707,
    "id": 13135531536
  },
  {
    "name": "Village Sardar Aurangzaib Khan Rajar",
    "category": "place",
    "subcategory": "village",
    "latitude": 25.5503311,
    "longitude": 69.0382103,
    "id": 13898896166
  },
  {
    "name": "Village Sardar Aurangzaib Khan Rajar",
    "category": "place",
    "subcategory": "village",
    "latitude": 25.5491067,
    "longitude": 69.0368282,
    "id": 13898896167
  },
  {
    "name": "secondary",
    "category": "highway",
    "subcategory": "secondary",
    "latitude": 25.5116564,
    "longitude": 69.01082863571428,
    "id": 74635109
  },
  {
    "name": "residential",
    "category": "highway",
    "subcategory": "residential",
    "latitude": 25.528098263636366,
    "longitude": 69.01442624090909,
    "id": 240442395
  },
  {
    "name": "نوشاہ - سانگھڑ - میرپورخاص صوبائی شاہراہ",
    "category": "highway",
    "subcategory": "primary",
    "latitude": 25.54880978076923,
    "longitude": 69.04429720769231,
    "id": 240494934
  },
  {
    "name": "residential",
    "category": "highway",
    "subcategory": "residential",
    "latitude": 25.51330809375,
    "longitude": 69.02425171875,
    "id": 240494936
  },
  {
    "name": "tertiary",
    "category": "highway",
    "subcategory": "tertiary",
    "latitude": 25.517795929629628,
    "longitude": 69.00861048148148,
    "id": 240494937
  },
  {
    "name": "tertiary",
    "category": "highway",
    "subcategory": "tertiary",
    "latitude": 25.508024381818185,
    "longitude": 69.01667167272727,
    "id": 240494938
  },
  {
    "name": "tertiary",
    "category": "highway",
    "subcategory": "tertiary",
    "latitude": 25.51105904285714,
    "longitude": 69.01492699285714,
    "id": 240494939
  },
  {
    "name": "tertiary",
    "category": "highway",
    "subcategory": "tertiary",
    "latitude": 25.513565755555554,
    "longitude": 69.01673224444444,
    "id": 240494940
  },
  {
    "name": "tertiary",
    "category": "highway",
    "subcategory": "tertiary",
    "latitude": 25.523783549999997,
    "longitude": 69.00855179999999,
    "id": 240494941
  },
  {
    "name": "Hyderabad Road",
    "category": "highway",
    "subcategory": "secondary",
    "latitude": 25.5266055,
    "longitude": 69.01586533333334,
    "id": 240494942
  },
  {
    "name": "residential",
    "category": "highway",
    "subcategory": "residential",
    "latitude": 25.509259812499998,
    "longitude": 69.0210815625,
    "id": 240494943
  },
  {
    "name": "tertiary",
    "category": "highway",
    "subcategory": "tertiary",
    "latitude": 25.51356265,
    "longitude": 69.017786,
    "id": 240494944
  },
  {
    "name": "tertiary",
    "category": "highway",
    "subcategory": "tertiary",
    "latitude": 25.515152620000002,
    "longitude": 69.0172581,
    "id": 240494945
  },
  {
    "name": "tertiary",
    "category": "highway",
    "subcategory": "tertiary",
    "latitude": 25.52917937777778,
    "longitude": 69.01751885555556,
    "id": 240494946
  },
  {
    "name": "tertiary",
    "category": "highway",
    "subcategory": "tertiary",
    "latitude": 25.524042899999998,
    "longitude": 69.00852904999999,
    "id": 240494947
  },
  {
    "name": "residential",
    "category": "highway",
    "subcategory": "residential",
    "latitude": 25.512580625000002,
    "longitude": 69.0188468,
    "id": 240494948
  },
  {
    "name": "Ring Road",
    "category": "highway",
    "subcategory": "trunk",
    "latitude": 25.534189773267325,
    "longitude": 69.00680441485149,
    "id": 240494949
  },
  {
    "name": "حیدرآباد - کھوکھراپار سڑک",
    "category": "highway",
    "subcategory": "trunk",
    "latitude": 25.526656857142857,
    "longitude": 69.04602041746033,
    "id": 240494950
  },
  {
    "name": "secondary",
    "category": "highway",
    "subcategory": "secondary",
    "latitude": 25.526449500000002,
    "longitude": 69.01714620714286,
    "id": 240494952
  },
  {
    "name": "secondary",
    "category": "highway",
    "subcategory": "secondary",
    "latitude": 25.52402086,
    "longitude": 69.01135716,
    "id": 240494953
  },
  {
    "name": "tertiary",
    "category": "highway",
    "subcategory": "tertiary",
    "latitude": 25.50993201,
    "longitude": 69.01366603,
    "id": 240494955
  },
  {
    "name": "primary",
    "category": "highway",
    "subcategory": "primary",
    "latitude": 25.51032902105263,
    "longitude": 69.02682951157894,
    "id": 240494957
  },
  {
    "name": "tertiary",
    "category": "highway",
    "subcategory": "tertiary",
    "latitude": 25.5121024,
    "longitude": 69.01420551111111,
    "id": 240494958
  },
  {
    "name": "residential",
    "category": "highway",
    "subcategory": "residential",
    "latitude": 25.515698414285712,
    "longitude": 69.01979837142856,
    "id": 240494959
  },
  {
    "name": "Hyderabad Road",
    "category": "highway",
    "subcategory": "secondary",
    "latitude": 25.52767777368421,
    "longitude": 69.0114981105263,
    "id": 240494960
  },
  {
    "name": "residential",
    "category": "highway",
    "subcategory": "residential",
    "latitude": 25.514505925,
    "longitude": 69.015644075,
    "id": 240494961
  },
  {
    "name": "tertiary",
    "category": "highway",
    "subcategory": "tertiary",
    "latitude": 25.532115294444445,
    "longitude": 69.02089561666668,
    "id": 240494962
  },
  {
    "name": "trunk",
    "category": "highway",
    "subcategory": "trunk",
    "latitude": 25.53253025,
    "longitude": 69.03153371818182,
    "id": 240494964
  },
  {
    "name": "residential",
    "category": "highway",
    "subcategory": "residential",
    "latitude": 25.51446455,
    "longitude": 69.01899560000001,
    "id": 240495381
  },
  {
    "name": "tertiary",
    "category": "highway",
    "subcategory": "tertiary",
    "latitude": 25.514485633333333,
    "longitude": 69.0172653,
    "id": 240495382
  },
  {
    "name": "Tando Adam - Mirpurkhas Road",
    "category": "highway",
    "subcategory": "primary",
    "latitude": 25.53409252972973,
    "longitude": 68.99111682702703,
    "id": 240534123
  },
  {
    "name": "unclassified",
    "category": "highway",
    "subcategory": "unclassified",
    "latitude": 25.54253185625,
    "longitude": 69.012329440625,
    "id": 240543629
  },
  {
    "name": "residential",
    "category": "highway",
    "subcategory": "residential",
    "latitude": 25.53196253333333,
    "longitude": 69.01010831666667,
    "id": 240543630
  },
  {
    "name": "residential",
    "category": "highway",
    "subcategory": "residential",
    "latitude": 25.534315193548387,
    "longitude": 69.01408956129032,
    "id": 240543631
  },
  {
    "name": "residential",
    "category": "highway",
    "subcategory": "residential",
    "latitude": 25.530247446153847,
    "longitude": 69.01234816153845,
    "id": 240543632
  },
  {
    "name": "residential",
    "category": "highway",
    "subcategory": "residential",
    "latitude": 25.52874436666667,
    "longitude": 69.01292283333333,
    "id": 240543633
  },
  {
    "name": "residential",
    "category": "highway",
    "subcategory": "residential",
    "latitude": 25.532960241666668,
    "longitude": 69.01937968333333,
    "id": 240543634
  },
  {
    "name": "residential",
    "category": "highway",
    "subcategory": "residential",
    "latitude": 25.535853879999998,
    "longitude": 69.01913476,
    "id": 240543635
  },
  {
    "name": "secondary",
    "category": "highway",
    "subcategory": "secondary",
    "latitude": 25.528350825,
    "longitude": 69.0062887,
    "id": 240543636
  },
  {
    "name": "residential",
    "category": "highway",
    "subcategory": "residential",
    "latitude": 25.53043944117647,
    "longitude": 69.02135600588235,
    "id": 240543638
  },
  {
    "name": "residential",
    "category": "highway",
    "subcategory": "residential",
    "latitude": 25.52912244285714,
    "longitude": 69.0153282,
    "id": 240543639
  },
  {
    "name": "residential",
    "category": "highway",
    "subcategory": "residential",
    "latitude": 25.529943644444444,
    "longitude": 69.02034016111111,
    "id": 240543640
  },
  {
    "name": "residential",
    "category": "highway",
    "subcategory": "residential",
    "latitude": 25.529706166666667,
    "longitude": 69.01926142222221,
    "id": 240543641
  },
  {
    "name": "residential",
    "category": "highway",
    "subcategory": "residential",
    "latitude": 25.523093652000004,
    "longitude": 69.001110116,
    "id": 240543642
  },
  {
    "name": "residential",
    "category": "highway",
    "subcategory": "residential",
    "latitude": 25.5370192,
    "longitude": 69.01776468,
    "id": 240543644
  },
  {
    "name": "residential",
    "category": "highway",
    "subcategory": "residential",
    "latitude": 25.51484202857143,
    "longitude": 69.0121208,
    "id": 240543645
  },
  {
    "name": "residential",
    "category": "highway",
    "subcategory": "residential",
    "latitude": 25.532633664705884,
    "longitude": 69.01826471764706,
    "id": 240543646
  },
  {
    "name": "residential",
    "category": "highway",
    "subcategory": "residential",
    "latitude": 25.5235920125,
    "longitude": 69.00570226250001,
    "id": 240543647
  },
  {
    "name": "residential",
    "category": "highway",
    "subcategory": "residential",
    "latitude": 25.533627711111112,
    "longitude": 69.01694487777779,
    "id": 240543648
  },
  {
    "name": "residential",
    "category": "highway",
    "subcategory": "residential",
    "latitude": 25.532360691666668,
    "longitude": 69.013204425,
    "id": 240543649
  },
  {
    "name": "tertiary",
    "category": "highway",
    "subcategory": "tertiary",
    "latitude": 25.591506021192053,
    "longitude": 68.97404861258279,
    "id": 240543650
  },
  {
    "name": "residential",
    "category": "highway",
    "subcategory": "residential",
    "latitude": 25.528371825,
    "longitude": 69.01793893125,
    "id": 240543651
  },
  {
    "name": "residential",
    "category": "highway",
    "subcategory": "residential",
    "latitude": 25.533727066666664,
    "longitude": 69.01559144333334,
    "id": 240543652
  },
  {
    "name": "water",
    "category": "natural",
    "subcategory": "water",
    "latitude": 25.511293079999998,
    "longitude": 69.01285782,
    "id": 240543653
  },
  {
    "name": "water",
    "category": "natural",
    "subcategory": "water",
    "latitude": 25.51027792,
    "longitude": 69.01386052000001,
    "id": 240543654
  },
  {
    "name": "water",
    "category": "natural",
    "subcategory": "water",
    "latitude": 25.51050356,
    "longitude": 69.01278458,
    "id": 240543655
  },
  {
    "name": "water",
    "category": "natural",
    "subcategory": "water",
    "latitude": 25.51164994,
    "longitude": 69.01387738000001,
    "id": 240543656
  },
  {
    "name": "residential",
    "category": "highway",
    "subcategory": "residential",
    "latitude": 25.533989554999998,
    "longitude": 69.009860055,
    "id": 240547785
  },
  {
    "name": "residential",
    "category": "highway",
    "subcategory": "residential",
    "latitude": 25.53280198888889,
    "longitude": 69.01147008888888,
    "id": 240547786
  },
  {
    "name": "residential",
    "category": "highway",
    "subcategory": "residential",
    "latitude": 25.534293266666666,
    "longitude": 69.01111229166666,
    "id": 240547788
  },
  {
    "name": "residential",
    "category": "highway",
    "subcategory": "residential",
    "latitude": 25.5362987,
    "longitude": 69.01542706000001,
    "id": 241028177
  },
  {
    "name": "residential",
    "category": "highway",
    "subcategory": "residential",
    "latitude": 25.535655116666664,
    "longitude": 69.0150865,
    "id": 241028178
  },
  {
    "name": "residential",
    "category": "highway",
    "subcategory": "residential",
    "latitude": 25.534772466666666,
    "longitude": 69.01431606666667,
    "id": 241028179
  },
  {
    "name": "unclassified",
    "category": "highway",
    "subcategory": "unclassified",
    "latitude": 25.557302566666667,
    "longitude": 69.03456304761906,
    "id": 271056434
  },
  {
    "name": "tertiary",
    "category": "highway",
    "subcategory": "tertiary",
    "latitude": 25.5259407,
    "longitude": 69.01441365,
    "id": 308166302
  },
  {
    "name": "residential",
    "category": "highway",
    "subcategory": "residential",
    "latitude": 25.52633955,
    "longitude": 69.01440675,
    "id": 308166304
  },
  {
    "name": "residential",
    "category": "highway",
    "subcategory": "residential",
    "latitude": 25.52671315,
    "longitude": 69.01439545,
    "id": 308166306
  },
  {
    "name": "residential",
    "category": "highway",
    "subcategory": "residential",
    "latitude": 25.5336691,
    "longitude": 69.0015399,
    "id": 308166310
  },
  {
    "name": "residential",
    "category": "highway",
    "subcategory": "residential",
    "latitude": 25.53226742,
    "longitude": 69.00274518,
    "id": 308166312
  },
  {
    "name": "Nazeer Hussain Park",
    "category": "leisure",
    "subcategory": "park",
    "latitude": 25.50899377142857,
    "longitude": 69.01029547142858,
    "id": 344048315
  },
  {
    "name": "residential",
    "category": "highway",
    "subcategory": "residential",
    "latitude": 25.508699716666666,
    "longitude": 69.00952076666667,
    "id": 344048317
  },
  {
    "name": "residential",
    "category": "highway",
    "subcategory": "residential",
    "latitude": 25.51020662857143,
    "longitude": 69.00921342857143,
    "id": 344048320
  },
  {
    "name": "residential",
    "category": "highway",
    "subcategory": "residential",
    "latitude": 25.509694866666667,
    "longitude": 69.00952406666667,
    "id": 344048323
  },
  {
    "name": "residential",
    "category": "highway",
    "subcategory": "residential",
    "latitude": 25.509695699999998,
    "longitude": 69.0097563,
    "id": 344048325
  },
  {
    "name": "residential",
    "category": "highway",
    "subcategory": "residential",
    "latitude": 25.50954712,
    "longitude": 69.0091315,
    "id": 344048327
  },
  {
    "name": "residential",
    "category": "highway",
    "subcategory": "residential",
    "latitude": 25.50987585,
    "longitude": 69.0091465,
    "id": 344048329
  },
  {
    "name": "residential",
    "category": "highway",
    "subcategory": "residential",
    "latitude": 25.5098919,
    "longitude": 69.00877805,
    "id": 344048331
  },
  {
    "name": "residential",
    "category": "highway",
    "subcategory": "residential",
    "latitude": 25.51011854,
    "longitude": 69.00788668,
    "id": 344048333
  },
  {
    "name": "residential",
    "category": "highway",
    "subcategory": "residential",
    "latitude": 25.51050675,
    "longitude": 69.00977895,
    "id": 344048335
  },
  {
    "name": "park",
    "category": "leisure",
    "subcategory": "park",
    "latitude": 25.511100433333336,
    "longitude": 69.01705684444444,
    "id": 344050054
  },
  {
    "name": "Bahrain Town",
    "category": "highway",
    "subcategory": "residential",
    "latitude": 25.523284122222222,
    "longitude": 68.97410461111112,
    "id": 344050055
  },
  {
    "name": "secondary",
    "category": "highway",
    "subcategory": "secondary",
    "latitude": 25.527678561904764,
    "longitude": 69.01787922380952,
    "id": 401034587
  },
  {
    "name": "unclassified",
    "category": "highway",
    "subcategory": "unclassified",
    "latitude": 25.51630254,
    "longitude": 69.0170976,
    "id": 445633924
  },
  {
    "name": "residential",
    "category": "highway",
    "subcategory": "residential",
    "latitude": 25.516520262500002,
    "longitude": 69.0179652125,
    "id": 445633926
  },
  {
    "name": "residential",
    "category": "highway",
    "subcategory": "residential",
    "latitude": 25.5337352,
    "longitude": 69.01106706666667,
    "id": 445634299
  },
  {
    "name": "residential",
    "category": "highway",
    "subcategory": "residential",
    "latitude": 25.534663614285712,
    "longitude": 69.01009188571429,
    "id": 445634300
  },
  {
    "name": "residential",
    "category": "highway",
    "subcategory": "residential",
    "latitude": 25.535306988888888,
    "longitude": 69.01096162222223,
    "id": 445634301
  },
  {
    "name": "residential",
    "category": "highway",
    "subcategory": "residential",
    "latitude": 25.534963292307694,
    "longitude": 69.01166238461539,
    "id": 445634302
  },
  {
    "name": "residential",
    "category": "highway",
    "subcategory": "residential",
    "latitude": 25.51663213333333,
    "longitude": 69.0177686,
    "id": 504518344
  },
  {
    "name": "secondary",
    "category": "highway",
    "subcategory": "secondary",
    "latitude": 25.515991375,
    "longitude": 69.010921765,
    "id": 504519931
  },
  {
    "name": "residential",
    "category": "highway",
    "subcategory": "residential",
    "latitude": 25.5115138,
    "longitude": 69.00926186666668,
    "id": 504521427
  },
  {
    "name": "residential",
    "category": "highway",
    "subcategory": "residential",
    "latitude": 25.528744699999997,
    "longitude": 69.0164988,
    "id": 504522828
  },
  {
    "name": "residential",
    "category": "highway",
    "subcategory": "residential",
    "latitude": 25.509600066666668,
    "longitude": 69.0182911,
    "id": 504522829
  },
  {
    "name": "residential",
    "category": "highway",
    "subcategory": "residential",
    "latitude": 25.509616166666664,
    "longitude": 69.0162605,
    "id": 504522830
  },
  {
    "name": "residential",
    "category": "highway",
    "subcategory": "residential",
    "latitude": 25.52932785,
    "longitude": 69.01639165,
    "id": 504522831
  },
  {
    "name": "residential",
    "category": "highway",
    "subcategory": "residential",
    "latitude": 25.509515114285712,
    "longitude": 69.01163215714286,
    "id": 504522832
  },
  {
    "name": "residential",
    "category": "highway",
    "subcategory": "residential",
    "latitude": 25.50814355,
    "longitude": 69.0127643375,
    "id": 504524157
  },
  {
    "name": "residential",
    "category": "highway",
    "subcategory": "residential",
    "latitude": 25.51117393,
    "longitude": 69.00716539,
    "id": 504524158
  },
  {
    "name": "residential",
    "category": "highway",
    "subcategory": "residential",
    "latitude": 25.507316916666667,
    "longitude": 69.01503763333334,
    "id": 504524159
  },
  {
    "name": "residential",
    "category": "highway",
    "subcategory": "residential",
    "latitude": 25.507545,
    "longitude": 69.01218125,
    "id": 504524160
  },
  {
    "name": "residential",
    "category": "highway",
    "subcategory": "residential",
    "latitude": 25.509386233333334,
    "longitude": 69.01376373333333,
    "id": 504524162
  },
  {
    "name": "residential",
    "category": "highway",
    "subcategory": "residential",
    "latitude": 25.50711605,
    "longitude": 69.01435085,
    "id": 504524163
  },
  {
    "name": "residential",
    "category": "highway",
    "subcategory": "residential",
    "latitude": 25.507374066666667,
    "longitude": 69.01318696666667,
    "id": 504524164
  },
  {
    "name": "residential",
    "category": "highway",
    "subcategory": "residential",
    "latitude": 25.507104575,
    "longitude": 69.0157237,
    "id": 504524165
  },
  {
    "name": "residential",
    "category": "highway",
    "subcategory": "residential",
    "latitude": 25.50750404,
    "longitude": 69.01586674,
    "id": 504524166
  },
  {
    "name": "residential",
    "category": "highway",
    "subcategory": "residential",
    "latitude": 25.518713057142858,
    "longitude": 69.01766327142857,
    "id": 504527179
  },
  {
    "name": "residential",
    "category": "highway",
    "subcategory": "residential",
    "latitude": 25.508254066666666,
    "longitude": 69.01280343333333,
    "id": 504527180
  },
  {
    "name": "residential",
    "category": "highway",
    "subcategory": "residential",
    "latitude": 25.518988325000002,
    "longitude": 69.0164896,
    "id": 504527182
  },
  {
    "name": "residential",
    "category": "highway",
    "subcategory": "residential",
    "latitude": 25.51974204,
    "longitude": 69.01662202,
    "id": 504527183
  },
  {
    "name": "residential",
    "category": "highway",
    "subcategory": "residential",
    "latitude": 25.51816935,
    "longitude": 69.01633225,
    "id": 504527184
  },
  {
    "name": "residential",
    "category": "highway",
    "subcategory": "residential",
    "latitude": 25.518517066666664,
    "longitude": 69.01651266666666,
    "id": 504527185
  },
  {
    "name": "residential",
    "category": "highway",
    "subcategory": "residential",
    "latitude": 25.518904733333333,
    "longitude": 69.01643396666667,
    "id": 504527186
  },
  {
    "name": "residential",
    "category": "highway",
    "subcategory": "residential",
    "latitude": 25.5086547,
    "longitude": 69.0124342,
    "id": 504527187
  },
  {
    "name": "residential",
    "category": "highway",
    "subcategory": "residential",
    "latitude": 25.517667940000003,
    "longitude": 69.01856608,
    "id": 504527188
  },
  {
    "name": "tertiary",
    "category": "highway",
    "subcategory": "tertiary",
    "latitude": 25.520173536842105,
    "longitude": 69.01621997368422,
    "id": 504527189
  },
  {
    "name": "residential",
    "category": "highway",
    "subcategory": "residential",
    "latitude": 25.50843845,
    "longitude": 69.01324025,
    "id": 504527190
  },
  {
    "name": "Jarwari Chowk",
    "category": "highway",
    "subcategory": "primary",
    "latitude": 25.507798338461537,
    "longitude": 69.01077316153847,
    "id": 505977538
  },
  {
    "name": "residential",
    "category": "highway",
    "subcategory": "residential",
    "latitude": 25.511051475000002,
    "longitude": 69.01723439583334,
    "id": 505977539
  },
  {
    "name": "tertiary",
    "category": "highway",
    "subcategory": "tertiary",
    "latitude": 25.515935980000002,
    "longitude": 69.01400167,
    "id": 505977540
  },
  {
    "name": "secondary",
    "category": "highway",
    "subcategory": "secondary",
    "latitude": 25.527647416666667,
    "longitude": 69.01808837777779,
    "id": 505977541
  },
  {
    "name": "residential",
    "category": "highway",
    "subcategory": "residential",
    "latitude": 25.509863733333333,
    "longitude": 69.01595506666666,
    "id": 505977542
  },
  {
    "name": "residential",
    "category": "highway",
    "subcategory": "residential",
    "latitude": 25.5120772,
    "longitude": 69.0158374,
    "id": 505977543
  },
  {
    "name": "secondary",
    "category": "highway",
    "subcategory": "secondary",
    "latitude": 25.521616816,
    "longitude": 69.011991724,
    "id": 505977545
  },
  {
    "name": "service",
    "category": "highway",
    "subcategory": "service",
    "latitude": 25.52192253125,
    "longitude": 68.97992945,
    "id": 505980925
  },
  {
    "name": "residential",
    "category": "highway",
    "subcategory": "residential",
    "latitude": 25.51079095,
    "longitude": 69.01581295,
    "id": 505982727
  },
  {
    "name": "residential",
    "category": "highway",
    "subcategory": "residential",
    "latitude": 25.5103083,
    "longitude": 69.01580759999999,
    "id": 505982729
  },
  {
    "name": "residential",
    "category": "highway",
    "subcategory": "residential",
    "latitude": 25.51290417272727,
    "longitude": 69.01166821818182,
    "id": 506007625
  },
  {
    "name": "residential",
    "category": "highway",
    "subcategory": "residential",
    "latitude": 25.50843768,
    "longitude": 69.01511586,
    "id": 506007626
  },
  {
    "name": "residential",
    "category": "highway",
    "subcategory": "residential",
    "latitude": 25.51824378,
    "longitude": 69.01162874,
    "id": 506010261
  },
  {
    "name": "residential",
    "category": "highway",
    "subcategory": "residential",
    "latitude": 25.5180117,
    "longitude": 69.01328898,
    "id": 506010263
  },
  {
    "name": "residential",
    "category": "highway",
    "subcategory": "residential",
    "latitude": 25.5171632,
    "longitude": 69.01612324999999,
    "id": 506010265
  },
  {
    "name": "residential",
    "category": "highway",
    "subcategory": "residential",
    "latitude": 25.518017280000002,
    "longitude": 69.0141213,
    "id": 506010266
  },
  {
    "name": "residential",
    "category": "highway",
    "subcategory": "residential",
    "latitude": 25.517666083333335,
    "longitude": 69.01615486666667,
    "id": 506010268
  },
  {
    "name": "residential",
    "category": "highway",
    "subcategory": "residential",
    "latitude": 25.5187695125,
    "longitude": 69.01313815,
    "id": 506010269
  },
  {
    "name": "residential",
    "category": "highway",
    "subcategory": "residential",
    "latitude": 25.518608871428572,
    "longitude": 69.01294481428572,
    "id": 506010271
  },
  {
    "name": "residential",
    "category": "highway",
    "subcategory": "residential",
    "latitude": 25.518640050000002,
    "longitude": 69.0135679,
    "id": 506010273
  },
  {
    "name": "residential",
    "category": "highway",
    "subcategory": "residential",
    "latitude": 25.51797625,
    "longitude": 69.01359467500001,
    "id": 506010275
  },
  {
    "name": "residential",
    "category": "highway",
    "subcategory": "residential",
    "latitude": 25.51918971111111,
    "longitude": 69.0139307,
    "id": 506015909
  },
  {
    "name": "residential",
    "category": "highway",
    "subcategory": "residential",
    "latitude": 25.5199562875,
    "longitude": 69.011434675,
    "id": 506015911
  },
  {
    "name": "residential",
    "category": "highway",
    "subcategory": "residential",
    "latitude": 25.5194218,
    "longitude": 69.0112383,
    "id": 506015913
  },
  {
    "name": "residential",
    "category": "highway",
    "subcategory": "residential",
    "latitude": 25.51998401111111,
    "longitude": 69.01229208888888,
    "id": 506015914
  },
  {
    "name": "residential",
    "category": "highway",
    "subcategory": "residential",
    "latitude": 25.519877700000002,
    "longitude": 69.0120928,
    "id": 506015916
  },
  {
    "name": "residential",
    "category": "highway",
    "subcategory": "residential",
    "latitude": 25.51678877142857,
    "longitude": 69.01327252857143,
    "id": 506015917
  },
  {
    "name": "residential",
    "category": "highway",
    "subcategory": "residential",
    "latitude": 25.51756466666667,
    "longitude": 69.01188856666666,
    "id": 506015919
  },
  {
    "name": "residential",
    "category": "highway",
    "subcategory": "residential",
    "latitude": 25.517159125,
    "longitude": 69.012252925,
    "id": 506015921
  },
  {
    "name": "residential",
    "category": "highway",
    "subcategory": "residential",
    "latitude": 25.51669565,
    "longitude": 69.0112658125,
    "id": 506015922
  },
  {
    "name": "residential",
    "category": "highway",
    "subcategory": "residential",
    "latitude": 25.517887271428574,
    "longitude": 69.008919,
    "id": 506015924
  },
  {
    "name": "residential",
    "category": "highway",
    "subcategory": "residential",
    "latitude": 25.517100665,
    "longitude": 69.006251395,
    "id": 506015926
  },
  {
    "name": "residential",
    "category": "highway",
    "subcategory": "residential",
    "latitude": 25.520071967741938,
    "longitude": 69.00467106129032,
    "id": 506015928
  },
  {
    "name": "tertiary",
    "category": "highway",
    "subcategory": "tertiary",
    "latitude": 25.520171242857142,
    "longitude": 69.00968208571429,
    "id": 506015930
  },
  {
    "name": "residential",
    "category": "highway",
    "subcategory": "residential",
    "latitude": 25.518972257142856,
    "longitude": 69.00998247142857,
    "id": 506015933
  },
  {
    "name": "residential",
    "category": "highway",
    "subcategory": "residential",
    "latitude": 25.51945395,
    "longitude": 69.01066052499999,
    "id": 506015935
  },
  {
    "name": "residential",
    "category": "highway",
    "subcategory": "residential",
    "latitude": 25.5197623,
    "longitude": 69.01055145,
    "id": 506015936
  },
  {
    "name": "residential",
    "category": "highway",
    "subcategory": "residential",
    "latitude": 25.51975306,
    "longitude": 69.00977350000001,
    "id": 506015938
  },
  {
    "name": "residential",
    "category": "highway",
    "subcategory": "residential",
    "latitude": 25.5198605,
    "longitude": 69.0099224,
    "id": 506015940
  },
  {
    "name": "residential",
    "category": "highway",
    "subcategory": "residential",
    "latitude": 25.5206761,
    "longitude": 69.0089651,
    "id": 506015942
  },
  {
    "name": "residential",
    "category": "highway",
    "subcategory": "residential",
    "latitude": 25.520764825,
    "longitude": 69.00830644999999,
    "id": 506015944
  },
  {
    "name": "residential",
    "category": "highway",
    "subcategory": "residential",
    "latitude": 25.519971175000002,
    "longitude": 69.008907525,
    "id": 506015946
  },
  {
    "name": "residential",
    "category": "highway",
    "subcategory": "residential",
    "latitude": 25.5199522,
    "longitude": 69.00790015,
    "id": 506015948
  },
  {
    "name": "residential",
    "category": "highway",
    "subcategory": "residential",
    "latitude": 25.51961682,
    "longitude": 69.00812424,
    "id": 506015949
  },
  {
    "name": "residential",
    "category": "highway",
    "subcategory": "residential",
    "latitude": 25.519189400000002,
    "longitude": 69.00792473333333,
    "id": 506015951
  },
  {
    "name": "residential",
    "category": "highway",
    "subcategory": "residential",
    "latitude": 25.518327914285717,
    "longitude": 69.0103947,
    "id": 506015953
  },
  {
    "name": "residential",
    "category": "highway",
    "subcategory": "residential",
    "latitude": 25.51813735,
    "longitude": 69.01052125,
    "id": 506015955
  },
  {
    "name": "residential",
    "category": "highway",
    "subcategory": "residential",
    "latitude": 25.5189188,
    "longitude": 69.01042475,
    "id": 506015957
  },
  {
    "name": "residential",
    "category": "highway",
    "subcategory": "residential",
    "latitude": 25.516597966666666,
    "longitude": 69.0121521,
    "id": 506015959
  },
  {
    "name": "residential",
    "category": "highway",
    "subcategory": "residential",
    "latitude": 25.51653036,
    "longitude": 69.01529544,
    "id": 506015961
  },
  {
    "name": "residential",
    "category": "highway",
    "subcategory": "residential",
    "latitude": 25.5162935,
    "longitude": 69.01607223333333,
    "id": 506015962
  },
  {
    "name": "residential",
    "category": "highway",
    "subcategory": "residential",
    "latitude": 25.516576375,
    "longitude": 69.016044975,
    "id": 506015964
  },
  {
    "name": "residential",
    "category": "highway",
    "subcategory": "residential",
    "latitude": 25.51726314285714,
    "longitude": 69.02025191428571,
    "id": 506015966
  },
  {
    "name": "residential",
    "category": "highway",
    "subcategory": "residential",
    "latitude": 25.516280883333334,
    "longitude": 69.01884015,
    "id": 506015968
  },
  {
    "name": "residential",
    "category": "highway",
    "subcategory": "residential",
    "latitude": 25.514822300000002,
    "longitude": 69.01868876666667,
    "id": 506015970
  },
  {
    "name": "residential",
    "category": "highway",
    "subcategory": "residential",
    "latitude": 25.515457666666666,
    "longitude": 69.01631503333333,
    "id": 506015972
  },
  {
    "name": "residential",
    "category": "highway",
    "subcategory": "residential",
    "latitude": 25.515127200000002,
    "longitude": 69.01864315,
    "id": 506015974
  },
  {
    "name": "residential",
    "category": "highway",
    "subcategory": "residential",
    "latitude": 25.515109625,
    "longitude": 69.015374375,
    "id": 506015975
  },
  {
    "name": "residential",
    "category": "highway",
    "subcategory": "residential",
    "latitude": 25.514765625,
    "longitude": 69.01308455,
    "id": 506015977
  },
  {
    "name": "residential",
    "category": "highway",
    "subcategory": "residential",
    "latitude": 25.51418466,
    "longitude": 69.01330736,
    "id": 506015979
  },
  {
    "name": "residential",
    "category": "highway",
    "subcategory": "residential",
    "latitude": 25.51434545,
    "longitude": 69.01281845,
    "id": 506015981
  },
  {
    "name": "residential",
    "category": "highway",
    "subcategory": "residential",
    "latitude": 25.51376768,
    "longitude": 69.01438399999999,
    "id": 506015983
  },
  {
    "name": "residential",
    "category": "highway",
    "subcategory": "residential",
    "latitude": 25.51325475,
    "longitude": 69.01413893333334,
    "id": 506015985
  },
  {
    "name": "residential",
    "category": "highway",
    "subcategory": "residential",
    "latitude": 25.512707849999998,
    "longitude": 69.01392645,
    "id": 506015987
  },
  {
    "name": "residential",
    "category": "highway",
    "subcategory": "residential",
    "latitude": 25.51311806,
    "longitude": 69.0145191,
    "id": 506015989
  },
  {
    "name": "residential",
    "category": "highway",
    "subcategory": "residential",
    "latitude": 25.513772539999998,
    "longitude": 69.01359149999999,
    "id": 506015991
  },
  {
    "name": "residential",
    "category": "highway",
    "subcategory": "residential",
    "latitude": 25.5116302,
    "longitude": 69.01582314999999,
    "id": 506015993
  },
  {
    "name": "residential",
    "category": "highway",
    "subcategory": "residential",
    "latitude": 25.50984715,
    "longitude": 69.0180257,
    "id": 506015995
  },
  {
    "name": "residential",
    "category": "highway",
    "subcategory": "residential",
    "latitude": 25.50934374,
    "longitude": 69.01448855999999,
    "id": 506022033
  },
  {
    "name": "residential",
    "category": "highway",
    "subcategory": "residential",
    "latitude": 25.508955358333335,
    "longitude": 69.01673743333333,
    "id": 506022034
  },
  {
    "name": "residential",
    "category": "highway",
    "subcategory": "residential",
    "latitude": 25.50839322727273,
    "longitude": 69.01905745454546,
    "id": 506022035
  },
  {
    "name": "residential",
    "category": "highway",
    "subcategory": "residential",
    "latitude": 25.5079745,
    "longitude": 69.01595321666666,
    "id": 506022036
  },
  {
    "name": "residential",
    "category": "highway",
    "subcategory": "residential",
    "latitude": 25.5075616,
    "longitude": 69.01726593333333,
    "id": 506022037
  },
  {
    "name": "residential",
    "category": "highway",
    "subcategory": "residential",
    "latitude": 25.50730238888889,
    "longitude": 69.01968803333334,
    "id": 506022038
  },
  {
    "name": "residential",
    "category": "highway",
    "subcategory": "residential",
    "latitude": 25.507465214285713,
    "longitude": 69.01871731428572,
    "id": 506022039
  },
  {
    "name": "residential",
    "category": "highway",
    "subcategory": "residential",
    "latitude": 25.507489699999997,
    "longitude": 69.01796583333334,
    "id": 506022040
  },
  {
    "name": "residential",
    "category": "highway",
    "subcategory": "residential",
    "latitude": 25.508795914285713,
    "longitude": 69.01568655714286,
    "id": 506022043
  },
  {
    "name": "residential",
    "category": "highway",
    "subcategory": "residential",
    "latitude": 25.508782483333334,
    "longitude": 69.00947203333334,
    "id": 506022044
  },
  {
    "name": "residential",
    "category": "highway",
    "subcategory": "residential",
    "latitude": 25.530702885714284,
    "longitude": 69.01584732857143,
    "id": 506022046
  },
  {
    "name": "residential",
    "category": "highway",
    "subcategory": "residential",
    "latitude": 25.53042566,
    "longitude": 69.01554182,
    "id": 506022047
  },
  {
    "name": "residential",
    "category": "highway",
    "subcategory": "residential",
    "latitude": 25.5291536,
    "longitude": 69.01719966666667,
    "id": 506022048
  },
  {
    "name": "residential",
    "category": "highway",
    "subcategory": "residential",
    "latitude": 25.52939513,
    "longitude": 69.01826702,
    "id": 506022049
  },
  {
    "name": "residential",
    "category": "highway",
    "subcategory": "residential",
    "latitude": 25.530107049999998,
    "longitude": 69.01772555,
    "id": 506022050
  },
  {
    "name": "residential",
    "category": "highway",
    "subcategory": "residential",
    "latitude": 25.52965175,
    "longitude": 69.01633495,
    "id": 506022051
  },
  {
    "name": "residential",
    "category": "highway",
    "subcategory": "residential",
    "latitude": 25.534739000000002,
    "longitude": 69.01632389999999,
    "id": 506022052
  },
  {
    "name": "residential",
    "category": "highway",
    "subcategory": "residential",
    "latitude": 25.535469916666667,
    "longitude": 69.01676528333333,
    "id": 506022053
  },
  {
    "name": "residential",
    "category": "highway",
    "subcategory": "residential",
    "latitude": 25.535383966666668,
    "longitude": 69.01682276666666,
    "id": 506022054
  },
  {
    "name": "residential",
    "category": "highway",
    "subcategory": "residential",
    "latitude": 25.535625566666667,
    "longitude": 69.016488,
    "id": 506022055
  },
  {
    "name": "Colony ground",
    "category": "leisure",
    "subcategory": "park",
    "latitude": 25.53686146,
    "longitude": 69.0109635,
    "id": 506022056
  },
  {
    "name": "residential",
    "category": "highway",
    "subcategory": "residential",
    "latitude": 25.511550866666667,
    "longitude": 69.00873464444444,
    "id": 506022057
  },
  {
    "name": "residential",
    "category": "highway",
    "subcategory": "residential",
    "latitude": 25.510950880000003,
    "longitude": 69.0076932,
    "id": 506022058
  },
  {
    "name": "residential",
    "category": "highway",
    "subcategory": "residential",
    "latitude": 25.5108855,
    "longitude": 69.00965416666666,
    "id": 506022059
  },
  {
    "name": "tertiary",
    "category": "highway",
    "subcategory": "tertiary",
    "latitude": 25.51819880416667,
    "longitude": 69.02257330625,
    "id": 506022060
  },
  {
    "name": "residential",
    "category": "highway",
    "subcategory": "residential",
    "latitude": 25.51751174,
    "longitude": 69.02178954,
    "id": 506022061
  },
  {
    "name": "residential",
    "category": "highway",
    "subcategory": "residential",
    "latitude": 25.52009636153846,
    "longitude": 69.01836386923077,
    "id": 506022062
  },
  {
    "name": "residential",
    "category": "highway",
    "subcategory": "residential",
    "latitude": 25.52108758,
    "longitude": 69.01848620000001,
    "id": 506022063
  },
  {
    "name": "residential",
    "category": "highway",
    "subcategory": "residential",
    "latitude": 25.521529783333335,
    "longitude": 69.01724481666666,
    "id": 506022064
  },
  {
    "name": "residential",
    "category": "highway",
    "subcategory": "residential",
    "latitude": 25.52045445,
    "longitude": 69.01774976666667,
    "id": 506022065
  },
  {
    "name": "residential",
    "category": "highway",
    "subcategory": "residential",
    "latitude": 25.531914933333336,
    "longitude": 69.02005343333333,
    "id": 506022066
  },
  {
    "name": "residential",
    "category": "highway",
    "subcategory": "residential",
    "latitude": 25.532148766666666,
    "longitude": 69.01989496666667,
    "id": 506022067
  },
  {
    "name": "residential",
    "category": "highway",
    "subcategory": "residential",
    "latitude": 25.532366733333333,
    "longitude": 69.01974373333333,
    "id": 506022068
  },
  {
    "name": "residential",
    "category": "highway",
    "subcategory": "residential",
    "latitude": 25.5332662,
    "longitude": 69.0191128,
    "id": 506022069
  },
  {
    "name": "residential",
    "category": "highway",
    "subcategory": "residential",
    "latitude": 25.533050733333337,
    "longitude": 69.01929863333334,
    "id": 506022070
  },
  {
    "name": "residential",
    "category": "highway",
    "subcategory": "residential",
    "latitude": 25.5328197,
    "longitude": 69.0194482,
    "id": 506022071
  },
  {
    "name": "residential",
    "category": "highway",
    "subcategory": "residential",
    "latitude": 25.5325994,
    "longitude": 69.01959216666667,
    "id": 506022072
  },
  {
    "name": "residential",
    "category": "highway",
    "subcategory": "residential",
    "latitude": 25.526623109090906,
    "longitude": 69.02254513636363,
    "id": 506022073
  },
  {
    "name": "residential",
    "category": "highway",
    "subcategory": "residential",
    "latitude": 25.526655275,
    "longitude": 69.018634725,
    "id": 506022074
  },
  {
    "name": "residential",
    "category": "highway",
    "subcategory": "residential",
    "latitude": 25.52698534,
    "longitude": 69.01895019999999,
    "id": 506022075
  },
  {
    "name": "residential",
    "category": "highway",
    "subcategory": "residential",
    "latitude": 25.527086775,
    "longitude": 69.019256675,
    "id": 506022076
  },
  {
    "name": "residential",
    "category": "highway",
    "subcategory": "residential",
    "latitude": 25.52722292857143,
    "longitude": 69.02038702857143,
    "id": 506022077
  },
  {
    "name": "residential",
    "category": "highway",
    "subcategory": "residential",
    "latitude": 25.52735766,
    "longitude": 69.02126664,
    "id": 506022078
  },
  {
    "name": "residential",
    "category": "highway",
    "subcategory": "residential",
    "latitude": 25.52825886,
    "longitude": 69.02235542000001,
    "id": 506022079
  },
  {
    "name": "residential",
    "category": "highway",
    "subcategory": "residential",
    "latitude": 25.52732795,
    "longitude": 69.02208541666667,
    "id": 506022080
  },
  {
    "name": "residential",
    "category": "highway",
    "subcategory": "residential",
    "latitude": 25.527460766666668,
    "longitude": 69.02270636666667,
    "id": 506022081
  },
  {
    "name": "tertiary",
    "category": "highway",
    "subcategory": "tertiary",
    "latitude": 25.52571645227273,
    "longitude": 69.01970489318181,
    "id": 506022082
  },
  {
    "name": "residential",
    "category": "highway",
    "subcategory": "residential",
    "latitude": 25.526173966666665,
    "longitude": 69.01569756666667,
    "id": 506832423
  },
  {
    "name": "residential",
    "category": "highway",
    "subcategory": "residential",
    "latitude": 25.52616776,
    "longitude": 69.0157345,
    "id": 506832424
  },
  {
    "name": "residential",
    "category": "highway",
    "subcategory": "residential",
    "latitude": 25.5266339875,
    "longitude": 69.0173457625,
    "id": 506832425
  },
  {
    "name": "residential",
    "category": "highway",
    "subcategory": "residential",
    "latitude": 25.5271452,
    "longitude": 69.0174438,
    "id": 506832426
  },
  {
    "name": "residential",
    "category": "highway",
    "subcategory": "residential",
    "latitude": 25.52686915,
    "longitude": 69.01750104999999,
    "id": 506832427
  },
  {
    "name": "residential",
    "category": "highway",
    "subcategory": "residential",
    "latitude": 25.52659635,
    "longitude": 69.0175576,
    "id": 506832428
  },
  {
    "name": "residential",
    "category": "highway",
    "subcategory": "residential",
    "latitude": 25.5266758375,
    "longitude": 69.01699785,
    "id": 506832429
  },
  {
    "name": "residential",
    "category": "highway",
    "subcategory": "residential",
    "latitude": 25.52666855,
    "longitude": 69.01713495,
    "id": 506832430
  },
  {
    "name": "residential",
    "category": "highway",
    "subcategory": "residential",
    "latitude": 25.5263785,
    "longitude": 69.01719455,
    "id": 506832431
  },
  {
    "name": "residential",
    "category": "highway",
    "subcategory": "residential",
    "latitude": 25.52615275,
    "longitude": 69.0169009,
    "id": 506832432
  },
  {
    "name": "residential",
    "category": "highway",
    "subcategory": "residential",
    "latitude": 25.526632,
    "longitude": 69.01660584999999,
    "id": 506832433
  },
  {
    "name": "residential",
    "category": "highway",
    "subcategory": "residential",
    "latitude": 25.526086,
    "longitude": 69.01667565,
    "id": 506832434
  },
  {
    "name": "residential",
    "category": "highway",
    "subcategory": "residential",
    "latitude": 25.526889866666664,
    "longitude": 69.01619756666666,
    "id": 506832435
  },
  {
    "name": "residential",
    "category": "highway",
    "subcategory": "residential",
    "latitude": 25.52783135,
    "longitude": 69.01664285000001,
    "id": 506832436
  },
  {
    "name": "residential",
    "category": "highway",
    "subcategory": "residential",
    "latitude": 25.527886549999998,
    "longitude": 69.0170176,
    "id": 506832437
  },
  {
    "name": "residential",
    "category": "highway",
    "subcategory": "residential",
    "latitude": 25.52793595,
    "longitude": 69.017368,
    "id": 506832438
  },
  {
    "name": "residential",
    "category": "highway",
    "subcategory": "residential",
    "latitude": 25.515387325,
    "longitude": 69.012307525,
    "id": 506852187
  },
  {
    "name": "residential",
    "category": "highway",
    "subcategory": "residential",
    "latitude": 25.51529855,
    "longitude": 69.01144120000001,
    "id": 506852188
  },
  {
    "name": "residential",
    "category": "highway",
    "subcategory": "residential",
    "latitude": 25.536128483333332,
    "longitude": 69.01117588333334,
    "id": 506852189
  },
  {
    "name": "residential",
    "category": "highway",
    "subcategory": "residential",
    "latitude": 25.533480333333333,
    "longitude": 69.01895606666666,
    "id": 506857886
  },
  {
    "name": "residential",
    "category": "highway",
    "subcategory": "residential",
    "latitude": 25.533714566666664,
    "longitude": 69.0187529,
    "id": 506857887
  },
  {
    "name": "residential",
    "category": "highway",
    "subcategory": "residential",
    "latitude": 25.5329235,
    "longitude": 69.01694376666667,
    "id": 506857888
  },
  {
    "name": "residential",
    "category": "highway",
    "subcategory": "residential",
    "latitude": 25.532873825,
    "longitude": 69.017261375,
    "id": 506857889
  },
  {
    "name": "residential",
    "category": "highway",
    "subcategory": "residential",
    "latitude": 25.533163199999997,
    "longitude": 69.01740975,
    "id": 506857890
  },
  {
    "name": "residential",
    "category": "highway",
    "subcategory": "residential",
    "latitude": 25.531297625,
    "longitude": 69.020526125,
    "id": 506857891
  },
  {
    "name": "residential",
    "category": "highway",
    "subcategory": "residential",
    "latitude": 25.53111805,
    "longitude": 69.020589225,
    "id": 506857892
  },
  {
    "name": "residential",
    "category": "highway",
    "subcategory": "residential",
    "latitude": 25.530924375,
    "longitude": 69.02066612499999,
    "id": 506857893
  },
  {
    "name": "residential",
    "category": "highway",
    "subcategory": "residential",
    "latitude": 25.53074085,
    "longitude": 69.020722875,
    "id": 506857894
  },
  {
    "name": "residential",
    "category": "highway",
    "subcategory": "residential",
    "latitude": 25.530552725,
    "longitude": 69.02078285,
    "id": 506857895
  },
  {
    "name": "residential",
    "category": "highway",
    "subcategory": "residential",
    "latitude": 25.531500925,
    "longitude": 69.0205509,
    "id": 506857896
  },
  {
    "name": "residential",
    "category": "highway",
    "subcategory": "residential",
    "latitude": 25.52932842857143,
    "longitude": 69.00864714285714,
    "id": 506861249
  },
  {
    "name": "residential",
    "category": "highway",
    "subcategory": "residential",
    "latitude": 25.530368250000002,
    "longitude": 69.0208369,
    "id": 506861250
  },
  {
    "name": "residential",
    "category": "highway",
    "subcategory": "residential",
    "latitude": 25.530183375,
    "longitude": 69.020889325,
    "id": 506861251
  },
  {
    "name": "residential",
    "category": "highway",
    "subcategory": "residential",
    "latitude": 25.53003728,
    "longitude": 69.02125476,
    "id": 506861252
  },
  {
    "name": "residential",
    "category": "highway",
    "subcategory": "residential",
    "latitude": 25.529642214285712,
    "longitude": 69.02261544285714,
    "id": 506861253
  },
  {
    "name": "residential",
    "category": "highway",
    "subcategory": "residential",
    "latitude": 25.5298527,
    "longitude": 69.02131328,
    "id": 506861254
  },
  {
    "name": "residential",
    "category": "highway",
    "subcategory": "residential",
    "latitude": 25.52966206,
    "longitude": 69.0213773,
    "id": 506861255
  },
  {
    "name": "residential",
    "category": "highway",
    "subcategory": "residential",
    "latitude": 25.529474060000002,
    "longitude": 69.02142427999999,
    "id": 506861256
  },
  {
    "name": "residential",
    "category": "highway",
    "subcategory": "residential",
    "latitude": 25.530472647368423,
    "longitude": 69.02209319473684,
    "id": 506861257
  },
  {
    "name": "residential",
    "category": "highway",
    "subcategory": "residential",
    "latitude": 25.529047,
    "longitude": 69.02124710000001,
    "id": 506861258
  },
  {
    "name": "residential",
    "category": "highway",
    "subcategory": "residential",
    "latitude": 25.5296997,
    "longitude": 69.01897483333333,
    "id": 506861259
  },
  {
    "name": "residential",
    "category": "highway",
    "subcategory": "residential",
    "latitude": 25.52952505,
    "longitude": 69.01902075,
    "id": 506861260
  },
  {
    "name": "residential",
    "category": "highway",
    "subcategory": "residential",
    "latitude": 25.529311200000002,
    "longitude": 69.0190078,
    "id": 506861261
  },
  {
    "name": "residential",
    "category": "highway",
    "subcategory": "residential",
    "latitude": 25.529132099999998,
    "longitude": 69.0189969,
    "id": 506861262
  },
  {
    "name": "residential",
    "category": "highway",
    "subcategory": "residential",
    "latitude": 25.52893915,
    "longitude": 69.0190164,
    "id": 506861263
  },
  {
    "name": "residential",
    "category": "highway",
    "subcategory": "residential",
    "latitude": 25.5287565,
    "longitude": 69.01909545000001,
    "id": 506861264
  },
  {
    "name": "residential",
    "category": "highway",
    "subcategory": "residential",
    "latitude": 25.531243655,
    "longitude": 69.026052665,
    "id": 506861265
  },
  {
    "name": "residential",
    "category": "highway",
    "subcategory": "residential",
    "latitude": 25.53350706987952,
    "longitude": 69.03266590481927,
    "id": 506861266
  },
  {
    "name": "residential",
    "category": "highway",
    "subcategory": "residential",
    "latitude": 25.5193079,
    "longitude": 69.01157835000001,
    "id": 511182564
  },
  {
    "name": "residential",
    "category": "highway",
    "subcategory": "residential",
    "latitude": 25.532342966666665,
    "longitude": 69.01058125,
    "id": 511823496
  },
  {
    "name": "residential",
    "category": "highway",
    "subcategory": "residential",
    "latitude": 25.532976220000002,
    "longitude": 69.01067588,
    "id": 511823497
  },
  {
    "name": "residential",
    "category": "highway",
    "subcategory": "residential",
    "latitude": 25.534098,
    "longitude": 69.010595625,
    "id": 511823498
  },
  {
    "name": "residential",
    "category": "highway",
    "subcategory": "residential",
    "latitude": 25.53419226666667,
    "longitude": 69.01040046666667,
    "id": 511823499
  },
  {
    "name": "residential",
    "category": "highway",
    "subcategory": "residential",
    "latitude": 25.53375915,
    "longitude": 69.01046465,
    "id": 511823500
  },
  {
    "name": "residential",
    "category": "highway",
    "subcategory": "residential",
    "latitude": 25.533493699999998,
    "longitude": 69.01043929999999,
    "id": 511823501
  },
  {
    "name": "residential",
    "category": "highway",
    "subcategory": "residential",
    "latitude": 25.53316855,
    "longitude": 69.0100767,
    "id": 511823502
  },
  {
    "name": "residential",
    "category": "highway",
    "subcategory": "residential",
    "latitude": 25.53401956,
    "longitude": 69.008603,
    "id": 511823503
  },
  {
    "name": "residential",
    "category": "highway",
    "subcategory": "residential",
    "latitude": 25.53397035,
    "longitude": 69.008377775,
    "id": 511823504
  },
  {
    "name": "residential",
    "category": "highway",
    "subcategory": "residential",
    "latitude": 25.53393631666667,
    "longitude": 69.00673445833333,
    "id": 511823505
  },
  {
    "name": "residential",
    "category": "highway",
    "subcategory": "residential",
    "latitude": 25.529996833333332,
    "longitude": 69.010043,
    "id": 511823506
  },
  {
    "name": "residential",
    "category": "highway",
    "subcategory": "residential",
    "latitude": 25.5304796,
    "longitude": 69.01013927142857,
    "id": 511823507
  },
  {
    "name": "residential",
    "category": "highway",
    "subcategory": "residential",
    "latitude": 25.530508244444444,
    "longitude": 69.00934724444444,
    "id": 511823508
  },
  {
    "name": "residential",
    "category": "highway",
    "subcategory": "residential",
    "latitude": 25.53275755,
    "longitude": 69.00916105,
    "id": 511823509
  },
  {
    "name": "residential",
    "category": "highway",
    "subcategory": "residential",
    "latitude": 25.531729660000003,
    "longitude": 69.00843922,
    "id": 511823510
  },
  {
    "name": "residential",
    "category": "highway",
    "subcategory": "residential",
    "latitude": 25.5330152,
    "longitude": 69.00717205000001,
    "id": 511823511
  },
  {
    "name": "residential",
    "category": "highway",
    "subcategory": "residential",
    "latitude": 25.533018166666665,
    "longitude": 69.0082235,
    "id": 511823512
  },
  {
    "name": "residential",
    "category": "highway",
    "subcategory": "residential",
    "latitude": 25.5326798,
    "longitude": 69.0077556,
    "id": 511823513
  },
  {
    "name": "residential",
    "category": "highway",
    "subcategory": "residential",
    "latitude": 25.5328272,
    "longitude": 69.0074749,
    "id": 511823514
  },
  {
    "name": "residential",
    "category": "highway",
    "subcategory": "residential",
    "latitude": 25.53342891538462,
    "longitude": 69.00782374615385,
    "id": 511823515
  },
  {
    "name": "residential",
    "category": "highway",
    "subcategory": "residential",
    "latitude": 25.53181172,
    "longitude": 69.00694430000001,
    "id": 511823516
  },
  {
    "name": "residential",
    "category": "highway",
    "subcategory": "residential",
    "latitude": 25.531666275,
    "longitude": 69.005218825,
    "id": 511823517
  },
  {
    "name": "residential",
    "category": "highway",
    "subcategory": "residential",
    "latitude": 25.532094666666666,
    "longitude": 69.00733297777778,
    "id": 511823518
  },
  {
    "name": "residential",
    "category": "highway",
    "subcategory": "residential",
    "latitude": 25.53031132222222,
    "longitude": 69.0096334888889,
    "id": 511823519
  },
  {
    "name": "residential",
    "category": "highway",
    "subcategory": "residential",
    "latitude": 25.53067847142857,
    "longitude": 69.00851322142857,
    "id": 511823520
  },
  {
    "name": "residential",
    "category": "highway",
    "subcategory": "residential",
    "latitude": 25.530456516666664,
    "longitude": 69.00803901666667,
    "id": 511823521
  },
  {
    "name": "residential",
    "category": "highway",
    "subcategory": "residential",
    "latitude": 25.530008271428574,
    "longitude": 69.00788502857142,
    "id": 511823522
  },
  {
    "name": "primary",
    "category": "highway",
    "subcategory": "primary",
    "latitude": 25.52967324375,
    "longitude": 69.006661375,
    "id": 511823523
  },
  {
    "name": "secondary",
    "category": "highway",
    "subcategory": "secondary",
    "latitude": 25.52835645,
    "longitude": 69.00639029999999,
    "id": 511823524
  },
  {
    "name": "secondary",
    "category": "highway",
    "subcategory": "secondary",
    "latitude": 25.529896649999998,
    "longitude": 69.007002,
    "id": 511823525
  },
  {
    "name": "residential",
    "category": "highway",
    "subcategory": "residential",
    "latitude": 25.532002966666667,
    "longitude": 69.0104792,
    "id": 511823526
  },
  {
    "name": "residential",
    "category": "highway",
    "subcategory": "residential",
    "latitude": 25.53210335,
    "longitude": 69.009834575,
    "id": 511823527
  },
  {
    "name": "residential",
    "category": "highway",
    "subcategory": "residential",
    "latitude": 25.532045999999998,
    "longitude": 69.0110739,
    "id": 511823528
  },
  {
    "name": "residential",
    "category": "highway",
    "subcategory": "residential",
    "latitude": 25.532428850000002,
    "longitude": 69.0090599,
    "id": 511823529
  },
  {
    "name": "residential",
    "category": "highway",
    "subcategory": "residential",
    "latitude": 25.5321594,
    "longitude": 69.01021,
    "id": 511823530
  },
  {
    "name": "residential",
    "category": "highway",
    "subcategory": "residential",
    "latitude": 25.531468085714287,
    "longitude": 69.0094356,
    "id": 511823531
  },
  {
    "name": "residential",
    "category": "highway",
    "subcategory": "residential",
    "latitude": 25.531780100000002,
    "longitude": 69.0059308,
    "id": 511823532
  },
  {
    "name": "residential",
    "category": "highway",
    "subcategory": "residential",
    "latitude": 25.5281954,
    "longitude": 69.01917745,
    "id": 532714336
  },
  {
    "name": "residential",
    "category": "highway",
    "subcategory": "residential",
    "latitude": 25.528301666666664,
    "longitude": 69.01841003333334,
    "id": 532714337
  },
  {
    "name": "residential",
    "category": "highway",
    "subcategory": "residential",
    "latitude": 25.51795495,
    "longitude": 69.0179954,
    "id": 532714338
  },
  {
    "name": "residential",
    "category": "highway",
    "subcategory": "residential",
    "latitude": 25.509632800000002,
    "longitude": 69.01771226666666,
    "id": 532714339
  },
  {
    "name": "residential",
    "category": "highway",
    "subcategory": "residential",
    "latitude": 25.528099066666666,
    "longitude": 69.0136208,
    "id": 549285120
  },
  {
    "name": "residential",
    "category": "highway",
    "subcategory": "residential",
    "latitude": 25.529420100000003,
    "longitude": 69.0148637,
    "id": 549285121
  },
  {
    "name": "residential",
    "category": "highway",
    "subcategory": "residential",
    "latitude": 25.52910585,
    "longitude": 69.0148722,
    "id": 549285122
  },
  {
    "name": "residential",
    "category": "highway",
    "subcategory": "residential",
    "latitude": 25.52880475,
    "longitude": 69.01487755,
    "id": 549285123
  },
  {
    "name": "residential",
    "category": "highway",
    "subcategory": "residential",
    "latitude": 25.528508600000002,
    "longitude": 69.01488409999999,
    "id": 549285124
  },
  {
    "name": "residential",
    "category": "highway",
    "subcategory": "residential",
    "latitude": 25.5298978,
    "longitude": 69.0162923,
    "id": 549285125
  },
  {
    "name": "residential",
    "category": "highway",
    "subcategory": "residential",
    "latitude": 25.533296966666665,
    "longitude": 69.0123158,
    "id": 549285126
  },
  {
    "name": "residential",
    "category": "highway",
    "subcategory": "residential",
    "latitude": 25.53455815,
    "longitude": 69.011493625,
    "id": 549285127
  },
  {
    "name": "residential",
    "category": "highway",
    "subcategory": "residential",
    "latitude": 25.53479026,
    "longitude": 69.01121134,
    "id": 549285128
  },
  {
    "name": "residential",
    "category": "highway",
    "subcategory": "residential",
    "latitude": 25.535019516666665,
    "longitude": 69.01138705,
    "id": 549285129
  },
  {
    "name": "residential",
    "category": "highway",
    "subcategory": "residential",
    "latitude": 25.535193383333333,
    "longitude": 69.01493043333333,
    "id": 549285130
  },
  {
    "name": "residential",
    "category": "highway",
    "subcategory": "residential",
    "latitude": 25.534723233333334,
    "longitude": 69.0150435,
    "id": 549285131
  },
  {
    "name": "residential",
    "category": "highway",
    "subcategory": "residential",
    "latitude": 25.521320768421052,
    "longitude": 69.01409850526316,
    "id": 549285132
  },
  {
    "name": "Newtown",
    "category": "place",
    "subcategory": "neighbourhood",
    "latitude": 25.52623954,
    "longitude": 69.01425684,
    "id": 552937323
  },
  {
    "name": "SSP House Road",
    "category": "highway",
    "subcategory": "residential",
    "latitude": 25.52566685,
    "longitude": 69.00406641,
    "id": 552937328
  },
  {
    "name": "residential",
    "category": "highway",
    "subcategory": "residential",
    "latitude": 25.516211366666667,
    "longitude": 69.00924263333333,
    "id": 552937329
  },
  {
    "name": "residential",
    "category": "highway",
    "subcategory": "residential",
    "latitude": 25.528398850000002,
    "longitude": 69.0172803,
    "id": 552937330
  },
  {
    "name": "residential",
    "category": "highway",
    "subcategory": "residential",
    "latitude": 25.52834825,
    "longitude": 69.01692990000001,
    "id": 552937331
  },
  {
    "name": "residential",
    "category": "highway",
    "subcategory": "residential",
    "latitude": 25.5282932,
    "longitude": 69.0165634,
    "id": 552937332
  },
  {
    "name": "residential",
    "category": "highway",
    "subcategory": "residential",
    "latitude": 25.5285254875,
    "longitude": 69.0171524375,
    "id": 552937333
  },
  {
    "name": "residential",
    "category": "highway",
    "subcategory": "residential",
    "latitude": 25.518555975,
    "longitude": 69.01196515,
    "id": 552937334
  },
  {
    "name": "fuel",
    "category": "amenity",
    "subcategory": "fuel",
    "latitude": 25.508243399999998,
    "longitude": 69.01043745714286,
    "id": 552937338
  },
  {
    "name": "پاکستان اسٹیٹ آئل",
    "category": "amenity",
    "subcategory": "fuel",
    "latitude": 25.52574554,
    "longitude": 69.01540672,
    "id": 552937339
  },
  {
    "name": "Bhitai Hospital",
    "category": "amenity",
    "subcategory": "hospital",
    "latitude": 25.529028320000002,
    "longitude": 69.02227448,
    "id": 552937340
  },
  {
    "name": "Al Noor Hospital",
    "category": "amenity",
    "subcategory": "hospital",
    "latitude": 25.52650762,
    "longitude": 69.0177648,
    "id": 552937341
  },
  {
    "name": "residential",
    "category": "highway",
    "subcategory": "residential",
    "latitude": 25.51204138,
    "longitude": 69.01877044,
    "id": 552937342
  },
  {
    "name": "Bahrain Town",
    "category": "highway",
    "subcategory": "residential",
    "latitude": 25.523788725,
    "longitude": 68.9756764625,
    "id": 574555466
  },
  {
    "name": "residential",
    "category": "highway",
    "subcategory": "residential",
    "latitude": 25.51830781,
    "longitude": 69.01558638,
    "id": 574557056
  },
  {
    "name": "residential",
    "category": "highway",
    "subcategory": "residential",
    "latitude": 25.51771548888889,
    "longitude": 69.01298688888889,
    "id": 574557057
  },
  {
    "name": "residential",
    "category": "highway",
    "subcategory": "residential",
    "latitude": 25.5166067,
    "longitude": 69.01426004999999,
    "id": 574557058
  },
  {
    "name": "residential",
    "category": "highway",
    "subcategory": "residential",
    "latitude": 25.53433232727273,
    "longitude": 69.02105275454545,
    "id": 588206907
  },
  {
    "name": "residential",
    "category": "highway",
    "subcategory": "residential",
    "latitude": 25.535207525,
    "longitude": 69.02268904,
    "id": 588206908
  },
  {
    "name": "residential",
    "category": "highway",
    "subcategory": "residential",
    "latitude": 25.53600491,
    "longitude": 69.0245508,
    "id": 588206910
  },
  {
    "name": "residential",
    "category": "highway",
    "subcategory": "residential",
    "latitude": 25.534433566666667,
    "longitude": 69.02447656666668,
    "id": 588206911
  },
  {
    "name": "residential",
    "category": "highway",
    "subcategory": "residential",
    "latitude": 25.535372344444443,
    "longitude": 69.02510027777777,
    "id": 588206912
  },
  {
    "name": "residential",
    "category": "highway",
    "subcategory": "residential",
    "latitude": 25.533835242857144,
    "longitude": 69.02156877142856,
    "id": 588207535
  },
  {
    "name": "residential",
    "category": "highway",
    "subcategory": "residential",
    "latitude": 25.53355834285714,
    "longitude": 69.02149707142857,
    "id": 588207536
  },
  {
    "name": "residential",
    "category": "highway",
    "subcategory": "residential",
    "latitude": 25.5338803,
    "longitude": 69.02111004000001,
    "id": 588207538
  },
  {
    "name": "residential",
    "category": "highway",
    "subcategory": "residential",
    "latitude": 25.533500133333334,
    "longitude": 69.02112465833333,
    "id": 588207540
  },
  {
    "name": "primary",
    "category": "highway",
    "subcategory": "primary",
    "latitude": 25.51259680892857,
    "longitude": 68.99565603035714,
    "id": 614487648
  },
  {
    "name": "residential",
    "category": "highway",
    "subcategory": "residential",
    "latitude": 25.5094439,
    "longitude": 69.00814804999999,
    "id": 614487649
  },
  {
    "name": "residential",
    "category": "highway",
    "subcategory": "residential",
    "latitude": 25.509001614285715,
    "longitude": 69.01282619999999,
    "id": 614487650
  },
  {
    "name": "residential",
    "category": "highway",
    "subcategory": "residential",
    "latitude": 25.5088444,
    "longitude": 69.01385066666667,
    "id": 614487651
  },
  {
    "name": "residential",
    "category": "highway",
    "subcategory": "residential",
    "latitude": 25.509605933333333,
    "longitude": 69.01727113333334,
    "id": 614487653
  },
  {
    "name": "residential",
    "category": "highway",
    "subcategory": "residential",
    "latitude": 25.512323533333333,
    "longitude": 69.01729189999999,
    "id": 614487654
  },
  {
    "name": "residential",
    "category": "highway",
    "subcategory": "residential",
    "latitude": 25.532397175,
    "longitude": 69.0248472,
    "id": 657696324
  },
  {
    "name": "residential",
    "category": "highway",
    "subcategory": "residential",
    "latitude": 25.531343800000002,
    "longitude": 69.02514310000001,
    "id": 657696325
  },
  {
    "name": "residential",
    "category": "highway",
    "subcategory": "residential",
    "latitude": 25.529616966666666,
    "longitude": 69.0258056,
    "id": 657696326
  },
  {
    "name": "residential",
    "category": "highway",
    "subcategory": "residential",
    "latitude": 25.5298299,
    "longitude": 69.025757,
    "id": 657696327
  },
  {
    "name": "residential",
    "category": "highway",
    "subcategory": "residential",
    "latitude": 25.53071325,
    "longitude": 69.026876275,
    "id": 657696328
  },
  {
    "name": "residential",
    "category": "highway",
    "subcategory": "residential",
    "latitude": 25.530919575,
    "longitude": 69.0272295,
    "id": 657696329
  },
  {
    "name": "residential",
    "category": "highway",
    "subcategory": "residential",
    "latitude": 25.530258433333334,
    "longitude": 69.02736621666666,
    "id": 657696330
  },
  {
    "name": "residential",
    "category": "highway",
    "subcategory": "residential",
    "latitude": 25.53063818181818,
    "longitude": 69.02760142727273,
    "id": 657696331
  },
  {
    "name": "residential",
    "category": "highway",
    "subcategory": "residential",
    "latitude": 25.5297438125,
    "longitude": 69.0275080125,
    "id": 657696332
  },
  {
    "name": "residential",
    "category": "highway",
    "subcategory": "residential",
    "latitude": 25.532780133333333,
    "longitude": 69.02748796666667,
    "id": 657696333
  },
  {
    "name": "residential",
    "category": "highway",
    "subcategory": "residential",
    "latitude": 25.53130787142857,
    "longitude": 69.0268237,
    "id": 657696334
  },
  {
    "name": "residential",
    "category": "highway",
    "subcategory": "residential",
    "latitude": 25.5321384,
    "longitude": 69.0267028,
    "id": 657696335
  },
  {
    "name": "residential",
    "category": "highway",
    "subcategory": "residential",
    "latitude": 25.532008233333332,
    "longitude": 69.0262293,
    "id": 657696336
  },
  {
    "name": "residential",
    "category": "highway",
    "subcategory": "residential",
    "latitude": 25.53254458,
    "longitude": 69.02641586,
    "id": 657696337
  },
  {
    "name": "residential",
    "category": "highway",
    "subcategory": "residential",
    "latitude": 25.53005466666667,
    "longitude": 69.02571073333333,
    "id": 657696338
  },
  {
    "name": "residential",
    "category": "highway",
    "subcategory": "residential",
    "latitude": 25.530281833333333,
    "longitude": 69.02566456666666,
    "id": 657696339
  },
  {
    "name": "residential",
    "category": "highway",
    "subcategory": "residential",
    "latitude": 25.5304904,
    "longitude": 69.02562276666667,
    "id": 657696340
  },
  {
    "name": "residential",
    "category": "highway",
    "subcategory": "residential",
    "latitude": 25.53014915,
    "longitude": 69.025634225,
    "id": 657696341
  },
  {
    "name": "residential",
    "category": "highway",
    "subcategory": "residential",
    "latitude": 25.530724066666664,
    "longitude": 69.02557603333334,
    "id": 657696342
  },
  {
    "name": "residential",
    "category": "highway",
    "subcategory": "residential",
    "latitude": 25.530922150000002,
    "longitude": 69.02480775,
    "id": 657696343
  },
  {
    "name": "residential",
    "category": "highway",
    "subcategory": "residential",
    "latitude": 25.530761066666667,
    "longitude": 69.0239514,
    "id": 657696344
  },
  {
    "name": "residential",
    "category": "highway",
    "subcategory": "residential",
    "latitude": 25.530265727272727,
    "longitude": 69.02474208181819,
    "id": 657696345
  },
  {
    "name": "residential",
    "category": "highway",
    "subcategory": "residential",
    "latitude": 25.531212866666667,
    "longitude": 69.02376813333332,
    "id": 657696346
  },
  {
    "name": "residential",
    "category": "highway",
    "subcategory": "residential",
    "latitude": 25.5317904,
    "longitude": 69.02420585,
    "id": 657696347
  },
  {
    "name": "residential",
    "category": "highway",
    "subcategory": "residential",
    "latitude": 25.5313223,
    "longitude": 69.02328022,
    "id": 657696348
  },
  {
    "name": "residential",
    "category": "highway",
    "subcategory": "residential",
    "latitude": 25.5322544,
    "longitude": 69.02327696666667,
    "id": 657696349
  },
  {
    "name": "residential",
    "category": "highway",
    "subcategory": "residential",
    "latitude": 25.53216756666667,
    "longitude": 69.02277923333334,
    "id": 657696350
  },
  {
    "name": "residential",
    "category": "highway",
    "subcategory": "residential",
    "latitude": 25.5319162,
    "longitude": 69.02325158,
    "id": 657696351
  },
  {
    "name": "residential",
    "category": "highway",
    "subcategory": "residential",
    "latitude": 25.530383977777777,
    "longitude": 69.02410633333334,
    "id": 657696352
  },
  {
    "name": "residential",
    "category": "highway",
    "subcategory": "residential",
    "latitude": 25.53028341875,
    "longitude": 69.02510456875,
    "id": 657696353
  },
  {
    "name": "residential",
    "category": "highway",
    "subcategory": "residential",
    "latitude": 25.531147400000002,
    "longitude": 69.02525754999999,
    "id": 657696354
  },
  {
    "name": "residential",
    "category": "highway",
    "subcategory": "residential",
    "latitude": 25.5315363,
    "longitude": 69.0248875,
    "id": 657696355
  },
  {
    "name": "residential",
    "category": "highway",
    "subcategory": "residential",
    "latitude": 25.531888925,
    "longitude": 69.0249493,
    "id": 657696356
  },
  {
    "name": "residential",
    "category": "highway",
    "subcategory": "residential",
    "latitude": 25.532592360000002,
    "longitude": 69.02461452,
    "id": 657696357
  },
  {
    "name": "residential",
    "category": "highway",
    "subcategory": "residential",
    "latitude": 25.5319751,
    "longitude": 69.02460235,
    "id": 657696358
  },
  {
    "name": "residential",
    "category": "highway",
    "subcategory": "residential",
    "latitude": 25.532120159999998,
    "longitude": 69.02472096,
    "id": 657696359
  },
  {
    "name": "residential",
    "category": "highway",
    "subcategory": "residential",
    "latitude": 25.532486675,
    "longitude": 69.02452825,
    "id": 657696360
  },
  {
    "name": "residential",
    "category": "highway",
    "subcategory": "residential",
    "latitude": 25.5320530125,
    "longitude": 69.0243237625,
    "id": 657696361
  },
  {
    "name": "residential",
    "category": "highway",
    "subcategory": "residential",
    "latitude": 25.53156446428571,
    "longitude": 69.02413645714286,
    "id": 657696362
  },
  {
    "name": "residential",
    "category": "highway",
    "subcategory": "residential",
    "latitude": 25.53265309,
    "longitude": 69.02716310000001,
    "id": 657702290
  },
  {
    "name": "residential",
    "category": "highway",
    "subcategory": "residential",
    "latitude": 25.531690575,
    "longitude": 69.0234837,
    "id": 657702292
  },
  {
    "name": "residential",
    "category": "highway",
    "subcategory": "residential",
    "latitude": 25.515710249999998,
    "longitude": 69.01403959999999,
    "id": 659603115
  },
  {
    "name": "residential",
    "category": "highway",
    "subcategory": "residential",
    "latitude": 25.51480415,
    "longitude": 69.01587430000001,
    "id": 659603117
  },
  {
    "name": "residential",
    "category": "highway",
    "subcategory": "residential",
    "latitude": 25.51479575,
    "longitude": 69.01407315,
    "id": 659603119
  },
  {
    "name": "residential",
    "category": "highway",
    "subcategory": "residential",
    "latitude": 25.5148207,
    "longitude": 69.01432825,
    "id": 659603120
  },
  {
    "name": "residential",
    "category": "highway",
    "subcategory": "residential",
    "latitude": 25.514031019999997,
    "longitude": 69.01562738,
    "id": 659603122
  },
  {
    "name": "residential",
    "category": "highway",
    "subcategory": "residential",
    "latitude": 25.518263775,
    "longitude": 69.018048175,
    "id": 659603123
  },
  {
    "name": "residential",
    "category": "highway",
    "subcategory": "residential",
    "latitude": 25.518393666666668,
    "longitude": 69.0174644,
    "id": 659603125
  },
  {
    "name": "residential",
    "category": "highway",
    "subcategory": "residential",
    "latitude": 25.5171908,
    "longitude": 69.018474025,
    "id": 659603126
  },
  {
    "name": "residential",
    "category": "highway",
    "subcategory": "residential",
    "latitude": 25.51696915,
    "longitude": 69.0185928,
    "id": 659603127
  },
  {
    "name": "residential",
    "category": "highway",
    "subcategory": "residential",
    "latitude": 25.51808115,
    "longitude": 69.01880779999999,
    "id": 659603129
  },
  {
    "name": "residential",
    "category": "highway",
    "subcategory": "residential",
    "latitude": 25.5169013,
    "longitude": 69.01897943333334,
    "id": 659603130
  },
  {
    "name": "residential",
    "category": "highway",
    "subcategory": "residential",
    "latitude": 25.51742635,
    "longitude": 69.0186832,
    "id": 659603132
  },
  {
    "name": "residential",
    "category": "highway",
    "subcategory": "residential",
    "latitude": 25.517667175,
    "longitude": 69.017830725,
    "id": 659603133
  },
  {
    "name": "residential",
    "category": "highway",
    "subcategory": "residential",
    "latitude": 25.51688755,
    "longitude": 69.0180014,
    "id": 659603135
  },
  {
    "name": "residential",
    "category": "highway",
    "subcategory": "residential",
    "latitude": 25.51695735,
    "longitude": 69.0175228,
    "id": 659603137
  },
  {
    "name": "residential",
    "category": "highway",
    "subcategory": "residential",
    "latitude": 25.51737346666667,
    "longitude": 69.01763993333333,
    "id": 659603139
  },
  {
    "name": "residential",
    "category": "highway",
    "subcategory": "residential",
    "latitude": 25.516819642857143,
    "longitude": 69.01610111428572,
    "id": 659603140
  },
  {
    "name": "residential",
    "category": "highway",
    "subcategory": "residential",
    "latitude": 25.517195649999998,
    "longitude": 69.01462155,
    "id": 659603142
  },
  {
    "name": "residential",
    "category": "highway",
    "subcategory": "residential",
    "latitude": 25.5181264,
    "longitude": 69.01254495,
    "id": 659603144
  },
  {
    "name": "residential",
    "category": "highway",
    "subcategory": "residential",
    "latitude": 25.5168397,
    "longitude": 69.0127855,
    "id": 659603145
  },
  {
    "name": "residential",
    "category": "highway",
    "subcategory": "residential",
    "latitude": 25.5163498,
    "longitude": 69.01269355,
    "id": 659603147
  },
  {
    "name": "residential",
    "category": "highway",
    "subcategory": "residential",
    "latitude": 25.509079299999996,
    "longitude": 69.0157842,
    "id": 660027498
  },
  {
    "name": "residential",
    "category": "highway",
    "subcategory": "residential",
    "latitude": 25.5081786,
    "longitude": 69.01538439999999,
    "id": 660027500
  },
  {
    "name": "residential",
    "category": "highway",
    "subcategory": "residential",
    "latitude": 25.50861353333333,
    "longitude": 69.0154179,
    "id": 660027502
  },
  {
    "name": "residential",
    "category": "highway",
    "subcategory": "residential",
    "latitude": 25.507603500000002,
    "longitude": 69.01345693333333,
    "id": 660027504
  },
  {
    "name": "residential",
    "category": "highway",
    "subcategory": "residential",
    "latitude": 25.508577966666667,
    "longitude": 69.02008786666666,
    "id": 660027507
  },
  {
    "name": "residential",
    "category": "highway",
    "subcategory": "residential",
    "latitude": 25.50733132,
    "longitude": 69.02168942,
    "id": 660027509
  },
  {
    "name": "residential",
    "category": "highway",
    "subcategory": "residential",
    "latitude": 25.508031399999997,
    "longitude": 69.02119083636363,
    "id": 660027511
  },
  {
    "name": "residential",
    "category": "highway",
    "subcategory": "residential",
    "latitude": 25.510275433333334,
    "longitude": 69.0192639,
    "id": 660027512
  },
  {
    "name": "residential",
    "category": "highway",
    "subcategory": "residential",
    "latitude": 25.51140393333333,
    "longitude": 69.02132776666667,
    "id": 660027514
  },
  {
    "name": "residential",
    "category": "highway",
    "subcategory": "residential",
    "latitude": 25.511421233333333,
    "longitude": 69.02161796666667,
    "id": 660027516
  },
  {
    "name": "residential",
    "category": "highway",
    "subcategory": "residential",
    "latitude": 25.507918625000002,
    "longitude": 69.020927075,
    "id": 660027518
  },
  {
    "name": "residential",
    "category": "highway",
    "subcategory": "residential",
    "latitude": 25.50882868,
    "longitude": 69.01773734,
    "id": 660027520
  },
  {
    "name": "residential",
    "category": "highway",
    "subcategory": "residential",
    "latitude": 25.51162295,
    "longitude": 69.018753225,
    "id": 660027522
  },
  {
    "name": "residential",
    "category": "highway",
    "subcategory": "residential",
    "latitude": 25.51098965454545,
    "longitude": 69.02094306363637,
    "id": 660027523
  },
  {
    "name": "residential",
    "category": "highway",
    "subcategory": "residential",
    "latitude": 25.51071555,
    "longitude": 69.0192644,
    "id": 660027525
  },
  {
    "name": "residential",
    "category": "highway",
    "subcategory": "residential",
    "latitude": 25.5104999,
    "longitude": 69.0192386,
    "id": 660027527
  },
  {
    "name": "residential",
    "category": "highway",
    "subcategory": "residential",
    "latitude": 25.509826771428575,
    "longitude": 69.01965531428571,
    "id": 660027529
  },
  {
    "name": "residential",
    "category": "highway",
    "subcategory": "residential",
    "latitude": 25.5186638,
    "longitude": 69.017463,
    "id": 661472802
  },
  {
    "name": "residential",
    "category": "highway",
    "subcategory": "residential",
    "latitude": 25.51644295,
    "longitude": 69.0157927,
    "id": 661472803
  },
  {
    "name": "residential",
    "category": "highway",
    "subcategory": "residential",
    "latitude": 25.516464133333333,
    "longitude": 69.0198787,
    "id": 661472804
  },
  {
    "name": "residential",
    "category": "highway",
    "subcategory": "residential",
    "latitude": 25.51639923333333,
    "longitude": 69.01959133333334,
    "id": 661472805
  },
  {
    "name": "residential",
    "category": "highway",
    "subcategory": "residential",
    "latitude": 25.51687065,
    "longitude": 69.0201149,
    "id": 661472806
  },
  {
    "name": "residential",
    "category": "highway",
    "subcategory": "residential",
    "latitude": 25.516819575,
    "longitude": 69.02053699999999,
    "id": 661472807
  },
  {
    "name": "residential",
    "category": "highway",
    "subcategory": "residential",
    "latitude": 25.516614,
    "longitude": 69.02009873333333,
    "id": 661472808
  },
  {
    "name": "residential",
    "category": "highway",
    "subcategory": "residential",
    "latitude": 25.516755666666665,
    "longitude": 69.01935586666667,
    "id": 661472809
  },
  {
    "name": "residential",
    "category": "highway",
    "subcategory": "residential",
    "latitude": 25.520928144444444,
    "longitude": 69.00318324444444,
    "id": 689703236
  },
  {
    "name": "residential",
    "category": "highway",
    "subcategory": "residential",
    "latitude": 25.521841988888887,
    "longitude": 69.00232720000001,
    "id": 689703237
  },
  {
    "name": "residential",
    "category": "highway",
    "subcategory": "residential",
    "latitude": 25.52139599375,
    "longitude": 69.0038910125,
    "id": 689703238
  },
  {
    "name": "residential",
    "category": "highway",
    "subcategory": "residential",
    "latitude": 25.522157028571428,
    "longitude": 69.00465804285714,
    "id": 689703239
  },
  {
    "name": "residential",
    "category": "highway",
    "subcategory": "residential",
    "latitude": 25.5252899,
    "longitude": 69.00216779444445,
    "id": 689703240
  },
  {
    "name": "residential",
    "category": "highway",
    "subcategory": "residential",
    "latitude": 25.5261059,
    "longitude": 69.00202039999999,
    "id": 689703241
  },
  {
    "name": "residential",
    "category": "highway",
    "subcategory": "residential",
    "latitude": 25.525846466666668,
    "longitude": 69.0025615,
    "id": 689703242
  },
  {
    "name": "residential",
    "category": "highway",
    "subcategory": "residential",
    "latitude": 25.525906864285712,
    "longitude": 69.00398777142857,
    "id": 689703243
  },
  {
    "name": "residential",
    "category": "highway",
    "subcategory": "residential",
    "latitude": 25.522668860000003,
    "longitude": 68.99665546,
    "id": 689703244
  },
  {
    "name": "residential",
    "category": "highway",
    "subcategory": "residential",
    "latitude": 25.522441166666667,
    "longitude": 68.99597253333333,
    "id": 689703245
  },