[
  {
    "name": "Kauthar Electronics",
    "category": "shop",
    "subcategory": "electronics",
    "latitude": 25.5258296,
    "longitude": 69.0164576,
    "id": 4946572430
  },
  {
    "name": "Civil hospital main entrance",
    "category": "amenity",
    "subcategory": "hospital",
    "latitude": 25.5253514,
    "longitude": 69.0134912,
    "id": 4946572431
  },
  {
    "name": "Ashrafi Sweets and Bakers",
    "category": "shop",
    "subcategory": "bakery",
    "latitude": 25.5258522,
    "longitude": 69.0136447,
    "id": 4946572432
  },
  {
    "name": "N",
    "category": "shop",
    "subcategory": "hairdresser",
    "latitude": 25.5336069,
    "longitude": 69.0157973,
    "id": 4946597422
  },
  {
    "name": "Shah Hotel",
    "category": "tourism",
    "subcategory": "hotel",
    "latitude": 25.520547,
    "longitude": 68.9734548,
    "id": 4946597423
  },
  {
    "name": "Kaley Khan",
    "category": "amenity",
    "subcategory": "fuel",
    "latitude": 25.5276322,
    "longitude": 69.0177424,
    "id": 4946597521
  },
  {
    "name": "Baithak BBQ Grill & Karahi",
    "category": "amenity",
    "subcategory": "restaurant",
    "latitude": 25.5215161,
    "longitude": 68.9820472,
    "id": 4946597522
  },
  {
    "name": "Ali clinic Dr. Zafar Shaikh",
    "category": "amenity",
    "subcategory": "clinic",
    "latitude": 25.5094784,
    "longitude": 69.0173419,
    "id": 4959284323
  },
  {
    "name": "Evershine medical store",
    "category": "amenity",
    "subcategory": "pharmacy",
    "latitude": 25.5122704,
    "longitude": 69.0171951,
    "id": 4959284324
  },
  {
    "name": "Khan clinic",
    "category": "amenity",
    "subcategory": "clinic",
    "latitude": 25.5122389,
    "longitude": 69.0171902,
    "id": 4959284325
  },
  {
    "name": "Al Ahmad medical store",
    "category": "amenity",
    "subcategory": "pharmacy",
    "latitude": 25.5188235,
    "longitude": 69.0137551,
    "id": 4959284326
  },
  {
    "name": "Dr. Shoaib Anwar",
    "category": "amenity",
    "subcategory": "clinic",
    "latitude": 25.5188219,
    "longitude": 69.0136787,
    "id": 4959291323
  },
  {
    "name": "Dr. Bahadur",
    "category": "amenity",
    "subcategory": "clinic",
    "latitude": 25.519233,
    "longitude": 69.0122531,
    "id": 4959292921
  },
  {
    "name": "M.M Medical Center Dr. Rana C. Rathore",
    "category": "amenity",
    "subcategory": "clinic",
    "latitude": 25.5153356,
    "longitude": 69.0177971,
    "id": 4986056621
  },
  {
    "name": "Regal Medical Store",
    "category": "amenity",
    "subcategory": "pharmacy",
    "latitude": 25.5094117,
    "longitude": 69.0173281,
    "id": 4986056821
  },
  {
    "name": "Amir Medical Store",
    "category": "amenity",
    "subcategory": "pharmacy",
    "latitude": 25.5192657,
    "longitude": 69.0122765,
    "id": 4986057221
  },
  {
    "name": "Crystal CNG",
    "category": "amenity",
    "subcategory": "fuel",
    "latitude": 25.5207337,
    "longitude": 68.9714725,
    "id": 5019448022
  },
  {
    "name": "Shell Dadan Shah CNG & Patrol Pump",
    "category": "amenity",
    "subcategory": "fuel",
    "latitude": 25.5207529,
    "longitude": 68.9764369,
    "id": 5019448023
  },
  {
    "name": "Cafe Sharif Dosti Hotel",
    "category": "tourism",
    "subcategory": "hotel",
    "latitude": 25.5204283,
    "longitude": 68.9771887,
    "id": 5019448024
  },
  {
    "name": "Shahbaz Filling Station",
    "category": "amenity",
    "subcategory": "fuel",
    "latitude": 25.5210226,
    "longitude": 68.9789166,
    "id": 5019448025
  },
  {
    "name": "Chhuttan Channa Chaat",
    "category": "amenity",
    "subcategory": "fast_food",
    "latitude": 25.5208624,
    "longitude": 68.9793182,
    "id": 5019448026
  },
  {
    "name": "Alpine Guest House Mirpur khas",
    "category": "tourism",
    "subcategory": "guest_house",
    "latitude": 25.5204747,
    "longitude": 68.9774876,
    "id": 5019448027
  },
  {
    "name": "HINGORJO FILLING STATION",
    "category": "amenity",
    "subcategory": "fuel",
    "latitude": 25.5210984,
    "longitude": 68.9791361,
    "id": 5019448028
  },
  {
    "name": "Mirpurkhas Bus Terminal",
    "category": "amenity",
    "subcategory": "bus_station",
    "latitude": 25.5220298,
    "longitude": 68.9799253,
    "id": 5019448029
  },
  {
    "name": "Four Star CNG",
    "category": "amenity",
    "subcategory": "fuel",
    "latitude": 25.5213513,
    "longitude": 68.9813637,
    "id": 5019448030
  },
  {
    "name": "Admore",
    "category": "amenity",
    "subcategory": "fuel",
    "latitude": 25.5214314,
    "longitude": 68.9816719,
    "id": 5019448031
  },
  {
    "name": "Shell Pump",
    "category": "amenity",
    "subcategory": "fuel",
    "latitude": 25.5218949,
    "longitude": 68.9836427,
    "id": 5019448032
  },
  {
    "name": "PSO petrol Pump",
    "category": "amenity",
    "subcategory": "fuel",
    "latitude": 25.5220298,
    "longitude": 68.9842684,
    "id": 5019448033
  },
  {
    "name": "Suzuki Tharparkar Motors",
    "category": "shop",
    "subcategory": "car",
    "latitude": 25.5230033,
    "longitude": 68.9881072,
    "id": 5019448034
  },
  {
    "name": "Mega City Mall",
    "category": "shop",
    "subcategory": "mall",
    "latitude": 25.5233699,
    "longitude": 68.9886442,
    "id": 5019448035
  },
  {
    "name": "National Saving Centre",
    "category": "amenity",
    "subcategory": "bank",
    "latitude": 25.5232351,
    "longitude": 68.989186,
    "id": 5019448036
  },
  {
    "name": "Al Madina CNG",
    "category": "amenity",
    "subcategory": "fuel",
    "latitude": 25.5234837,
    "longitude": 68.9903348,
    "id": 5019448037
  },
  {
    "name": "Noor CNG Filling Station",
    "category": "amenity",
    "subcategory": "fuel",
    "latitude": 25.5241791,
    "longitude": 68.9911474,
    "id": 5019448038
  },
  {
    "name": "Bisma Restaurant & Hotel",
    "category": "amenity",
    "subcategory": "restaurant",
    "latitude": 25.5240737,
    "longitude": 68.9923335,
    "id": 5019448039
  },
  {
    "name": "سونیری بینک",
    "category": "amenity",
    "subcategory": "bank",
    "latitude": 25.5242001,
    "longitude": 68.9928566,
    "id": 5019448040
  },
  {
    "name": "Milan Marriage Hall Mirpur Khas Sindh",
    "category": "amenity",
    "subcategory": "community_centre",
    "latitude": 25.5243603,
    "longitude": 68.993487,
    "id": 5019448041
  },
  {
    "name": "Masjid Ali Al Murtaza",
    "category": "amenity",
    "subcategory": "place_of_worship",
    "latitude": 25.5255445,
    "longitude": 68.9914696,
    "id": 5019448042
  },
  {
    "name": "Dera Karhai & Bar B.Q",
    "category": "amenity",
    "subcategory": "restaurant",
    "latitude": 25.5245078,
    "longitude": 68.9942389,
    "id": 5019448043
  },
  {
    "name": "Al Shahbaz",
    "category": "amenity",
    "subcategory": "pharmacy",
    "latitude": 25.5255211,
    "longitude": 69.0136481,
    "id": 5338152496
  },
  {
    "name": "Dr. Iqbal Pathan",
    "category": "amenity",
    "subcategory": "doctors",
    "latitude": 25.529638,
    "longitude": 68.9943397,
    "id": 5338152497
  },
  {
    "name": "Khan medical store",
    "category": "amenity",
    "subcategory": "pharmacy",
    "latitude": 25.5316464,
    "longitude": 69.0120327,
    "id": 5338152500
  },
  {
    "name": "Dr. Suleman Jinji",
    "category": "amenity",
    "subcategory": "clinic",
    "latitude": 25.5303368,
    "longitude": 69.0104421,
    "id": 5338152503
  },
  {
    "name": "Dr. Capt. Aijaz Laghari",
    "category": "amenity",
    "subcategory": "clinic",
    "latitude": 25.5264491,
    "longitude": 69.0149847,
    "id": 5338152504
  },
  {
    "name": "The children's hospital",
    "category": "amenity",
    "subcategory": "hospital",
    "latitude": 25.5297716,
    "longitude": 68.9943365,
    "id": 5338152508
  },
  {
    "name": "Al Shifa Medical Store",
    "category": "amenity",
    "subcategory": "pharmacy",
    "latitude": 25.5258233,
    "longitude": 69.0141057,
    "id": 5355902889
  },
  {
    "name": "Madani medical store",
    "category": "amenity",
    "subcategory": "pharmacy",
    "latitude": 25.5294753,
    "longitude": 69.0204471,
    "id": 5355902890
  },
  {
    "name": "Dr. Zia ul Baaqi Ansari",
    "category": "amenity",
    "subcategory": "clinic",
    "latitude": 25.5287752,
    "longitude": 69.0214836,
    "id": 5355902891
  },
  {
    "name": "Dr. M. Faisal Khan;Dr. Yasmeen Aziz",
    "category": "amenity",
    "subcategory": "clinic",
    "latitude": 25.5293601,
    "longitude": 69.020403,
    "id": 5355903373
  },
  {
    "name": "Dr. Mohan Lal",
    "category": "amenity",
    "subcategory": "clinic",
    "latitude": 25.5263373,
    "longitude": 68.9972237,
    "id": 5355903375
  },
  {
    "name": "Khan medical store",
    "category": "amenity",
    "subcategory": "pharmacy",
    "latitude": 25.5316494,
    "longitude": 69.0120958,
    "id": 5355903376
  },
  {
    "name": "Dr. Tabinda Ashraf",
    "category": "amenity",
    "subcategory": "clinic",
    "latitude": 25.5121059,
    "longitude": 69.0180175,
    "id": 5355903425
  },
  {
    "name": "Dr. Hameer Chand",
    "category": "amenity",
    "subcategory": "clinic",
    "latitude": 25.5318035,
    "longitude": 69.0242639,
    "id": 5355903426
  },
  {
    "name": "Dr. Rafia Manthar",
    "category": "amenity",
    "subcategory": "clinic",
    "latitude": 25.5259865,
    "longitude": 69.0153021,
    "id": 5355903427
  },
  {
    "name": "Dr. Nuzamuddin Gilal",
    "category": "amenity",
    "subcategory": "clinic",
    "latitude": 25.5262423,
    "longitude": 69.0151943,
    "id": 5365867974
  },
  {
    "name": "Dr. Naheed Naz",
    "category": "amenity",
    "subcategory": "clinic",
    "latitude": 25.5324549,
    "longitude": 69.0160185,
    "id": 5365867975
  },
  {
    "name": "Dr. Abdul Qadir Khan",
    "category": "amenity",
    "subcategory": "clinic",
    "latitude": 25.5260874,
    "longitude": 69.0147735,
    "id": 5384787750
  },
  {
    "name": "Dr. Mohammad Khan Panhwar",
    "category": "amenity",
    "subcategory": "clinic",
    "latitude": 25.5260185,
    "longitude": 69.0142304,
    "id": 5384787751
  },
  {
    "name": "Dr. Imran Khan Shirani",
    "category": "amenity",
    "subcategory": "clinic",
    "latitude": 25.5192897,
    "longitude": 69.0115282,
    "id": 5384787752
  },
  {
    "name": "عسکری بینک",
    "category": "amenity",
    "subcategory": "bank",
    "latitude": 25.5278527,
    "longitude": 69.0069427,
    "id": 5384787753
  },
  {
    "name": "Dr. Masoom Clinic",
    "category": "amenity",
    "subcategory": "clinic",
    "latitude": 25.5313463,
    "longitude": 69.0167947,
    "id": 5384787754
  },
  {
    "name": "میزان بینک",
    "category": "amenity",
    "subcategory": "bank",
    "latitude": 25.5144028,
    "longitude": 69.0107205,
    "id": 5384787755
  },
  {
    "name": "Dr. M. A. Khan",
    "category": "amenity",
    "subcategory": "clinic",
    "latitude": 25.5158508,
    "longitude": 69.0084473,
    "id": 5384787756
  },
  {
    "name": "Dr. Ashfaq Memon",
    "category": "amenity",
    "subcategory": "clinic",
    "latitude": 25.5260768,
    "longitude": 69.0152703,
    "id": 5384788143
  },
  {
    "name": "DR. Nigar AHMED",
    "category": "amenity",
    "subcategory": "clinic",
    "latitude": 25.5187969,
    "longitude": 69.013698,
    "id": 5384788144
  },
  {
    "name": "Naveen Clinic Dr. Balchand Motiani",
    "category": "amenity",
    "subcategory": "clinic",
    "latitude": 25.5131899,
    "longitude": 69.010773,
    "id": 5384788145
  },
  {
    "name": "Ali Medicare",
    "category": "amenity",
    "subcategory": "hospital",
    "latitude": 25.5279032,
    "longitude": 69.0203427,
    "id": 5384788146
  },
  {
    "name": "Dr. Lata Kamal",
    "category": "amenity",
    "subcategory": "clinic",
    "latitude": 25.5295533,
    "longitude": 69.0207297,
    "id": 5384788147
  },
  {
    "name": "Raheela Soomro",
    "category": "amenity",
    "subcategory": "clinic",
    "latitude": 25.5316022,
    "longitude": 69.0079439,
    "id": 5384788148
  },
  {
    "name": "Dr. Nasir Khan",
    "category": "amenity",
    "subcategory": "clinic",
    "latitude": 25.5190207,
    "longitude": 69.0129801,
    "id": 5384788149
  },
  {
    "name": "R.N Medical Store",
    "category": "amenity",
    "subcategory": "pharmacy",
    "latitude": 25.5155267,
    "longitude": 69.0122226,
    "id": 5406055515
  },
  {
    "name": "Dr. Zakaria Rao",
    "category": "amenity",
    "subcategory": "clinic",
    "latitude": 25.5221433,
    "longitude": 69.0184786,
    "id": 5406055828
  },
  {
    "name": "Rabbani Masjid",
    "category": "amenity",
    "subcategory": "place_of_worship",
    "latitude": 25.5181648,
    "longitude": 69.0078623,
    "id": 6571746986
  },
  {
    "name": "Aziz Orthopaedic & General Hospital",
    "category": "amenity",
    "subcategory": "hospital",
    "latitude": 25.5270817,
    "longitude": 69.0179707,
    "id": 13135531536
  }
]