[
  {
    "name": "CNG station",
    "category": "amenity",
    "subcategory": "fuel",
    "latitude": 34.0066487,
    "longitude": 71.6165181,
    "id": 307372551
  },
  {
    "name": "Total Parco",
    "category": "amenity",
    "subcategory": "fuel",
    "latitude": 33.9731869,
    "longitude": 71.5442984,
    "id": 307372704
  },
  {
    "name": "Shuuba Chowk / شوبہ چوک",
    "category": "tourism",
    "subcategory": "attraction",
    "latitude": 34.0087538,
    "longitude": 71.5636382,
    "id": 307639472
  },
  {
    "name": "Rose Hotel",
    "category": "tourism",
    "subcategory": "hotel",
    "latitude": 34.0085611,
    "longitude": 71.563989,
    "id": 742145824
  },
  {
    "name": "Hidayat Hotel",
    "category": "tourism",
    "subcategory": "hotel",
    "latitude": 34.0160404,
    "longitude": 71.5734886,
    "id": 742146088
  },
  {
    "name": "CMH Peshawar - Combined Military Hospital",
    "category": "amenity",
    "subcategory": "hospital",
    "latitude": 34.0034083,
    "longitude": 71.5427023,
    "id": 854341089
  },
  {
    "name": "Sher Khan Shaheed Stadium park",
    "category": "tourism",
    "subcategory": "theme_park",
    "latitude": 34.0148846,
    "longitude": 71.5487586,
    "id": 1223082738
  },
  {
    "name": "Shawal Hotel",
    "category": "tourism",
    "subcategory": "hotel",
    "latitude": 34.0148846,
    "longitude": 71.5822004,
    "id": 1223111906
  },
  {
    "name": "The Bank of Khyber",
    "category": "amenity",
    "subcategory": "bank",
    "latitude": 34.0162542,
    "longitude": 71.5853439,
    "id": 1223880845
  },
  {
    "name": "Jan's Shopping Plaza",
    "category": "shop",
    "subcategory": "supermarket",
    "latitude": 34.0025718,
    "longitude": 71.5449956,
    "id": 1223932413
  },
  {
    "name": "Abu Bakar",
    "category": "amenity",
    "subcategory": "place_of_worship",
    "latitude": 34.0230342,
    "longitude": 71.5480637,
    "id": 1224141080
  },
  {
    "name": "Charsadda Bus Terminal",
    "category": "amenity",
    "subcategory": "bus_station",
    "latitude": 34.029792,
    "longitude": 71.5768599,
    "id": 1224175043
  },
  {
    "name": "شاہی باغ مسجد",
    "category": "amenity",
    "subcategory": "place_of_worship",
    "latitude": 34.0202953,
    "longitude": 71.5734482,
    "id": 1224175058
  },
  {
    "name": "مسجد",
    "category": "amenity",
    "subcategory": "place_of_worship",
    "latitude": 34.0202251,
    "longitude": 71.5795003,
    "id": 1224175061
  },
  {
    "name": "Mayor's Office",
    "category": "amenity",
    "subcategory": "townhall",
    "latitude": 34.0174853,
    "longitude": 71.5716457,
    "id": 1224175063
  },
  {
    "name": "Bank al-Falah",
    "category": "amenity",
    "subcategory": "bank",
    "latitude": 34.0024773,
    "longitude": 71.5455959,
    "id": 1225241975
  },
  {
    "name": "Khyber Pakhtunkhwa Provincial Assembly",
    "category": "amenity",
    "subcategory": "townhall",
    "latitude": 34.0141103,
    "longitude": 71.56656,
    "id": 1226368129
  },
  {
    "name": "Central Police Office",
    "category": "amenity",
    "subcategory": "police",
    "latitude": 34.0094966,
    "longitude": 71.5561238,
    "id": 1226368131
  },
  {
    "name": "پشاور پریس کلب",
    "category": "tourism",
    "subcategory": "guest_house",
    "latitude": 34.0039715,
    "longitude": 71.551132,
    "id": 1226368132
  },
  {
    "name": "Peshawar Museum",
    "category": "tourism",
    "subcategory": "museum",
    "latitude": 34.007712,
    "longitude": 71.5582754,
    "id": 1226368134
  },
  {
    "name": "Fork restaurant",
    "category": "amenity",
    "subcategory": "restaurant",
    "latitude": 34.0204974,
    "longitude": 71.5594087,
    "id": 1350054380
  },
  {
    "name": "Nangarhar Building",
    "category": "amenity",
    "subcategory": "townhall",
    "latitude": 33.9818117,
    "longitude": 71.5760392,
    "id": 1350185146
  },
  {
    "name": "Amin Hotel Peshawar",
    "category": "tourism",
    "subcategory": "hotel",
    "latitude": 34.0155327,
    "longitude": 71.5819412,
    "id": 2077574702
  },
  {
    "name": "Salateen Hall",
    "category": "tourism",
    "subcategory": "Hall",
    "latitude": 34.0154323,
    "longitude": 71.5817398,
    "id": 2081312038
  },
  {
    "name": "Wapda Hospital",
    "category": "amenity",
    "subcategory": "hospital",
    "latitude": 34.0234601,
    "longitude": 71.5577474,
    "id": 2345384102
  },
  {
    "name": "Wapda Guest House",
    "category": "tourism",
    "subcategory": "guest_house",
    "latitude": 34.025034,
    "longitude": 71.5580231,
    "id": 2345410961
  },
  {
    "name": "Wapda High School",
    "category": "amenity",
    "subcategory": "school",
    "latitude": 34.0231678,
    "longitude": 71.5608377,
    "id": 2345410962
  },
  {
    "name": "Police Lines Peshawar",
    "category": "amenity",
    "subcategory": "townhall",
    "latitude": 34.0122854,
    "longitude": 71.5607005,
    "id": 2345410964
  },
  {
    "name": "Judicial Complex",
    "category": "amenity",
    "subcategory": "townhall",
    "latitude": 34.0141525,
    "longitude": 71.5625655,
    "id": 2345410965
  },
  {
    "name": "Supreme Court Peshawar",
    "category": "amenity",
    "subcategory": "townhall",
    "latitude": 34.0140809,
    "longitude": 71.5637256,
    "id": 2345410966
  },
  {
    "name": "Army Stadium",
    "category": "leisure",
    "subcategory": "stadium",
    "latitude": 34.0166898,
    "longitude": 71.5506902,
    "id": 2429988462
  },
  {
    "name": "Chit Chat",
    "category": "amenity",
    "subcategory": "marketplace",
    "latitude": 34.0181019,
    "longitude": 71.5551823,
    "id": 2429988463
  },
  {
    "name": "McDonalds",
    "category": "amenity",
    "subcategory": "restaurant",
    "latitude": 34.0175343,
    "longitude": 71.5479581,
    "id": 2429988465
  },
  {
    "name": "Pizza Hut",
    "category": "amenity",
    "subcategory": "restaurant",
    "latitude": 34.0153546,
    "longitude": 71.5520491,
    "id": 2429988467
  },
  {
    "name": "شیل",
    "category": "amenity",
    "subcategory": "fuel",
    "latitude": 34.0000193,
    "longitude": 71.5463329,
    "id": 2430009635
  },
  {
    "name": "bus station",
    "category": "amenity",
    "subcategory": "bus_station",
    "latitude": 34.0154648,
    "longitude": 71.5995515,
    "id": 2431908808
  },
  {
    "name": "RA Bazaar",
    "category": "amenity",
    "subcategory": "marketplace",
    "latitude": 34.0101025,
    "longitude": 71.5489058,
    "id": 2432745331
  },
  {
    "name": "آرمی ہاسٹل",
    "category": "amenity",
    "subcategory": "restaurant",
    "latitude": 34.0077175,
    "longitude": 71.545804,
    "id": 2432768427
  },
  {
    "name": "CNG station",
    "category": "amenity",
    "subcategory": "fuel",
    "latitude": 34.0150594,
    "longitude": 71.574942,
    "id": 2502792589
  },
  {
    "name": "CNG - Gulbahar adda",
    "category": "amenity",
    "subcategory": "fuel",
    "latitude": 34.0152819,
    "longitude": 71.5988586,
    "id": 2502792612
  },
  {
    "name": "CHOTA QABRISTAN",
    "category": "amenity",
    "subcategory": "grave_yard",
    "latitude": 33.9725524,
    "longitude": 71.5530437,
    "id": 3276299541
  },
  {
    "name": "CHOTA QABRISTAN",
    "category": "amenity",
    "subcategory": "grave_yard",
    "latitude": 33.9730971,
    "longitude": 71.5548662,
    "id": 3276299542
  },
  {
    "name": "QABRISTAN",
    "category": "amenity",
    "subcategory": "grave_yard",
    "latitude": 33.9973996,
    "longitude": 71.5590215,
    "id": 3276652022
  },
  {
    "name": "Namak Mandi Restaurants",
    "category": "amenity",
    "subcategory": "restaurant",
    "latitude": 34.0056467,
    "longitude": 71.5659871,
    "id": 3276662979
  },
  {
    "name": "Shuuba Car  repair Workshops",
    "category": "shop",
    "subcategory": "car_repair",
    "latitude": 34.0081646,
    "longitude": 71.5612522,
    "id": 3276669603
  },
  {
    "name": "Shrine of Abdur Rehman Baba  رحمان بابا قبر",
    "category": "amenity",
    "subcategory": "place_of_worship",
    "latitude": 33.9934889,
    "longitude": 71.5898759,
    "id": 3276959669
  },
  {
    "name": "نیشنل بینک آف پاکستان",
    "category": "amenity",
    "subcategory": "bank",
    "latitude": 34.0104314,
    "longitude": 71.57447,
    "id": 3276996788
  },
  {
    "name": "ندر شہر بازار",
    "category": "shop",
    "subcategory": "jewelry",
    "latitude": 34.0103998,
    "longitude": 71.5727791,
    "id": 3279797711
  },
  {
    "name": "Bazar Kalan / کالان بازار",
    "category": "amenity",
    "subcategory": "marketplace",
    "latitude": 34.0088815,
    "longitude": 71.5771731,
    "id": 3279797712
  },
  {
    "name": "کریم پورہ بازار",
    "category": "amenity",
    "subcategory": "marketplace",
    "latitude": 34.0111762,
    "longitude": 71.5801215,
    "id": 3279797713
  },
  {
    "name": "Meena Bazar / مينہ بازار",
    "category": "amenity",
    "subcategory": "marketplace",
    "latitude": 34.0087248,
    "longitude": 71.5757038,
    "id": 3279807764
  },
  {
    "name": "General Bus Station",
    "category": "amenity",
    "subcategory": "bus_station",
    "latitude": 34.0171683,
    "longitude": 71.6007528,
    "id": 3280130401
  },
  {
    "name": "CNG Statiom",
    "category": "amenity",
    "subcategory": "fuel",
    "latitude": 34.0002025,
    "longitude": 71.6074939,
    "id": 3280180803
  },
  {
    "name": "CNG Statiom",
    "category": "amenity",
    "subcategory": "fuel",
    "latitude": 34.0003609,
    "longitude": 71.6087239,
    "id": 3280180804
  },
  {
    "name": "قصہ خوني بازار",
    "category": "amenity",
    "subcategory": "marketplace",
    "latitude": 34.0079027,
    "longitude": 71.5702562,
    "id": 3302030380
  },
  {
    "name": "Nishtar Hall / نشتر ہال",
    "category": "amenity",
    "subcategory": "theatre",
    "latitude": 34.0124275,
    "longitude": 71.5639081,
    "id": 3302057690
  },
  {
    "name": "Directorate of Archives & Libraries, Peshawar",
    "category": "amenity",
    "subcategory": "library",
    "latitude": 34.0079363,
    "longitude": 71.5589611,
    "id": 3302069404
  },
  {
    "name": "شیخ آباد پارک 1",
    "category": "leisure",
    "subcategory": "park",
    "latitude": 34.0077935,
    "longitude": 71.5882657,
    "id": 3335614038
  },
  {
    "name": "Shrine of Shiekh Junaid Baba",
    "category": "amenity",
    "subcategory": "place_of_worship",
    "latitude": 34.0076026,
    "longitude": 71.5893748,
    "id": 3335625730
  },
  {
    "name": "Governer House Peshawar",
    "category": "amenity",
    "subcategory": "townhall",
    "latitude": 34.0082573,
    "longitude": 71.5549455,
    "id": 3972340245
  },
  {
    "name": "Shiraz Arena",
    "category": "tourism",
    "subcategory": "hotel",
    "latitude": 34.0009367,
    "longitude": 71.5440875,
    "id": 4112393499
  },
  {
    "name": "Truck Adda",
    "category": "amenity",
    "subcategory": "parking",
    "latitude": 33.9792724,
    "longitude": 71.5566905,
    "id": 4225117635
  },
  {
    "name": "Capital CNG ",
    "category": "amenity",
    "subcategory": "fuel",
    "latitude": 33.9943515,
    "longitude": 71.5590809,
    "id": 4290844490
  },
  {
    "name": "Police Station Faqirabad",
    "category": "amenity",
    "subcategory": "police",
    "latitude": 34.0280887,
    "longitude": 71.5754206,
    "id": 4456939994
  },
  {
    "name": "Dr. Fazle Amin Children Specialist",
    "category": "amenity",
    "subcategory": "doctors",
    "latitude": 34.0087289,
    "longitude": 71.5791429,
    "id": 4464815191
  },
  {
    "name": "Agha Khan laboratory Collection Point",
    "category": "amenity",
    "subcategory": "clinic",
    "latitude": 34.003656,
    "longitude": 71.560438,
    "id": 4476250689
  },
  {
    "name": "Central Jail Peshawar",
    "category": "amenity",
    "subcategory": "police",
    "latitude": 34.0104544,
    "longitude": 71.5611119,
    "id": 4481034198
  },
  {
    "name": "Jewellery Shop",
    "category": "shop",
    "subcategory": "jewelry",
    "latitude": 34.0103981,
    "longitude": 71.5716923,
    "id": 4481034199
  },
  {
    "name": "Jewellery Shop",
    "category": "shop",
    "subcategory": "jewelry",
    "latitude": 34.0104375,
    "longitude": 71.5715706,
    "id": 4481034295
  },
  {
    "name": "Arshad Cinema",
    "category": "amenity",
    "subcategory": "cinema",
    "latitude": 34.0102216,
    "longitude": 71.5641391,
    "id": 4481034296
  },
  {
    "name": "Saraf",
    "category": "amenity",
    "subcategory": "bureau_de_change",
    "latitude": 34.0102696,
    "longitude": 71.5739896,
    "id": 4481034393
  },
  {
    "name": "Traffic Police Head Quarter",
    "category": "amenity",
    "subcategory": "police",
    "latitude": 34.0168891,
    "longitude": 71.5710666,
    "id": 4481034699
  },
  {
    "name": "Army Check Point",
    "category": "amenity",
    "subcategory": "police",
    "latitude": 34.0144907,
    "longitude": 71.5657881,
    "id": 4481034700
  },
  {
    "name": "Army Check Point",
    "category": "amenity",
    "subcategory": "police",
    "latitude": 34.0146066,
    "longitude": 71.5528207,
    "id": 4481034701
  },
  {
    "name": "Ayina Sabrina Cinema",
    "category": "amenity",
    "subcategory": "cinema",
    "latitude": 34.0103133,
    "longitude": 71.5639865,
    "id": 4484284696
  },
  {
    "name": "Pak Medical Centre",
    "category": "amenity",
    "subcategory": "doctors",
    "latitude": 34.0103174,
    "longitude": 71.5644589,
    "id": 4484291394
  },
  {
    "name": "Car Repair Michanic",
    "category": "shop",
    "subcategory": "car_repair",
    "latitude": 34.0430404,
    "longitude": 71.5775705,
    "id": 4496769993
  },
  {
    "name": "Fire Brigade",
    "category": "amenity",
    "subcategory": "fire_station",
    "latitude": 34.0279949,
    "longitude": 71.5753927,
    "id": 4496776893
  },
  {
    "name": "Banu Bagh(Mashumanu jabai)",
    "category": "amenity",
    "subcategory": "doctors",
    "latitude": 34.0075403,
    "longitude": 71.5852653,
    "id": 4506410697
  },
  {
    "name": "یونائیٹڈ بینک لمیٹڈ",
    "category": "amenity",
    "subcategory": "bank",
    "latitude": 33.9992308,
    "longitude": 71.5403183,
    "id": 4514124889
  },
  {
    "name": "Pakistan Currency",
    "category": "amenity",
    "subcategory": "bureau_de_change",
    "latitude": 33.9990053,
    "longitude": 71.5407197,
    "id": 4514124890
  },
  {
    "name": "Gul Bahar Police Station",
    "category": "amenity",
    "subcategory": "police",
    "latitude": 34.0149762,
    "longitude": 71.5914887,
    "id": 4515365490
  },
  {
    "name": "Peshawar Driving license Office",
    "category": "amenity",
    "subcategory": "police",
    "latitude": 34.0150293,
    "longitude": 71.5908943,
    "id": 4515384590
  },
  {
    "name": "Taimoor moter work shop",
    "category": "shop",
    "subcategory": "car_repair",
    "latitude": 33.9940078,
    "longitude": 71.5577511,
    "id": 4535616095
  },
  {
    "name": "Riaz and Sons engineering works",
    "category": "shop",
    "subcategory": "car_repair",
    "latitude": 33.9940841,
    "longitude": 71.557925,
    "id": 4535627291
  },
  {
    "name": "Bilal autos",
    "category": "shop",
    "subcategory": "car_repair",
    "latitude": 33.9939534,
    "longitude": 71.5575157,
    "id": 4535637290
  },
  {
    "name": "Silk Bank",
    "category": "amenity",
    "subcategory": "bank",
    "latitude": 34.0008619,
    "longitude": 71.542055,
    "id": 4537273296
  },
  {
    "name": "عسکری بینک",
    "category": "amenity",
    "subcategory": "bank",
    "latitude": 34.0014194,
    "longitude": 71.542107,
    "id": 4537292092
  },
  {
    "name": "NIB Bank",
    "category": "amenity",
    "subcategory": "bank",
    "latitude": 34.0008156,
    "longitude": 71.542452,
    "id": 4537301194
  },
  {
    "name": "The Bank Of Khyber",
    "category": "amenity",
    "subcategory": "bank",
    "latitude": 34.0012377,
    "longitude": 71.543182,
    "id": 4537301195
  },
  {
    "name": "فیصل بینک",
    "category": "amenity",
    "subcategory": "bank",
    "latitude": 34.0012017,
    "longitude": 71.5418402,
    "id": 4537304489
  },
  {
    "name": "Imran tyre centre",
    "category": "shop",
    "subcategory": "tyres",
    "latitude": 34.0003244,
    "longitude": 71.543007,
    "id": 4537336689
  },
  {
    "name": "Hermain tyre centre",
    "category": "shop",
    "subcategory": "tyres",
    "latitude": 34.000173,
    "longitude": 71.5431205,
    "id": 4537336789
  },
  {
    "name": "sardar colony",
    "category": "tourism",
    "subcategory": "attraction",
    "latitude": 34.0382175,
    "longitude": 71.5828042,
    "id": 4541536289
  },
  {
    "name": "national saving bank",
    "category": "amenity",
    "subcategory": "bank",
    "latitude": 34.0202763,
    "longitude": 71.5876389,
    "id": 4547892589
  },
  {
    "name": "الائیڈ بینک لمیٹڈ",
    "category": "amenity",
    "subcategory": "bank",
    "latitude": 34.0157015,
    "longitude": 71.6008044,
    "id": 4556552391
  },
  {
    "name": "Police Check Point",
    "category": "amenity",
    "subcategory": "police",
    "latitude": 34.0078143,
    "longitude": 71.5535654,
    "id": 4556553889
  },
  {
    "name": "Faisal Movers",
    "category": "amenity",
    "subcategory": "bus_station",
    "latitude": 34.0162018,
    "longitude": 71.6136903,
    "id": 4556558089
  },
  {
    "name": "mission hospital peshawar",
    "category": "amenity",
    "subcategory": "hospital",
    "latitude": 34.0037555,
    "longitude": 71.5571769,
    "id": 4570305408
  },
  {
    "name": "shaukat khanum hospital collection point",
    "category": "amenity",
    "subcategory": "pharmacy",
    "latitude": 34.0035523,
    "longitude": 71.5594165,
    "id": 4570305409
  },
  {
    "name": "allied bank",
    "category": "amenity",
    "subcategory": "bank",
    "latitude": 34.0032602,
    "longitude": 71.5597023,
    "id": 4570316416
  },
  {
    "name": "pso tyre shop",
    "category": "shop",
    "subcategory": "tyres",
    "latitude": 34.0061306,
    "longitude": 71.6143337,
    "id": 4570317391
  },
  {
    "name": "pso pump",
    "category": "amenity",
    "subcategory": "fuel",
    "latitude": 34.0063235,
    "longitude": 71.61441,
    "id": 4570331789
  },
  {
    "name": "afridi tyre and air shop",
    "category": "shop",
    "subcategory": "tyres",
    "latitude": 33.99681,
    "longitude": 71.555187,
    "id": 4570342094
  },
  {
    "name": "zarqa travellers",
    "category": "shop",
    "subcategory": "travel_agency",
    "latitude": 34.0036627,
    "longitude": 71.558704,
    "id": 4570346697
  },
  {
    "name": "sadiq medicose",
    "category": "amenity",
    "subcategory": "pharmacy",
    "latitude": 34.0034627,
    "longitude": 71.5596978,
    "id": 4570347090
  },
  {
    "name": "Army Check Point",
    "category": "amenity",
    "subcategory": "police",
    "latitude": 34.0049781,
    "longitude": 71.5503022,
    "id": 4572635390
  },
  {
    "name": "Army Check Point",
    "category": "amenity",
    "subcategory": "police",
    "latitude": 34.0076946,
    "longitude": 71.5530169,
    "id": 4572654289
  },
  {
    "name": "wheel balancing",
    "category": "shop",
    "subcategory": "tyres",
    "latitude": 34.0036142,
    "longitude": 71.5539413,
    "id": 4581606591
  },
  {
    "name": "Elizabeth Girls school and college",
    "category": "amenity",
    "subcategory": "school",
    "latitude": 34.0038173,
    "longitude": 71.5566291,
    "id": 4581606592
  },
  {
    "name": "united bank limited",
    "category": "amenity",
    "subcategory": "bank",
    "latitude": 34.0039554,
    "longitude": 71.557212,
    "id": 4581606593
  },
  {
    "name": "syed anwar medical centre",
    "category": "amenity",
    "subcategory": "hospital",
    "latitude": 34.0038113,
    "longitude": 71.5553226,
    "id": 4581606691
  },
  {
    "name": "Dr Tahira nasreen gynaecologist",
    "category": "amenity",
    "subcategory": "clinic",
    "latitude": 34.0233043,
    "longitude": 71.5553035,
    "id": 4586526189
  },
  {
    "name": "Drug Bank",
    "category": "amenity",
    "subcategory": "pharmacy",
    "latitude": 33.9973302,
    "longitude": 71.5399826,
    "id": 4599364389
  },
  {
    "name": "Civil Dispensary Gari Atta Muhammad",
    "category": "amenity",
    "subcategory": "hospital",
    "latitude": 33.9776073,
    "longitude": 71.584092,
    "id": 4651145292
  },
  {
    "name": "Jamia Masjid Janas Khan Akakhail",
    "category": "amenity",
    "subcategory": "place_of_worship",
    "latitude": 34.0449661,
    "longitude": 71.576021,
    "id": 4682542590
  },
  {
    "name": "Golden Plaza (Janas Khan Akakhail & Son's)",
    "category": "shop",
    "subcategory": "supermarket",
    "latitude": 34.042951,
    "longitude": 71.5785593,
    "id": 4682550889
  },
  {
    "name": "میزان بینک",
    "category": "amenity",
    "subcategory": "bank",
    "latitude": 34.0022605,
    "longitude": 71.5457577,
    "id": 4739418922
  },
  {
    "name": "United steel traders",
    "category": "amenity",
    "subcategory": "place_of_worship",
    "latitude": 34.0178994,
    "longitude": 71.6139433,
    "id": 4746670722
  },
  {
    "name": "Hussain Hostel",
    "category": "tourism",
    "subcategory": "hostel",
    "latitude": 34.034918,
    "longitude": 71.5874124,
    "id": 4872596922
  },
  {
    "name": "Professional Works",
    "category": "shop",
    "subcategory": "car_repair",
    "latitude": 33.9755288,
    "longitude": 71.5485517,
    "id": 4984232425
  },
  {
    "name": "Balahisar",
    "category": "tourism",
    "subcategory": "hotel",
    "latitude": 34.014797,
    "longitude": 71.5990183,
    "id": 4987520321
  },
  {
    "name": "Raiti Bazar",
    "category": "shop",
    "subcategory": "car_parts",
    "latitude": 34.010069,
    "longitude": 71.5750221,
    "id": 5011765127
  },
  {
    "name": "Laeeq Ahmad Ropes Merchant and Manufacturer",
    "category": "shop",
    "subcategory": "outdoor",
    "latitude": 34.0078258,
    "longitude": 71.5703592,
    "id": 5159054723
  },
  {
    "name": "Saudi Airlines Office",
    "category": "shop",
    "subcategory": "ticket",
    "latitude": 34.0025886,
    "longitude": 71.5452995,
    "id": 5253363022
  },
  {
    "name": "cng",
    "category": "amenity",
    "subcategory": "fuel",
    "latitude": 34.0108855,
    "longitude": 71.5915679,
    "id": 5257685441
  },
  {
    "name": "Tahir tyre Shop",
    "category": "shop",
    "subcategory": "tyres",
    "latitude": 34.0140194,
    "longitude": 71.5918062,
    "id": 5257695757
  },
  {
    "name": "Aman hospital",
    "category": "amenity",
    "subcategory": "hospital",
    "latitude": 34.002047,
    "longitude": 71.5585967,
    "id": 5275615025
  },
  {
    "name": "Agha Khan Laboratory Collection Point",
    "category": "amenity",
    "subcategory": "laboratory",
    "latitude": 34.0109492,
    "longitude": 71.5725392,
    "id": 5369612521
  },
  {
    "name": "Grandeur Lounge",
    "category": "tourism",
    "subcategory": "motel",
    "latitude": 34.0235128,
    "longitude": 71.5424059,
    "id": 5422392621
  },
  {
    "name": "Green Shadi Hall",
    "category": "amenity",
    "subcategory": "community_centre",
    "latitude": 34.00114,
    "longitude": 71.5426525,
    "id": 5448704521
  },
  {
    "name": "Gerry's Visa",
    "category": "amenity",
    "subcategory": "post_office",
    "latitude": 34.0006657,
    "longitude": 71.5459418,
    "id": 5480036421
  },
  {
    "name": "65174. E.Sahulath",
    "category": "amenity",
    "subcategory": "bank",
    "latitude": 33.9826436,
    "longitude": 71.548151,
    "id": 5542264925
  },
  {
    "name": "h",
    "category": "tourism",
    "subcategory": "apartment",
    "latitude": 34.0335982,
    "longitude": 71.5893145,
    "id": 5600838021
  },
  {
    "name": "Money link Exchange co.(Pvt) Ltd",
    "category": "amenity",
    "subcategory": "bureau_de_change",
    "latitude": 34.0005723,
    "longitude": 71.5461061,
    "id": 5639161022
  },
  {
    "name": "ایم سی بی بینک",
    "category": "amenity",
    "subcategory": "bank",
    "latitude": 34.0254093,
    "longitude": 71.5741785,
    "id": 5676742042
  },
  {
    "name": "یونائیٹڈ بینک لمیٹڈ",
    "category": "amenity",
    "subcategory": "bank",
    "latitude": 34.0121148,
    "longitude": 71.5755979,
    "id": 5754374821
  },
  {
    "name": "City Museum - Ghor Katri",
    "category": "tourism",
    "subcategory": "museum",
    "latitude": 34.0079115,
    "longitude": 71.5816898,
    "id": 5755430921
  },
  {
    "name": "Cunningham Clock Tower",
    "category": "tourism",
    "subcategory": "attraction",
    "latitude": 34.0097907,
    "longitude": 71.5757614,
    "id": 5755501822
  },
  {
    "name": "تمام سینٹس چرچ",
    "category": "amenity",
    "subcategory": "place_of_worship",
    "latitude": 34.0053072,
    "longitude": 71.5712297,
    "id": 5755599521
  },
  {
    "name": "Emaraat Hotel",
    "category": "tourism",
    "subcategory": "hotel",
    "latitude": 34.0042828,
    "longitude": 71.5665804,
    "id": 5756150023
  },
  {
    "name": "Mazeban Hotel",
    "category": "tourism",
    "subcategory": "hotel",
    "latitude": 34.0071082,
    "longitude": 71.5646213,
    "id": 5756198423
  },
  {
    "name": "Al-Ibadat Hotel",
    "category": "tourism",
    "subcategory": "hotel",
    "latitude": 34.00447,
    "longitude": 71.5668089,
    "id": 6065587285
  },
  {
    "name": "Sanan’s House",
    "category": "tourism",
    "subcategory": "apartment",
    "latitude": 34.0214268,
    "longitude": 71.557341,
    "id": 6172762085
  },
  {
    "name": "Golf Club (Home)",
    "category": "tourism",
    "subcategory": "guest_house",
    "latitude": 34.0197471,
    "longitude": 71.5564629,
    "id": 6174729789
  },
  {
    "name": "Namak Mandi",
    "category": "amenity",
    "subcategory": "restaurant",
    "latitude": 34.0051218,
    "longitude": 71.5656644,
    "id": 6190923385
  },
  {
    "name": "Habibi Restaurant",
    "category": "amenity",
    "subcategory": "restaurant",
    "latitude": 34.0179657,
    "longitude": 71.5449112,
    "id": 6206468188
  },
  {
    "name": "Fine Drive Rent A Car",
    "category": "amenity",
    "subcategory": "car_rental",
    "latitude": 34.001308,
    "longitude": 71.5430115,
    "id": 6341638799
  },
  {
    "name": "Khyber Medical Centre,Peshawar",
    "category": "amenity",
    "subcategory": "clinic",
    "latitude": 34.0048054,
    "longitude": 71.559758,
    "id": 6341638800
  },
  {
    "name": "Dr. Yousan Paracha",
    "category": "amenity",
    "subcategory": "doctors",
    "latitude": 34.0033995,
    "longitude": 71.5601626,
    "id": 6360170323
  },
  {
    "name": "Dr Younas Paracha",
    "category": "amenity",
    "subcategory": "doctors",
    "latitude": 34.0042971,
    "longitude": 71.5595024,
    "id": 6360193100
  },
  {
    "name": "Al Haj.Siraj Mh & sons Khatna Clinic",
    "category": "amenity",
    "subcategory": "hospital",
    "latitude": 34.0086696,
    "longitude": 71.5826667,
    "id": 6370499888
  },
  {
    "name": "Car Paint",
    "category": "shop",
    "subcategory": "car_repair",
    "latitude": 34.0324512,
    "longitude": 71.5996268,
    "id": 6385698385
  },
  {
    "name": "MMC",
    "category": "amenity",
    "subcategory": "hospital",
    "latitude": 34.0331084,
    "longitude": 71.599578,
    "id": 6385698386
  },
  {
    "name": "Pakistan Plaza",
    "category": "amenity",
    "subcategory": "doctors",
    "latitude": 34.0357803,
    "longitude": 71.5798332,
    "id": 6406302189
  },
  {
    "name": "Sardar Colony .  سردار کالونی",
    "category": "shop",
    "subcategory": "cosmetics",
    "latitude": 34.0364668,
    "longitude": 71.5803352,
    "id": 6406327485
  },
  {
    "name": "Asim CNG",
    "category": "amenity",
    "subcategory": "fuel",
    "latitude": 34.0370682,
    "longitude": 71.5787964,
    "id": 6406327585
  },
  {
    "name": "Azeem CNG",
    "category": "amenity",
    "subcategory": "fuel",
    "latitude": 34.0341932,
    "longitude": 71.5783873,
    "id": 6406327586
  },
  {
    "name": "Jazz",
    "category": "shop",
    "subcategory": "mobile_phone",
    "latitude": 34.0316693,
    "longitude": 71.5775265,
    "id": 6408440285
  },
  {
    "name": "National Bank Of Pakistan",
    "category": "amenity",
    "subcategory": "bank",
    "latitude": 33.9998845,
    "longitude": 71.5416437,
    "id": 6445662386
  },
  {
    "name": "Suzuki Sarwar Automobiles",
    "category": "shop",
    "subcategory": "car",
    "latitude": 34.000182,
    "longitude": 71.5418239,
    "id": 6445666985
  },
  {
    "name": "University Book Store",
    "category": "shop",
    "subcategory": "books",
    "latitude": 34.0085962,
    "longitude": 71.5678554,
    "id": 6581436185
  },
  {
    "name": "Iqra Model High School",
    "category": "amenity",
    "subcategory": "school",
    "latitude": 33.9920411,
    "longitude": 71.6053859,
    "id": 6839726285
  },
  {
    "name": "Govt Girls Primary School Hazar khwani",
    "category": "amenity",
    "subcategory": "school",
    "latitude": 33.9913932,
    "longitude": 71.6052624,
    "id": 6839726286
  },
  {
    "name": "Dilawar Khan Adda",
    "category": "amenity",
    "subcategory": "bus_station",
    "latitude": 34.0163658,
    "longitude": 71.5948111,
    "id": 6895723486
  },
  {
    "name": "Khattak steel corporation",
    "category": "shop",
    "subcategory": "hardware",
    "latitude": 33.9815257,
    "longitude": 71.5666202,
    "id": 6938818685
  },
  {
    "name": "Bilal Daewoo",
    "category": "amenity",
    "subcategory": "bus_station",
    "latitude": 34.0162561,
    "longitude": 71.6137747,
    "id": 6942446086
  },
  {
    "name": "Work shop",
    "category": "shop",
    "subcategory": "furniture",
    "latitude": 34.009792,
    "longitude": 71.582615,
    "id": 6989435185
  },
  {
    "name": "Madrasa lilbanat Mufti Mohammd Qaim bijli ghar",
    "category": "amenity",
    "subcategory": "place_of_worship",
    "latitude": 33.9916636,
    "longitude": 71.5573162,
    "id": 7088124485
  },
  {
    "name": "Chacha Younas Park",
    "category": "tourism",
    "subcategory": "viewpoint",
    "latitude": 34.0151822,
    "longitude": 71.5780697,
    "id": 7149736387
  },
  {
    "name": "Shayan autos",
    "category": "shop",
    "subcategory": "motorcycle",
    "latitude": 33.9816422,
    "longitude": 71.5666726,
    "id": 7159866085
  },
  {
    "name": "Haleem Ghar",
    "category": "amenity",
    "subcategory": "restaurant",
    "latitude": 34.0152217,
    "longitude": 71.5786445,
    "id": 7182345585
  },
  {
    "name": "CNG Pump",
    "category": "amenity",
    "subcategory": "fuel",
    "latitude": 34.0226125,
    "longitude": 71.5643769,
    "id": 7271406385
  },
  {
    "name": "Sabrina Marquee, Shami Road, Peshawar",
    "category": "tourism",
    "subcategory": "viewpoint",
    "latitude": 34.0216199,
    "longitude": 71.5590909,
    "id": 7271406386
  },
  {
    "name": "Jamia Masjid Hanafia",
    "category": "amenity",
    "subcategory": "place_of_worship",
    "latitude": 34.0317284,
    "longitude": 71.5655718,
    "id": 7426815537
  },
  {
    "name": "Madni",
    "category": "amenity",
    "subcategory": "place_of_worship",
    "latitude": 34.0053049,
    "longitude": 71.5664816,
    "id": 7818735568
  },
  {
    "name": "Chowk Yadgar Jumaat",
    "category": "amenity",
    "subcategory": "place_of_worship",
    "latitude": 34.0085445,
    "longitude": 71.5740705,
    "id": 7819030493
  },
  {
    "name": "Picture House Cinema",
    "category": "amenity",
    "subcategory": "cinema",
    "latitude": 34.007965,
    "longitude": 71.5686851,
    "id": 7819030507
  },
  {
    "name": "Tasveer Mahal Cinema",
    "category": "amenity",
    "subcategory": "cinema",
    "latitude": 34.0078719,
    "longitude": 71.567141,
    "id": 7819030508
  },
  {
    "name": "Drey Cinema",
    "category": "amenity",
    "subcategory": "cinema",
    "latitude": 34.0082666,
    "longitude": 71.5680623,
    "id": 7819185626
  },
  {
    "name": "Shrine of Syed Sittar Shah",
    "category": "amenity",
    "subcategory": "place_of_worship",
    "latitude": 34.0007486,
    "longitude": 71.557825,
    "id": 7819185666
  },
  {
    "name": "Shrine of Agha Mir Jani Shah Sarkar",
    "category": "amenity",
    "subcategory": "place_of_worship",
    "latitude": 34.0018211,
    "longitude": 71.5767597,
    "id": 7819270186
  },
  {
    "name": "Shama Cinema",
    "category": "amenity",
    "subcategory": "cinema",
    "latitude": 34.0186037,
    "longitude": 71.5702136,
    "id": 7821509390
  },
  {
    "name": "رشیدیہ",
    "category": "amenity",
    "subcategory": "place_of_worship",
    "latitude": 34.0241824,
    "longitude": 71.5797903,
    "id": 7821509392
  },
  {
    "name": "Tableeghi Markaz",
    "category": "amenity",
    "subcategory": "place_of_worship",
    "latitude": 34.023036,
    "longitude": 71.5616021,
    "id": 7825179038
  },
  {
    "name": "Mir Ahmad Shah",
    "category": "amenity",
    "subcategory": "place_of_worship",
    "latitude": 33.9992992,
    "longitude": 71.5610547,
    "id": 7848603205
  },
  {
    "name": "مسجد بلال",
    "category": "amenity",
    "subcategory": "place_of_worship",
    "latitude": 33.9998013,
    "longitude": 71.5600769,
    "id": 7848603210
  },
  {
    "name": "Talaab Wali",
    "category": "amenity",
    "subcategory": "place_of_worship",
    "latitude": 34.0030908,
    "longitude": 71.5613741,
    "id": 7848603298
  },
  {
    "name": "Shrine of Shah Mardan",
    "category": "amenity",
    "subcategory": "place_of_worship",
    "latitude": 34.0009744,
    "longitude": 71.5631483,
    "id": 7848603487
  },
  {
    "name": "Shrine of Pir Iman Shah",
    "category": "amenity",
    "subcategory": "place_of_worship",
    "latitude": 33.9998075,
    "longitude": 71.5640155,
    "id": 7848623232
  },
  {
    "name": "Khwaja Maruf",
    "category": "amenity",
    "subcategory": "place_of_worship",
    "latitude": 34.0074912,
    "longitude": 71.5812697,
    "id": 7848700175
  },
  {
    "name": "Sethi Mir Ahmad",
    "category": "amenity",
    "subcategory": "place_of_worship",
    "latitude": 34.0047351,
    "longitude": 71.5672635,
    "id": 7848785883
  },
  {
    "name": "Samadani",
    "category": "amenity",
    "subcategory": "place_of_worship",
    "latitude": 34.0130402,
    "longitude": 71.5827644,
    "id": 7849186774
  },
  {
    "name": "Shrine of Shah Rasool Mir",
    "category": "amenity",
    "subcategory": "place_of_worship",
    "latitude": 34.0128996,
    "longitude": 71.5819285,
    "id": 7849191202
  },
  {
    "name": "Shrine of Shah Bilor",
    "category": "amenity",
    "subcategory": "place_of_worship",
    "latitude": 34.0068159,
    "longitude": 71.5694043,
    "id": 7849502610
  },
  {
    "name": "Khizarwali",
    "category": "amenity",
    "subcategory": "place_of_worship",
    "latitude": 34.0058048,
    "longitude": 71.5770866,
    "id": 7852504742
  },
  {
    "name": "PRCS Dabgari Gate Branch",
    "category": "amenity",
    "subcategory": "organization",
    "latitude": 34.0049143,
    "longitude": 71.559557,
    "id": 8005478363
  },
  {
    "name": "Roman Shadi Hall",
    "category": "amenity",
    "subcategory": "events_venue",
    "latitude": 34.0313207,
    "longitude": 71.607374,
    "id": 8098220070
  },
  {
    "name": "Khwaja Town",
    "category": "tourism",
    "subcategory": "viewpoint",
    "latitude": 34.0312847,
    "longitude": 71.5600502,
    "id": 8280575320
  },
  {
    "name": "Bacha Khan Markaz",
    "category": "amenity",
    "subcategory": "community_centre",
    "latitude": 34.0317194,
    "longitude": 71.5575034,
    "id": 8280575321
  },
  {
    "name": "Peshawar Ring Road پشاور رنگ روڈ",
    "category": "shop",
    "subcategory": "car_parts",
    "latitude": 33.9905685,
    "longitude": 71.5952872,
    "id": 8395083217
  },
  {
    "name": "Sinopec grease and lubricants co",
    "category": "shop",
    "subcategory": "car_parts",
    "latitude": 33.9908256,
    "longitude": 71.5955106,
    "id": 8395083317
  },
  {
    "name": "Peshawar Ring Road پشاور رنگ روڈ",
    "category": "shop",
    "subcategory": "car_repair",
    "latitude": 33.9903576,
    "longitude": 71.5954628,
    "id": 8395083417
  },
  {
    "name": "Book Shop Chaka Gali",
    "category": "shop",
    "subcategory": "books",
    "latitude": 34.0122256,
    "longitude": 71.5787092,
    "id": 8414245004
  },
  {
    "name": "Gemstone Market",
    "category": "amenity",
    "subcategory": "marketplace",
    "latitude": 34.0046514,
    "longitude": 71.5650549,
    "id": 8414257577
  },
  {
    "name": "Kashmiri",
    "category": "amenity",
    "subcategory": "place_of_worship",
    "latitude": 34.0038063,
    "longitude": 71.56663,
    "id": 8414257578
  },
  {
    "name": "Muhammadi",
    "category": "amenity",
    "subcategory": "place_of_worship",
    "latitude": 34.0012992,
    "longitude": 71.5648076,
    "id": 8414360057
  },
  {
    "name": "Sethi",
    "category": "amenity",
    "subcategory": "place_of_worship",
    "latitude": 34.0088111,
    "longitude": 71.5781258,
    "id": 8414377646
  },
  {
    "name": "Sethi Havelis",
    "category": "tourism",
    "subcategory": "museum",
    "latitude": 34.0089494,
    "longitude": 71.578363,
    "id": 8414377656
  },
  {
    "name": "Waliabad Imambargah",
    "category": "amenity",
    "subcategory": "place_of_worship",
    "latitude": 34.0041107,
    "longitude": 71.5742994,
    "id": 8416757937
  },
  {
    "name": "Shah Qabool Police",
    "category": "amenity",
    "subcategory": "police",
    "latitude": 34.0033916,
    "longitude": 71.5605747,
    "id": 8424760923
  },
  {
    "name": "شفا میڈیکل مركز",
    "category": "amenity",
    "subcategory": "clinic",
    "latitude": 34.0033461,
    "longitude": 71.5608233,
    "id": 8424760924
  },
  {
    "name": "Dar Qurra",
    "category": "amenity",
    "subcategory": "place_of_worship",
    "latitude": 34.0050431,
    "longitude": 71.5626221,
    "id": 8424760929
  },
  {
    "name": "Imambargah Adil Baig",
    "category": "amenity",
    "subcategory": "place_of_worship",
    "latitude": 34.0059905,
    "longitude": 71.5702492,
    "id": 8424760931
  },
  {
    "name": "Abu Balr",
    "category": "amenity",
    "subcategory": "place_of_worship",
    "latitude": 34.0045633,
    "longitude": 71.5702208,
    "id": 8424760932
  },
  {
    "name": "Imambargah",
    "category": "amenity",
    "subcategory": "place_of_worship",
    "latitude": 34.0069331,
    "longitude": 71.5717159,
    "id": 8424760938
  },
  {
    "name": "Dilawar Khan",
    "category": "amenity",
    "subcategory": "place_of_worship",
    "latitude": 34.0080301,
    "longitude": 71.577344,
    "id": 8424760948
  },
  {
    "name": "Quba",
    "category": "amenity",
    "subcategory": "place_of_worship",
    "latitude": 33.9944065,
    "longitude": 71.540862,
    "id": 8428082065
  },
  {
    "name": "Chambelo Jumaat",
    "category": "amenity",
    "subcategory": "place_of_worship",
    "latitude": 33.9801976,
    "longitude": 71.5443193,
    "id": 8428082072
  },
  {
    "name": "Ghaz",
    "category": "amenity",
    "subcategory": "place_of_worship",
    "latitude": 33.9810047,
    "longitude": 71.5456189,
    "id": 8428082073
  },
  {
    "name": "Arbaban",
    "category": "amenity",
    "subcategory": "place_of_worship",
    "latitude": 33.9800949,
    "longitude": 71.5467127,
    "id": 8428082074
  },
  {
    "name": "Manz Jumaat",
    "category": "amenity",
    "subcategory": "place_of_worship",
    "latitude": 33.9809365,
    "longitude": 71.5480099,
    "id": 8428082078
  },
  {
    "name": "مسجد بلال",
    "category": "amenity",
    "subcategory": "place_of_worship",
    "latitude": 33.9811657,
    "longitude": 71.5497302,
    "id": 8428082079
  },
  {
    "name": "Gul Zaman",
    "category": "amenity",
    "subcategory": "place_of_worship",
    "latitude": 33.9824133,
    "longitude": 71.5521104,
    "id": 8428082080
  },
  {
    "name": "نواب رشید",
    "category": "amenity",
    "subcategory": "place_of_worship",
    "latitude": 33.9874866,
    "longitude": 71.5617823,
    "id": 8428082093
  },
  {
    "name": "Ziarat Akhund Darwaza",
    "category": "amenity",
    "subcategory": "place_of_worship",
    "latitude": 33.9994365,
    "longitude": 71.5914272,
    "id": 8436248356
  },
  {
    "name": "دتقوى",
    "category": "amenity",
    "subcategory": "place_of_worship",
    "latitude": 33.9987369,
    "longitude": 71.574629,
    "id": 8940539206
  },
  {
    "name": "Sabzi Mandi",
    "category": "amenity",
    "subcategory": "marketplace",
    "latitude": 34.0091491,
    "longitude": 71.5744629,
    "id": 8941247560
  },
  {
    "name": "Sabzi Mandi",
    "category": "amenity",
    "subcategory": "marketplace",
    "latitude": 34.017037,
    "longitude": 71.5747785,
    "id": 8941278047
  },
  {
    "name": "New Grain Market Gur Mandi",
    "category": "amenity",
    "subcategory": "marketplace",
    "latitude": 34.0099086,
    "longitude": 71.588299,
    "id": 8947002248
  },
  {
    "name": "Fazal Raheem Kabab House",
    "category": "amenity",
    "subcategory": "restaurant",
    "latitude": 34.0050181,
    "longitude": 71.569497,
    "id": 9195994217
  },
  {
    "name": "Daewoo adda",
    "category": "amenity",
    "subcategory": "bus_station",
    "latitude": 34.0151294,
    "longitude": 71.5995556,
    "id": 9491608092
  },
  {
    "name": "Peshawar car stand Sadr bazar",
    "category": "amenity",
    "subcategory": "car_rental",
    "latitude": 34.0008486,
    "longitude": 71.5425346,
    "id": 9491614446
  },
  {
    "name": "Haji adda",
    "category": "amenity",
    "subcategory": "bus_station",
    "latitude": 34.0173134,
    "longitude": 71.6004999,
    "id": 9491622259
  },
  {
    "name": "Peshawar car stand",
    "category": "amenity",
    "subcategory": "car_rental",
    "latitude": 34.0161237,
    "longitude": 71.5966764,
    "id": 9491622260
  },
  {
    "name": "Charsadda adda",
    "category": "amenity",
    "subcategory": "bus_station",
    "latitude": 34.029835,
    "longitude": 71.5775955,
    "id": 9491625911
  },
  {
    "name": "Dilawar khan adda",
    "category": "amenity",
    "subcategory": "bus_station",
    "latitude": 34.0150358,
    "longitude": 71.5954091,
    "id": 9491666501
  },
  {
    "name": "Lahore adda",
    "category": "amenity",
    "subcategory": "bus_station",
    "latitude": 34.015029,
    "longitude": 71.5959084,
    "id": 9491670705
  },
  {
    "name": "Dilawar khan travels",
    "category": "amenity",
    "subcategory": "bus_station",
    "latitude": 34.016002,
    "longitude": 71.5946867,
    "id": 9491673027
  },
  {
    "name": "Peshawar car stand",
    "category": "amenity",
    "subcategory": "taxi",
    "latitude": 34.0161222,
    "longitude": 71.5966759,
    "id": 9491674409
  },
  {
    "name": "Zaman Travels",
    "category": "amenity",
    "subcategory": "bus_station",
    "latitude": 34.0161768,
    "longitude": 71.5977408,
    "id": 9491676207
  },
  {
    "name": "Peshawar car stand - Sadar",
    "category": "amenity",
    "subcategory": "taxi",
    "latitude": 34.0008216,
    "longitude": 71.5425502,
    "id": 9491679409
  },
  {
    "name": "Haji Camp adda",
    "category": "amenity",
    "subcategory": "bus_station",
    "latitude": 34.0173101,
    "longitude": 71.6005029,
    "id": 9491687158
  },
  {
    "name": "Niazi express",
    "category": "amenity",
    "subcategory": "bus_station",
    "latitude": 34.0168002,
    "longitude": 71.6113411,
    "id": 9494397052
  },
  {
    "name": "Umer Car rent",
    "category": "amenity",
    "subcategory": "taxi",
    "latitude": 34.0157009,
    "longitude": 71.6016645,
    "id": 9494405130
  },
  {
    "name": "Peshawar car stand",
    "category": "amenity",
    "subcategory": "taxi",
    "latitude": 34.0162846,
    "longitude": 71.5982893,
    "id": 9494408048
  },
  {
    "name": "Bilal Coach",
    "category": "amenity",
    "subcategory": "bus_station",
    "latitude": 34.0163431,
    "longitude": 71.6139572,
    "id": 9494414778
  },
  {
    "name": "Maqsood afridi car stand",
    "category": "amenity",
    "subcategory": "taxi",
    "latitude": 34.0154296,
    "longitude": 71.6033231,
    "id": 9494414828
  },
  {
    "name": "Faisal movers",
    "category": "amenity",
    "subcategory": "bus_station",
    "latitude": 34.01622,
    "longitude": 71.6136055,
    "id": 9494432201
  },
  {
    "name": "Skyways travel",
    "category": "amenity",
    "subcategory": "bus_station",
    "latitude": 34.0172869,
    "longitude": 71.6150952,
    "id": 9495826207
  },
  {
    "name": "Sania express",
    "category": "amenity",
    "subcategory": "bus_station",
    "latitude": 34.0172481,
    "longitude": 71.6139491,
    "id": 9495826208
  },
  {
    "name": "haji camp adda bus terminal",
    "category": "amenity",
    "subcategory": "bus_station",
    "latitude": 34.0169622,
    "longitude": 71.6003599,
    "id": 9559946912
  },
  {
    "name": "Graveyard Aal e Abdul Rehman",
    "category": "amenity",
    "subcategory": "place_of_worship",
    "latitude": 33.9972827,
    "longitude": 71.5931097,
    "id": 9589876117
  },
  {
    "name": "Park View Mall and Apartments Peshawar",
    "category": "shop",
    "subcategory": "mall",
    "latitude": 34.0223083,
    "longitude": 71.5398178,
    "id": 9703607612
  },
  {
    "name": "Sarhad Masala Jat",
    "category": "shop",
    "subcategory": "spices",
    "latitude": 34.0074386,
    "longitude": 71.5760121,
    "id": 10261065769
  },
  {
    "name": "Abasyn University Main Campus",
    "category": "amenity",
    "subcategory": "college",
    "latitude": 34.0316239,
    "longitude": 71.5880804,
    "id": 10695828007
  },
  {
    "name": "Shaji-ki-Dheri Remains (Kaniska Stupa)",
    "category": "tourism",
    "subcategory": "attraction",
    "latitude": 33.9994148,
    "longitude": 71.5915476,
    "id": 11168885137
  },
  {
    "name": "Haji Camp Adda",
    "category": "amenity",
    "subcategory": "bus_station",
    "latitude": 34.0171001,
    "longitude": 71.6112524,
    "id": 11241983683
  },
  {
    "name": "Chitral today",
    "category": "tourism",
    "subcategory": "hotel",
    "latitude": 33.9969832,
    "longitude": 71.5409195,
    "id": 11361634991
  },
  {
    "name": "Leopard Courier",
    "category": "amenity",
    "subcategory": "post_office",
    "latitude": 34.0140794,
    "longitude": 71.5917979,
    "id": 11430510517
  },
  {
    "name": "Al Maroof Tours & Travels",
    "category": "shop",
    "subcategory": "travel_agency",
    "latitude": 34.0148319,
    "longitude": 71.5878473,
    "id": 11445710039
  },
  {
    "name": "Shahi Dera Fast Food",
    "category": "amenity",
    "subcategory": "fast_food",
    "latitude": 34.0144742,
    "longitude": 71.5868497,
    "id": 11445728926
  },
  {
    "name": "Royal Express Booking",
    "category": "amenity",
    "subcategory": "bus_station",
    "latitude": 34.0160327,
    "longitude": 71.5933485,
    "id": 11445751337
  },
  {
    "name": "s",
    "category": "leisure",
    "subcategory": "park",
    "latitude": 34.0047811,
    "longitude": 71.5787316,
    "id": 11466025754
  },
  {
    "name": "Haji Saad Ullah Sami Ullah Jewellers",
    "category": "shop",
    "subcategory": "jewelry",
    "latitude": 34.0103242,
    "longitude": 71.5734604,
    "id": 11728846353
  },
  {
    "name": "Liaqat Super Store",
    "category": "shop",
    "subcategory": "general",
    "latitude": 34.0130882,
    "longitude": 71.5990219,
    "id": 12154120953
  },
  {
    "name": "St Mary's High School",
    "category": "amenity",
    "subcategory": "school",
    "latitude": 34.0143585,
    "longitude": 71.5434341,
    "id": 12255770833
  },
  {
    "name": "Marbella Cave Wedding Hall",
    "category": "amenity",
    "subcategory": "events_venue",
    "latitude": 34.0234871,
    "longitude": 71.5414047,
    "id": 12257179195
  },
  {
    "name": "Hair Focus Salon",
    "category": "shop",
    "subcategory": "hairdresser",
    "latitude": 34.0110245,
    "longitude": 71.5949707,
    "id": 12353228135
  },
  {
    "name": "Scissors & Razors Hair Salon",
    "category": "shop",
    "subcategory": "hairdresser",
    "latitude": 34.0110512,
    "longitude": 71.5945206,
    "id": 12353242283
  },
  {
    "name": "Shafi Mart",
    "category": "shop",
    "subcategory": "supermarket",
    "latitude": 34.0110474,
    "longitude": 71.5947418,
    "id": 12353243014
  },
  {
    "name": "U R Hair Saloon",
    "category": "shop",
    "subcategory": "hairdresser",
    "latitude": 34.0110435,
    "longitude": 71.5951385,
    "id": 12353315065
  },
  {
    "name": "Salman Bakers, Gulbahar Branch",
    "category": "shop",
    "subcategory": "bakery",
    "latitude": 34.0120544,
    "longitude": 71.5920868,
    "id": 12353319797
  },
  {
    "name": "Dita Sweet House",
    "category": "shop",
    "subcategory": "bakery",
    "latitude": 34.0042267,
    "longitude": 71.5667648,
    "id": 12357225709
  },
  {
    "name": "Civil Dispensary Gulbahar",
    "category": "amenity",
    "subcategory": "clinic",
    "latitude": 34.0108886,
    "longitude": 71.5969117,
    "id": 12357239871
  },
  {
    "name": "Mr Cod, Gulbahar Branch",
    "category": "amenity",
    "subcategory": "restaurant",
    "latitude": 34.0108376,
    "longitude": 71.5974579,
    "id": 12357261009
  },
  {
    "name": "Salman Photostate Shop",
    "category": "shop",
    "subcategory": "stationery",
    "latitude": 34.010849,
    "longitude": 71.5965424,
    "id": 12357269258
  },
  {
    "name": "Civil Dispensary Gulbahar",
    "category": "amenity",
    "subcategory": "clinic",
    "latitude": 34.0108337,
    "longitude": 71.5969315,
    "id": 12357276825
  },
  {
    "name": "Suleman Bakers & Cake Center",
    "category": "shop",
    "subcategory": "bakery",
    "latitude": 34.0042229,
    "longitude": 71.5669174,
    "id": 12357291087
  },
  {
    "name": "Khyber Eye Foundation Hospital, Gulbahar",
    "category": "amenity",
    "subcategory": "hospital",
    "latitude": 34.0099945,
    "longitude": 71.610672,
    "id": 12448048670
  },
  {
    "name": "Crescent Computer Services",
    "category": "shop",
    "subcategory": "printing",
    "latitude": 34.0317258,
    "longitude": 71.5863037,
    "id": 13193092107
  }
]