[
  {
    "name": "فیض پور انٹرچینج",
    "category": "highway",
    "subcategory": "motorway_junction",
    "latitude": 31.6018458,
    "longitude": 74.2159796,
    "id": 60776848
  },
  {
    "name": "motorway_junction",
    "category": "highway",
    "subcategory": "motorway_junction",
    "latitude": 31.595239,
    "longitude": 74.2175962,
    "id": 60776853
  },
  {
    "name": "motorway_junction",
    "category": "highway",
    "subcategory": "motorway_junction",
    "latitude": 31.5865539,
    "longitude": 74.2219316,
    "id": 60776864
  },
  {
    "name": "motorway_junction",
    "category": "highway",
    "subcategory": "motorway_junction",
    "latitude": 31.5842285,
    "longitude": 74.2231625,
    "id": 60789768
  },
  {
    "name": "motorway_junction",
    "category": "highway",
    "subcategory": "motorway_junction",
    "latitude": 31.5945307,
    "longitude": 74.2176216,
    "id": 251314259
  },
  {
    "name": "فیض پور انٹرچینج",
    "category": "highway",
    "subcategory": "motorway_junction",
    "latitude": 31.5877977,
    "longitude": 74.2210086,
    "id": 251314269
  },
  {
    "name": "کوٹ عبد الملک انٹرچینج",
    "category": "highway",
    "subcategory": "motorway_junction",
    "latitude": 31.6289763,
    "longitude": 74.2067461,
    "id": 2093211185
  },
  {
    "name": "کوٹ عبد الملک انٹرچینج",
    "category": "highway",
    "subcategory": "motorway_junction",
    "latitude": 31.6481037,
    "longitude": 74.207348,
    "id": 2093224369
  },
  {
    "name": "motorway_junction",
    "category": "highway",
    "subcategory": "motorway_junction",
    "latitude": 31.6317219,
    "longitude": 74.2068811,
    "id": 2093224375
  },
  {
    "name": "motorway_junction",
    "category": "highway",
    "subcategory": "motorway_junction",
    "latitude": 31.6453597,
    "longitude": 74.2071403,
    "id": 2093224404
  },
  {
    "name": "fuel",
    "category": "amenity",
    "subcategory": "fuel",
    "latitude": 31.6038936,
    "longitude": 74.2405977,
    "id": 2517082369
  },
  {
    "name": "fuel",
    "category": "amenity",
    "subcategory": "fuel",
    "latitude": 31.6044603,
    "longitude": 74.2412773,
    "id": 2517082371
  },
  {
    "name": "fuel",
    "category": "amenity",
    "subcategory": "fuel",
    "latitude": 31.6026336,
    "longitude": 74.2355367,
    "id": 2517082373
  },
  {
    "name": "فیض پور",
    "category": "place",
    "subcategory": "village",
    "latitude": 31.5943705,
    "longitude": 74.2210086,
    "id": 2517082379
  },
  {
    "name": "Lahore Garden",
    "category": "place",
    "subcategory": "neighbourhood",
    "latitude": 31.5882762,
    "longitude": 74.2079304,
    "id": 2517085465
  },
  {
    "name": "سگیاں",
    "category": "place",
    "subcategory": "village",
    "latitude": 31.5966646,
    "longitude": 74.2375052,
    "id": 2517087112
  },
  {
    "name": "Al Rehman Gardens 2",
    "category": "place",
    "subcategory": "suburb",
    "latitude": 31.5981409,
    "longitude": 74.2303386,
    "id": 2517087113
  },
  {
    "name": "کوٹ عبد المالک",
    "category": "place",
    "subcategory": "town",
    "latitude": 31.6234014,
    "longitude": 74.2339616,
    "id": 2517404561
  },
  {
    "name": "پاکستان اسٹیٹ آئل",
    "category": "amenity",
    "subcategory": "fuel",
    "latitude": 31.5864198,
    "longitude": 74.2583178,
    "id": 3235374185
  },
  {
    "name": "village",
    "category": "place",
    "subcategory": "village",
    "latitude": 31.5865411,
    "longitude": 74.2165558,
    "id": 3808193418
  },
  {
    "name": "CAPITAL TRACTORS",
    "category": "office",
    "subcategory": "company",
    "latitude": 31.614178,
    "longitude": 74.2616405,
    "id": 3810877454
  },
  {
    "name": "motorway_junction",
    "category": "highway",
    "subcategory": "motorway_junction",
    "latitude": 31.5716508,
    "longitude": 74.2248576,
    "id": 4464817717
  },
  {
    "name": "Power Plant",
    "category": "tourism",
    "subcategory": "viewpoint",
    "latitude": 31.595533,
    "longitude": 74.24048,
    "id": 4503795790
  },
  {
    "name": "F-713",
    "category": "tourism",
    "subcategory": "viewpoint",
    "latitude": 31.592661,
    "longitude": 74.226786,
    "id": 4503795889
  },
  {
    "name": "Phool Mandi",
    "category": "tourism",
    "subcategory": "viewpoint",
    "latitude": 31.6083199,
    "longitude": 74.2497387,
    "id": 4503820890
  },
  {
    "name": "Government College For Women Vadala Dyal Shah",
    "category": "amenity",
    "subcategory": "college",
    "latitude": 31.6317651,
    "longitude": 74.2693108,
    "id": 4910585763
  },
  {
    "name": "بلال کیئر ہسپتال",
    "category": "amenity",
    "subcategory": "hospital",
    "latitude": 31.6176665,
    "longitude": 74.2546268,
    "id": 4910585768
  },
  {
    "name": "شیل",
    "category": "amenity",
    "subcategory": "fuel",
    "latitude": 31.6202651,
    "longitude": 74.2468756,
    "id": 4910585769
  },
  {
    "name": "Waleed CNG Station",
    "category": "amenity",
    "subcategory": "fuel",
    "latitude": 31.6194239,
    "longitude": 74.2466622,
    "id": 4910585770
  },
  {
    "name": "Jamia Masjid Madni",
    "category": "amenity",
    "subcategory": "place_of_worship",
    "latitude": 31.6200739,
    "longitude": 74.2472052,
    "id": 4910585777
  },
  {
    "name": "Byco Petrol Pump",
    "category": "amenity",
    "subcategory": "fuel",
    "latitude": 31.6159459,
    "longitude": 74.2581824,
    "id": 4910585778
  },
  {
    "name": "پاکستان اسٹیٹ آئل",
    "category": "amenity",
    "subcategory": "fuel",
    "latitude": 31.6147162,
    "longitude": 74.2635372,
    "id": 4910585779
  },
  {
    "name": "Arabian Shawarma",
    "category": "amenity",
    "subcategory": "fast_food",
    "latitude": 31.6132951,
    "longitude": 74.2648769,
    "id": 4910585780
  },
  {
    "name": "esahulat 63325",
    "category": "amenity",
    "subcategory": "bank",
    "latitude": 31.6133825,
    "longitude": 74.2662536,
    "id": 4910585782
  },
  {
    "name": "Saira Meraj Hospital",
    "category": "amenity",
    "subcategory": "hospital",
    "latitude": 31.612204,
    "longitude": 74.2617907,
    "id": 4910585783
  },
  {
    "name": "The Bank of Punjab",
    "category": "amenity",
    "subcategory": "bank",
    "latitude": 31.6142885,
    "longitude": 74.2687332,
    "id": 4910585784
  },
  {
    "name": "Zauq Tonight Restaurant",
    "category": "amenity",
    "subcategory": "restaurant",
    "latitude": 31.6144672,
    "longitude": 74.2697633,
    "id": 4910585789
  },
  {
    "name": "Krisco Bakers",
    "category": "shop",
    "subcategory": "bakery",
    "latitude": 31.614321,
    "longitude": 74.2688621,
    "id": 4910585790
  },
  {
    "name": "Bait-ur-Raffah Maktab Girls High School",
    "category": "amenity",
    "subcategory": "school",
    "latitude": 31.6134028,
    "longitude": 74.2688567,
    "id": 4910585791
  },
  {
    "name": "Imam Bargah Ali Shah-e-Mardan",
    "category": "amenity",
    "subcategory": "place_of_worship",
    "latitude": 31.6150837,
    "longitude": 74.2701301,
    "id": 4910585792
  },
  {
    "name": "Al Khan Restaurant",
    "category": "amenity",
    "subcategory": "restaurant",
    "latitude": 31.6148633,
    "longitude": 74.271495,
    "id": 4910585793
  },
  {
    "name": "MA International CNG",
    "category": "amenity",
    "subcategory": "fuel",
    "latitude": 31.6157161,
    "longitude": 74.2731064,
    "id": 4910585794
  },
  {
    "name": "Habib Metropolitan Bank",
    "category": "amenity",
    "subcategory": "bank",
    "latitude": 31.6158525,
    "longitude": 74.2739322,
    "id": 4910585796
  },
  {
    "name": "بينک الحبيب",
    "category": "amenity",
    "subcategory": "bank",
    "latitude": 31.6157528,
    "longitude": 74.2733714,
    "id": 4910585797
  },
  {
    "name": "فیض پور انٹرچینج",
    "category": "highway",
    "subcategory": "bus_stop",
    "latitude": 31.5970133,
    "longitude": 74.2209309,
    "id": 5135974221
  },
  {
    "name": "کلسوم سرجیکل ہسپتال",
    "category": "amenity",
    "subcategory": "hospital",
    "latitude": 31.6155923,
    "longitude": 74.2724153,
    "id": 5259837120
  },
  {
    "name": "PrimeCare Medical Complex",
    "category": "amenity",
    "subcategory": "hospital",
    "latitude": 31.614987,
    "longitude": 74.2695614,
    "id": 5259838821
  },
  {
    "name": "atm",
    "category": "amenity",
    "subcategory": "atm",
    "latitude": 31.6000098,
    "longitude": 74.2302227,
    "id": 6422711385
  },
  {
    "name": "mini_roundabout",
    "category": "highway",
    "subcategory": "mini_roundabout",
    "latitude": 31.5935695,
    "longitude": 74.2138318,
    "id": 6525543003
  },
  {
    "name": "ٹوٹل",
    "category": "amenity",
    "subcategory": "fuel",
    "latitude": 31.6105056,
    "longitude": 74.2503064,
    "id": 7663016185
  },
  {
    "name": "ٹوٹل",
    "category": "amenity",
    "subcategory": "fuel",
    "latitude": 31.6101429,
    "longitude": 74.2493658,
    "id": 7663016285
  },
  {
    "name": "کوٹ نور شاہ",
    "category": "place",
    "subcategory": "village",
    "latitude": 31.5903765,
    "longitude": 74.2129197,
    "id": 8851400146
  },
  {
    "name": "جھگیاں سیالاں",
    "category": "place",
    "subcategory": "village",
    "latitude": 31.633733,
    "longitude": 74.218344,
    "id": 8851614786
  },
  {
    "name": "بُھلّےاندرون",
    "category": "place",
    "subcategory": "village",
    "latitude": 31.6057085,
    "longitude": 74.2121441,
    "id": 9393925152
  },
  {
    "name": "Thatha Khudayar",
    "category": "place",
    "subcategory": "village",
    "latitude": 31.6161788,
    "longitude": 74.2115346,
    "id": 9393925153
  },
  {
    "name": "آمنہ عنایت میڈیکل کالج",
    "category": "amenity",
    "subcategory": "college",
    "latitude": 31.6007717,
    "longitude": 74.2144117,
    "id": 9393925154
  },
  {
    "name": "ستار والا",
    "category": "place",
    "subcategory": "village",
    "latitude": 31.5960593,
    "longitude": 74.1994453,
    "id": 9393925155
  },
  {
    "name": "Doctor",
    "category": "amenity",
    "subcategory": "doctors",
    "latitude": 31.6077283,
    "longitude": 74.2509833,
    "id": 10722536105
  },
  {
    "name": "bank",
    "category": "amenity",
    "subcategory": "bank",
    "latitude": 31.6077289,
    "longitude": 74.2509109,
    "id": 10722536305
  },
  {
    "name": "Faizpur NB",
    "category": "amenity",
    "subcategory": "weighbridge",
    "latitude": 31.5916751,
    "longitude": 74.2153996,
    "id": 10768174689
  },
  {
    "name": "Kot Abdul Malik SB",
    "category": "amenity",
    "subcategory": "weighbridge",
    "latitude": 31.6386069,
    "longitude": 74.2079234,
    "id": 10768192028
  },
  {
    "name": "Kot Abdul Malik NB",
    "category": "amenity",
    "subcategory": "weighbridge",
    "latitude": 31.6390346,
    "longitude": 74.2059775,
    "id": 10768192069
  },
  {
    "name": "Risen Cash & Carry",
    "category": "shop",
    "subcategory": "general",
    "latitude": 31.5990809,
    "longitude": 74.2263552,
    "id": 11921970476
  },
  {
    "name": "Nauman & Sardar travel & tours",
    "category": "shop",
    "subcategory": "travel_agency",
    "latitude": 31.6106184,
    "longitude": 74.2527283,
    "id": 12030772559
  },
  {
    "name": "ATM",
    "category": "amenity",
    "subcategory": "atm",
    "latitude": 31.6104787,
    "longitude": 74.2507046,
    "id": 12642934101
  },
  {
    "name": "ATM",
    "category": "amenity",
    "subcategory": "atm",
    "latitude": 31.6103463,
    "longitude": 74.2508286,
    "id": 12642940901
  },
  {
    "name": "Gas Station",
    "category": "amenity",
    "subcategory": "fuel",
    "latitude": 31.6100401,
    "longitude": 74.2574712,
    "id": 12642950001
  },
  {
    "name": "Shehnai Marriage Palace",
    "category": "amenity",
    "subcategory": "community_centre",
    "latitude": 31.6106648,
    "longitude": 74.2542026,
    "id": 12642972501
  },
  {
    "name": "Ahmad Din Pharmacy",
    "category": "amenity",
    "subcategory": "pharmacy",
    "latitude": 31.610638,
    "longitude": 74.2511469,
    "id": 12645820201
  },
  {
    "name": "Ilyas Karyana Store",
    "category": "shop",
    "subcategory": "convenience",
    "latitude": 31.6102803,
    "longitude": 74.2552067,
    "id": 12645820301
  },
  {
    "name": "Mohsin General Store & Bakers",
    "category": "shop",
    "subcategory": "convenience",
    "latitude": 31.6105657,
    "longitude": 74.2552618,
    "id": 12645826101
  },
  {
    "name": "Bilal Sweets & Bakers",
    "category": "shop",
    "subcategory": "confectionery",
    "latitude": 31.6136287,
    "longitude": 74.2654216,
    "id": 12645829301
  },
  {
    "name": "Al Naimat Super Market",
    "category": "shop",
    "subcategory": "convenience",
    "latitude": 31.611272,
    "longitude": 74.2601753,
    "id": 12645829302
  },
  {
    "name": "Sufi Sweets & Bakers",
    "category": "shop",
    "subcategory": "confectionery",
    "latitude": 31.6136826,
    "longitude": 74.265508,
    "id": 12645829501
  },
  {
    "name": "Baba Inayat Sweets & Bakers",
    "category": "shop",
    "subcategory": "confectionery",
    "latitude": 31.6136838,
    "longitude": 74.2655885,
    "id": 12645830901
  },
  {
    "name": "Pak Madina Super Mart",
    "category": "shop",
    "subcategory": "convenience",
    "latitude": 31.6125808,
    "longitude": 74.2630763,
    "id": 12645835901
  },
  {
    "name": "Cakes & Bakes",
    "category": "shop",
    "subcategory": "confectionery",
    "latitude": 31.609477,
    "longitude": 74.2487771,
    "id": 12645840501
  },
  {
    "name": "Millat Tractors Limited",
    "category": "office",
    "subcategory": "company",
    "latitude": 31.6167697,
    "longitude": 74.2607793,
    "id": 12645840502
  },
  {
    "name": "Faizpur NB",
    "category": "amenity",
    "subcategory": "weighbridge",
    "latitude": 31.597186,
    "longitude": 74.2179469,
    "id": 13266931346
  },
  {
    "name": "شرقپور خرچ",
    "category": "place",
    "subcategory": "village",
    "latitude": 31.6262165,
    "longitude": 74.2362605,
    "id": 13931155115
  },
  {
    "name": "بیگم کوٹ",
    "category": "place",
    "subcategory": "suburb",
    "latitude": 31.6157595,
    "longitude": 74.2646905,
    "id": 13931208822
  },
  {
    "name": "motorway_link",
    "category": "highway",
    "subcategory": "motorway_link",
    "latitude": 31.590957988372097,
    "longitude": 74.2182400511628,
    "id": 8110822
  },
  {
    "name": "motorway_link",
    "category": "highway",
    "subcategory": "motorway_link",
    "latitude": 31.600629859999998,
    "longitude": 74.21638494,
    "id": 8110839
  },
  {
    "name": "Jaranwala Road",
    "category": "highway",
    "subcategory": "primary",
    "latitude": 31.59486435,
    "longitude": 74.217599,
    "id": 8110842
  },
  {
    "name": "Jaranwala Road",
    "category": "highway",
    "subcategory": "primary",
    "latitude": 31.597072138461538,
    "longitude": 74.22077224615384,
    "id": 8110843
  },
  {
    "name": "motorway_link",
    "category": "highway",
    "subcategory": "motorway_link",
    "latitude": 31.59695847368421,
    "longitude": 74.2199828368421,
    "id": 8110997
  },
  {
    "name": "Sheikhupura Road",
    "category": "highway",
    "subcategory": "trunk",
    "latitude": 31.61682796666667,
    "longitude": 74.25602760555554,
    "id": 22328954
  },
  {
    "name": "Sagian Wala Bypass Road",
    "category": "highway",
    "subcategory": "primary",
    "latitude": 31.616118372222225,
    "longitude": 74.24842408333333,
    "id": 27640771
  },
  {
    "name": "Pindi Das Road",
    "category": "highway",
    "subcategory": "tertiary",
    "latitude": 31.62273796428571,
    "longitude": 74.271663025,
    "id": 27666766
  },
  {
    "name": "farmland",
    "category": "landuse",
    "subcategory": "farmland",
    "latitude": 31.586217893162395,
    "longitude": 74.27390381196581,
    "id": 51175415
  },
  {
    "name": "Lahore - Sheikhupura Faisalabad Road",
    "category": "highway",
    "subcategory": "trunk",
    "latitude": 31.6321669125,
    "longitude": 74.212151625,
    "id": 177894928
  },
  {
    "name": "Lahore - Sheikhupura Faisal Ahbad Road",
    "category": "highway",
    "subcategory": "trunk",
    "latitude": 31.6335835,
    "longitude": 74.2090483,
    "id": 177894929
  },
  {
    "name": "Lahore - Sheikhupura Faisal Ahbad Road",
    "category": "highway",
    "subcategory": "trunk",
    "latitude": 31.6314914,
    "longitude": 74.2143761,
    "id": 177894930
  },
  {
    "name": "Lahore - Sheikhupura Faisalabad Road",
    "category": "highway",
    "subcategory": "trunk",
    "latitude": 31.633421066666667,
    "longitude": 74.2089991,
    "id": 177894932
  },
  {
    "name": "Lahore - Sheikhupura Faisalabad Road",
    "category": "highway",
    "subcategory": "trunk",
    "latitude": 31.6313096,
    "longitude": 74.2143135,
    "id": 177894933
  },
  {
    "name": "Lahore - Sheikhupura Faisalabad Road",
    "category": "highway",
    "subcategory": "trunk",
    "latitude": 31.632569325,
    "longitude": 74.211617175,
    "id": 177894935
  },
  {
    "name": "Lahore Sheikhupura Road",
    "category": "highway",
    "subcategory": "trunk",
    "latitude": 31.62425483076923,
    "longitude": 74.23452437307692,
    "id": 177894937
  },
  {
    "name": "ایم 2 موٹروے",
    "category": "highway",
    "subcategory": "motorway",
    "latitude": 31.634408899999997,
    "longitude": 74.2068064,
    "id": 177894946
  },
  {
    "name": "ایم 2 موٹروے",
    "category": "highway",
    "subcategory": "motorway",
    "latitude": 31.6344022,
    "longitude": 74.20696095,
    "id": 177894947
  },
  {
    "name": "ایم 2 موٹروے",
    "category": "highway",
    "subcategory": "motorway",
    "latitude": 31.62909837333333,
    "longitude": 74.20696452666667,
    "id": 177894948
  },
  {
    "name": "ایم 2 موٹروے",
    "category": "highway",
    "subcategory": "motorway",
    "latitude": 31.645427414285717,
    "longitude": 74.20704478095237,
    "id": 177894950
  },
  {
    "name": "Sagian Wala Bypass Road",
    "category": "highway",
    "subcategory": "primary",
    "latitude": 31.593117940322582,
    "longitude": 74.25667136935485,
    "id": 177894960
  },
  {
    "name": "Jaranwala Road",
    "category": "highway",
    "subcategory": "primary",
    "latitude": 31.597006614285714,
    "longitude": 74.22086465,
    "id": 177894963
  },
  {
    "name": "trunk_link",
    "category": "highway",
    "subcategory": "trunk_link",
    "latitude": 31.619348366666667,
    "longitude": 74.24714176666667,
    "id": 177894992
  },
  {
    "name": "trunk_link",
    "category": "highway",
    "subcategory": "trunk_link",
    "latitude": 31.618620311111115,
    "longitude": 74.24838315555556,
    "id": 177894999
  },
  {
    "name": "ایم 2 موٹروے",
    "category": "highway",
    "subcategory": "motorway",
    "latitude": 31.624072260000002,
    "longitude": 74.20726493999999,
    "id": 177946591
  },
  {
    "name": "ایم 2 موٹروے",
    "category": "highway",
    "subcategory": "motorway",
    "latitude": 31.599248600000003,
    "longitude": 74.21650919999999,
    "id": 177946593
  },
  {
    "name": "ایم 2 موٹروے",
    "category": "highway",
    "subcategory": "motorway",
    "latitude": 31.62409192,
    "longitude": 74.20741604,
    "id": 177946594
  },
  {
    "name": "ایم 2 موٹروے",
    "category": "highway",
    "subcategory": "motorway",
    "latitude": 31.599275249999998,
    "longitude": 74.2166594,
    "id": 177946595
  },
  {
    "name": "ایم 2 موٹروے",
    "category": "highway",
    "subcategory": "motorway",
    "latitude": 31.6205227375,
    "longitude": 74.20822766250001,
    "id": 177946596
  },
  {
    "name": "ایم 2 موٹروے",
    "category": "highway",
    "subcategory": "motorway",
    "latitude": 31.603754466666665,
    "longitude": 74.21506890666666,
    "id": 177946597
  },
  {
    "name": "ایم 2 موٹروے",
    "category": "highway",
    "subcategory": "motorway",
    "latitude": 31.59036201666667,
    "longitude": 74.22005485833334,
    "id": 177946599
  },
  {
    "name": "ایم 2 موٹروے",
    "category": "highway",
    "subcategory": "motorway",
    "latitude": 31.629178442857146,
    "longitude": 74.20681096428572,
    "id": 177946602
  },
  {
    "name": "motorway_link",
    "category": "highway",
    "subcategory": "motorway_link",
    "latitude": 31.5919239627907,
    "longitude": 74.21775113953488,
    "id": 177946622
  },
  {
    "name": "motorway_link",
    "category": "highway",
    "subcategory": "motorway_link",
    "latitude": 31.597353056410256,
    "longitude": 74.21866238461539,
    "id": 177946623
  },
  {
    "name": "motorway_link",
    "category": "highway",
    "subcategory": "motorway_link",
    "latitude": 31.639757010843375,
    "longitude": 74.20618637831326,
    "id": 199309425
  },
  {
    "name": "motorway_link",
    "category": "highway",
    "subcategory": "motorway_link",
    "latitude": 31.631199771428573,
    "longitude": 74.20668252857142,
    "id": 199309426
  },
  {
    "name": "motorway_link",
    "category": "highway",
    "subcategory": "motorway_link",
    "latitude": 31.639321563636365,
    "longitude": 74.20784964848485,
    "id": 199310413
  },
  {
    "name": "ایم 2 موٹروے",
    "category": "highway",
    "subcategory": "motorway",
    "latitude": 31.663863643750002,
    "longitude": 74.2039173125,
    "id": 233518433
  },
  {
    "name": "unclassified",
    "category": "highway",
    "subcategory": "unclassified",
    "latitude": 31.63663795,
    "longitude": 74.20664525000001,
    "id": 233518438
  },
  {
    "name": "unclassified",
    "category": "highway",
    "subcategory": "unclassified",
    "latitude": 31.636541299999998,
    "longitude": 74.2069347,
    "id": 233518439
  },
  {
    "name": "unclassified",
    "category": "highway",
    "subcategory": "unclassified",
    "latitude": 31.636478599999997,
    "longitude": 74.20742225000001,
    "id": 233518440
  },
  {
    "name": "unclassified",
    "category": "highway",
    "subcategory": "unclassified",
    "latitude": 31.63645565,
    "longitude": 74.20723645000001,
    "id": 233518442
  },
  {
    "name": "unclassified",
    "category": "highway",
    "subcategory": "unclassified",
    "latitude": 31.615142249999998,
    "longitude": 74.20992945,
    "id": 233518443
  },
  {
    "name": "ایم 2 موٹروے",
    "category": "highway",
    "subcategory": "motorway",
    "latitude": 31.61365637,
    "longitude": 74.21059109000001,
    "id": 233518444
  },
  {
    "name": "ایم 2 موٹروے",
    "category": "highway",
    "subcategory": "motorway",
    "latitude": 31.60961885,
    "longitude": 74.21260000000001,
    "id": 233518445
  },
  {
    "name": "ایم 2 موٹروے",
    "category": "highway",
    "subcategory": "motorway",
    "latitude": 31.609671900000002,
    "longitude": 74.21274135,
    "id": 233518446
  },
  {
    "name": "ایم 2 موٹروے",
    "category": "highway",
    "subcategory": "motorway",
    "latitude": 31.603794653333335,
    "longitude": 74.21521367333334,
    "id": 233518447
  },
  {
    "name": "residential",
    "category": "highway",
    "subcategory": "residential",
    "latitude": 31.6065169,
    "longitude": 74.21416975,
    "id": 233518448
  },
  {
    "name": "unclassified",
    "category": "highway",
    "subcategory": "unclassified",
    "latitude": 31.607957391228073,
    "longitude": 74.19584864912281,
    "id": 233518449
  },
  {
    "name": "Jaranwala Road",
    "category": "highway",
    "subcategory": "primary",
    "latitude": 31.5947922,
    "longitude": 74.217667,
    "id": 233525369
  },
  {
    "name": "Jaranwala Road",
    "category": "highway",
    "subcategory": "primary",
    "latitude": 31.53062026255144,
    "longitude": 74.1571559798354,
    "id": 233525370
  },
  {
    "name": "Jaranwala - Lahore Road",
    "category": "highway",
    "subcategory": "primary",
    "latitude": 31.611435932432432,
    "longitude": 74.25868530540541,
    "id": 233525373
  },
  {
    "name": "Jaranwala - Lahore Road",
    "category": "highway",
    "subcategory": "primary",
    "latitude": 31.60268717619048,
    "longitude": 74.23480048571429,
    "id": 233525374
  },
  {
    "name": "primary_link",
    "category": "highway",
    "subcategory": "primary_link",
    "latitude": 31.59795205,
    "longitude": 74.2223212,
    "id": 233525375
  },
  {
    "name": "Jaranwala - Lahore Road",
    "category": "highway",
    "subcategory": "primary",
    "latitude": 31.60313407704918,
    "longitude": 74.23595250327868,
    "id": 233525378
  },
  {
    "name": "unclassified",
    "category": "highway",
    "subcategory": "unclassified",
    "latitude": 31.58891655,
    "longitude": 74.2204118,
    "id": 233527843
  },
  {
    "name": "motorway_link",
    "category": "highway",
    "subcategory": "motorway_link",
    "latitude": 31.59217207916667,
    "longitude": 74.21517991666667,
    "id": 244382938
  },
  {
    "name": "residential",
    "category": "highway",
    "subcategory": "residential",
    "latitude": 31.635062185714286,
    "longitude": 74.20891217142857,
    "id": 277498104
  },
  {
    "name": "residential",
    "category": "highway",
    "subcategory": "residential",
    "latitude": 31.6345728,
    "longitude": 74.21117895714285,
    "id": 277498105
  },
  {
    "name": "residential",
    "category": "highway",
    "subcategory": "residential",
    "latitude": 31.63319315,
    "longitude": 74.2104284,
    "id": 277498106
  },
  {
    "name": "residential",
    "category": "highway",
    "subcategory": "residential",
    "latitude": 31.63346355,
    "longitude": 74.20986115,
    "id": 277498107
  },
  {
    "name": "residential",
    "category": "highway",
    "subcategory": "residential",
    "latitude": 31.63336375,
    "longitude": 74.2100653,
    "id": 277498108
  },
  {
    "name": "Sheikhupura Road",
    "category": "highway",
    "subcategory": "trunk",
    "latitude": 31.616861885294117,
    "longitude": 74.2819153,
    "id": 292005562
  },
  {
    "name": "Sheikhupura Road",
    "category": "highway",
    "subcategory": "trunk",
    "latitude": 31.617033157894735,
    "longitude": 74.28204214210527,
    "id": 292007728
  },
  {
    "name": "لنک روڈ",
    "category": "highway",
    "subcategory": "secondary",
    "latitude": 31.625850884615385,
    "longitude": 74.2636884102564,
    "id": 292090043
  },
  {
    "name": "Sagian Wala Bypass Road",
    "category": "highway",
    "subcategory": "primary",
    "latitude": 31.615680104347827,
    "longitude": 74.24842134782608,
    "id": 292899184
  },
  {
    "name": "tertiary",
    "category": "highway",
    "subcategory": "tertiary",
    "latitude": 31.634760054545453,
    "longitude": 74.27575741818181,
    "id": 294600607
  },
  {
    "name": "Khajoran Wali Road",
    "category": "highway",
    "subcategory": "tertiary",
    "latitude": 31.610160936,
    "longitude": 74.27797426933333,
    "id": 294601692
  },
  {
    "name": "unclassified",
    "category": "highway",
    "subcategory": "unclassified",
    "latitude": 31.585254153333334,
    "longitude": 74.19107994,
    "id": 297640577
  },
  {
    "name": "service",
    "category": "highway",
    "subcategory": "service",
    "latitude": 31.583951875,
    "longitude": 74.2017475,
    "id": 297640587
  },
  {
    "name": "Al Jannat Road",
    "category": "highway",
    "subcategory": "residential",
    "latitude": 31.591934031999998,
    "longitude": 74.25157519999999,
    "id": 314655759
  },
  {
    "name": "residential",
    "category": "highway",
    "subcategory": "residential",
    "latitude": 31.58915047142857,
    "longitude": 74.25017449999999,
    "id": 314655878
  },
  {
    "name": "residential",
    "category": "highway",
    "subcategory": "residential",
    "latitude": 31.5895277,
    "longitude": 74.2546181,
    "id": 314655879
  },
  {
    "name": "residential",
    "category": "highway",
    "subcategory": "residential",
    "latitude": 31.590609399999998,
    "longitude": 74.25406004999999,
    "id": 314655880
  },
  {
    "name": "residential",
    "category": "highway",
    "subcategory": "residential",
    "latitude": 31.593321033333336,
    "longitude": 74.25271213333333,
    "id": 314655881
  },
  {
    "name": "residential",
    "category": "highway",
    "subcategory": "residential",
    "latitude": 31.59854815555555,
    "longitude": 74.25072357777778,
    "id": 314655882
  },
  {
    "name": "trunk_link",
    "category": "highway",
    "subcategory": "trunk_link",
    "latitude": 31.61372608,
    "longitude": 74.26501336,
    "id": 314794446
  },
  {
    "name": "Al Jannat Road",
    "category": "highway",
    "subcategory": "unclassified",
    "latitude": 31.58436403,
    "longitude": 74.2559229,
    "id": 316728639
  },
  {
    "name": "tertiary",
    "category": "highway",
    "subcategory": "tertiary",
    "latitude": 31.656113938888886,
    "longitude": 74.26378535833334,
    "id": 319503667
  },
  {
    "name": "unclassified",
    "category": "highway",
    "subcategory": "unclassified",
    "latitude": 31.656357850000003,
    "longitude": 74.25324766666667,
    "id": 319503668
  },
  {
    "name": "Jaranwala Road",
    "category": "highway",
    "subcategory": "primary",
    "latitude": 31.542292545303866,
    "longitude": 74.16755203425414,
    "id": 320125905
  },
  {
    "name": "unclassified",
    "category": "highway",
    "subcategory": "unclassified",
    "latitude": 31.63330597142857,
    "longitude": 74.21247352857142,
    "id": 321965489
  },
  {
    "name": "trunk_link",
    "category": "highway",
    "subcategory": "trunk_link",
    "latitude": 31.622590154545456,
    "longitude": 74.23883871818181,
    "id": 321965633
  },
  {
    "name": "پاکستان اسٹیٹ آئل",
    "category": "amenity",
    "subcategory": "fuel",
    "latitude": 31.63600065714286,
    "longitude": 74.20412840000002,
    "id": 333764756
  },
  {
    "name": "service",
    "category": "highway",
    "subcategory": "service",
    "latitude": 31.635849940000003,
    "longitude": 74.20376691999999,
    "id": 333768214
  },
  {
    "name": "service",
    "category": "highway",
    "subcategory": "service",
    "latitude": 31.63565165,
    "longitude": 74.204265925,
    "id": 333768215
  },
  {
    "name": "unclassified",
    "category": "highway",
    "subcategory": "unclassified",
    "latitude": 31.6339301625,
    "longitude": 74.208395225,
    "id": 333950292
  },
  {
    "name": "residential",
    "category": "landuse",
    "subcategory": "residential",
    "latitude": 31.607010411111112,
    "longitude": 74.26729457008547,
    "id": 377454183
  },
  {
    "name": "unclassified",
    "category": "highway",
    "subcategory": "unclassified",
    "latitude": 31.603682233333334,
    "longitude": 74.2172999,
    "id": 407733680
  },
  {
    "name": "tertiary",
    "category": "highway",
    "subcategory": "tertiary",
    "latitude": 31.602799273333336,
    "longitude": 74.22102681999999,
    "id": 407733682
  },
  {
    "name": "tertiary",
    "category": "highway",
    "subcategory": "tertiary",
    "latitude": 31.6006572,
    "longitude": 74.2215897,
    "id": 407733684
  },
  {
    "name": "unclassified",
    "category": "highway",
    "subcategory": "unclassified",
    "latitude": 31.603748799999998,
    "longitude": 74.21527334999999,
    "id": 407733685
  },
  {
    "name": "tertiary",
    "category": "highway",
    "subcategory": "tertiary",
    "latitude": 31.598970677777782,
    "longitude": 74.22161816666667,
    "id": 407733687
  },
  {
    "name": "residential",
    "category": "highway",
    "subcategory": "residential",
    "latitude": 31.606576,
    "longitude": 74.21444513333334,
    "id": 408643393
  },
  {
    "name": "residential",
    "category": "highway",
    "subcategory": "residential",
    "latitude": 31.60641958571429,
    "longitude": 74.21322494285714,
    "id": 408643394
  },
  {
    "name": "tertiary",
    "category": "highway",
    "subcategory": "tertiary",
    "latitude": 31.629028775000002,
    "longitude": 74.208527625,
    "id": 408643395
  },
  {
    "name": "residential",
    "category": "highway",
    "subcategory": "residential",
    "latitude": 31.61163985625,
    "longitude": 74.26868125625,
    "id": 417955933
  },
  {
    "name": "residential",
    "category": "highway",
    "subcategory": "residential",
    "latitude": 31.612487633333334,
    "longitude": 74.26068376666667,
    "id": 417955939
  },
  {
    "name": "residential",
    "category": "highway",
    "subcategory": "residential",
    "latitude": 31.612479375,
    "longitude": 74.2648615,
    "id": 417955942
  },
  {
    "name": "residential",
    "category": "highway",
    "subcategory": "residential",
    "latitude": 31.62930976,
    "longitude": 74.26841548,
    "id": 417955944
  },
  {
    "name": "residential",
    "category": "highway",
    "subcategory": "residential",
    "latitude": 31.612622533333333,
    "longitude": 74.26120193333333,
    "id": 417955948
  },
  {
    "name": "residential",
    "category": "highway",
    "subcategory": "residential",
    "latitude": 31.612277425000002,
    "longitude": 74.267026475,
    "id": 417955949
  },
  {
    "name": "residential",
    "category": "highway",
    "subcategory": "residential",
    "latitude": 31.61055484,
    "longitude": 74.26123368,
    "id": 417955950
  },
  {
    "name": "residential",
    "category": "highway",
    "subcategory": "residential",
    "latitude": 31.6105299,
    "longitude": 74.2604487,
    "id": 417955956
  },
  {
    "name": "residential",
    "category": "highway",
    "subcategory": "residential",
    "latitude": 31.61063043333333,
    "longitude": 74.26079233333333,
    "id": 417955958
  },
  {
    "name": "residential",
    "category": "highway",
    "subcategory": "residential",
    "latitude": 31.61042046,
    "longitude": 74.26011922,
    "id": 417955960
  },
  {
    "name": "residential",
    "category": "highway",
    "subcategory": "residential",
    "latitude": 31.62763082,
    "longitude": 74.27145478,
    "id": 417955961
  },
  {
    "name": "residential",
    "category": "highway",
    "subcategory": "residential",
    "latitude": 31.62860796,
    "longitude": 74.2730397,
    "id": 417955963
  },
  {
    "name": "residential",
    "category": "highway",
    "subcategory": "residential",
    "latitude": 31.627035066666668,
    "longitude": 74.27005616666666,
    "id": 417955968
  },
  {
    "name": "residential",
    "category": "highway",
    "subcategory": "residential",
    "latitude": 31.62740073181818,
    "longitude": 74.26812092727272,
    "id": 417955969
  },
  {
    "name": "residential",
    "category": "highway",
    "subcategory": "residential",
    "latitude": 31.626085191666665,
    "longitude": 74.27007469166666,
    "id": 417955971
  },
  {
    "name": "residential",
    "category": "highway",
    "subcategory": "residential",
    "latitude": 31.633415442857142,
    "longitude": 74.27467955714285,
    "id": 417955972
  },
  {
    "name": "tertiary",
    "category": "highway",
    "subcategory": "tertiary",
    "latitude": 31.610779400000002,
    "longitude": 74.26280768571428,
    "id": 417955973
  },
  {
    "name": "residential",
    "category": "highway",
    "subcategory": "residential",
    "latitude": 31.625725385714283,
    "longitude": 74.26953065714285,
    "id": 417955976
  },
  {
    "name": "tertiary",
    "category": "highway",
    "subcategory": "tertiary",
    "latitude": 31.610536222222223,
    "longitude": 74.27011068888889,
    "id": 417955978
  },
  {
    "name": "tertiary",
    "category": "highway",
    "subcategory": "tertiary",
    "latitude": 31.611738625,
    "longitude": 74.2659967125,
    "id": 417955979
  },
  {
    "name": "residential",
    "category": "highway",
    "subcategory": "residential",
    "latitude": 31.628631699999996,
    "longitude": 74.26913752307692,
    "id": 417955982
  },
  {
    "name": "residential",
    "category": "highway",
    "subcategory": "residential",
    "latitude": 31.610497000000002,
    "longitude": 74.26052872857143,
    "id": 417955983
  },
  {
    "name": "tertiary",
    "category": "highway",
    "subcategory": "tertiary",
    "latitude": 31.6111675,
    "longitude": 74.26370776666666,
    "id": 417955984
  },
  {
    "name": "residential",
    "category": "highway",
    "subcategory": "residential",
    "latitude": 31.625613655555558,
    "longitude": 74.26994934444446,
    "id": 417955986
  },
  {
    "name": "tertiary",
    "category": "highway",
    "subcategory": "tertiary",
    "latitude": 31.609263499999997,
    "longitude": 74.2652796,
    "id": 417955987
  },
  {
    "name": "tertiary",
    "category": "highway",
    "subcategory": "tertiary",
    "latitude": 31.60697090138889,
    "longitude": 74.27331460694444,
    "id": 417955989
  },
  {
    "name": "residential",
    "category": "highway",
    "subcategory": "residential",
    "latitude": 31.63064404,
    "longitude": 74.27357070666667,
    "id": 417955991
  },
  {
    "name": "residential",
    "category": "highway",
    "subcategory": "residential",
    "latitude": 31.651920949999997,
    "longitude": 74.278478345,
    "id": 417957048
  },
  {
    "name": "tertiary",
    "category": "highway",
    "subcategory": "tertiary",
    "latitude": 31.648565210526314,
    "longitude": 74.27397160526316,
    "id": 417957049
  },
  {
    "name": "residential",
    "category": "highway",
    "subcategory": "residential",
    "latitude": 31.6512512,
    "longitude": 74.27375500000001,
    "id": 417957055
  },
  {
    "name": "residential",
    "category": "highway",
    "subcategory": "residential",
    "latitude": 31.64950605,
    "longitude": 74.2733359,
    "id": 417957057
  },
  {
    "name": "tertiary",
    "category": "highway",
    "subcategory": "tertiary",
    "latitude": 31.650781042857144,
    "longitude": 74.27084194285715,
    "id": 417957059
  },
  {
    "name": "residential",
    "category": "highway",
    "subcategory": "residential",
    "latitude": 31.649940330188677,
    "longitude": 74.27912839622641,
    "id": 417957060
  },
  {
    "name": "residential",
    "category": "highway",
    "subcategory": "residential",
    "latitude": 31.650965014285713,
    "longitude": 74.26285899642858,
    "id": 417958603
  },
  {
    "name": "tertiary",
    "category": "highway",
    "subcategory": "tertiary",
    "latitude": 31.65295678235294,
    "longitude": 74.26288521960785,
    "id": 417958605
  },
  {
    "name": "residential",
    "category": "highway",
    "subcategory": "residential",
    "latitude": 31.648216629411763,
    "longitude": 74.26953121764706,
    "id": 417958613
  },
  {
    "name": "tertiary",
    "category": "highway",
    "subcategory": "tertiary",
    "latitude": 31.651998780952383,
    "longitude": 74.27082434761904,
    "id": 417958615
  },
  {
    "name": "residential",
    "category": "highway",
    "subcategory": "residential",
    "latitude": 31.650020216666665,
    "longitude": 74.26953734166666,
    "id": 417958632
  },
  {
    "name": "tertiary",
    "category": "highway",
    "subcategory": "tertiary",
    "latitude": 31.651066229411768,
    "longitude": 74.27417291764705,
    "id": 417958644
  },
  {
    "name": "residential",
    "category": "highway",
    "subcategory": "residential",
    "latitude": 31.65266545,
    "longitude": 74.2708557,
    "id": 417961898
  },
  {
    "name": "residential",
    "category": "highway",
    "subcategory": "residential",
    "latitude": 31.65269305,
    "longitude": 74.2705275,
    "id": 417961910
  },
  {
    "name": "residential",
    "category": "highway",
    "subcategory": "residential",
    "latitude": 31.652000366666666,
    "longitude": 74.2716288,
    "id": 417961911
  },
  {
    "name": "residential",
    "category": "highway",
    "subcategory": "residential",
    "latitude": 31.6523331,
    "longitude": 74.27242857142858,
    "id": 417961915
  },
  {
    "name": "residential",
    "category": "highway",
    "subcategory": "residential",
    "latitude": 31.651556799999998,
    "longitude": 74.27288886666666,
    "id": 417961922
  },
  {
    "name": "residential",
    "category": "highway",
    "subcategory": "residential",
    "latitude": 31.651402466666667,
    "longitude": 74.2733028,
    "id": 417961923
  },
  {
    "name": "residential",
    "category": "highway",
    "subcategory": "residential",
    "latitude": 31.651708966666664,
    "longitude": 74.27246033333334,
    "id": 417961925
  },
  {
    "name": "residential",
    "category": "highway",
    "subcategory": "residential",
    "latitude": 31.635747175000002,
    "longitude": 74.26492931428572,
    "id": 417977961
  },
  {
    "name": "residential",
    "category": "highway",
    "subcategory": "residential",
    "latitude": 31.63356185,
    "longitude": 74.27258415,
    "id": 417977963
  },
  {
    "name": "residential",
    "category": "highway",
    "subcategory": "residential",
    "latitude": 31.6335334,
    "longitude": 74.27359135,
    "id": 417977965
  },
  {
    "name": "residential",
    "category": "highway",
    "subcategory": "residential",
    "latitude": 31.633489766666667,
    "longitude": 74.2645542,
    "id": 417977967
  },
  {
    "name": "residential",
    "category": "highway",
    "subcategory": "residential",
    "latitude": 31.63399055,
    "longitude": 74.2652871,
    "id": 417977969
  },
  {
    "name": "residential",
    "category": "highway",
    "subcategory": "residential",
    "latitude": 31.6363478,
    "longitude": 74.265786225,
    "id": 417977974
  },
  {
    "name": "residential",
    "category": "highway",
    "subcategory": "residential",
    "latitude": 31.634001474999998,
    "longitude": 74.2647962,
    "id": 417977978
  },
  {
    "name": "residential",
    "category": "highway",
    "subcategory": "residential",
    "latitude": 31.6343298,
    "longitude": 74.265769225,
    "id": 417977983
  },
  {
    "name": "residential",
    "category": "highway",
    "subcategory": "residential",
    "latitude": 31.63534228888889,
    "longitude": 74.26110275555556,
    "id": 417977984
  },
  {
    "name": "residential",
    "category": "highway",
    "subcategory": "residential",
    "latitude": 31.63191926,
    "longitude": 74.27463046,
    "id": 417977993
  },
  {
    "name": "residential",
    "category": "highway",
    "subcategory": "residential",
    "latitude": 31.634250228571428,
    "longitude": 74.26508587142857,
    "id": 417977994
  },
  {
    "name": "residential",
    "category": "highway",
    "subcategory": "residential",
    "latitude": 31.619953025,
    "longitude": 74.27079144999999,
    "id": 417982298
  },
  {
    "name": "residential",
    "category": "highway",
    "subcategory": "residential",
    "latitude": 31.618458275,
    "longitude": 74.272060675,
    "id": 417982303
  },
  {
    "name": "residential",
    "category": "highway",
    "subcategory": "residential",
    "latitude": 31.617954791666666,
    "longitude": 74.26842694166668,
    "id": 417982311
  },
  {
    "name": "Mehmood Road",
    "category": "highway",
    "subcategory": "residential",
    "latitude": 31.61859442631579,
    "longitude": 74.27207341578948,
    "id": 417982316
  },
  {
    "name": "residential",
    "category": "highway",
    "subcategory": "residential",
    "latitude": 31.6160636,
    "longitude": 74.27534294347825,
    "id": 417982317
  },
  {
    "name": "residential",
    "category": "highway",
    "subcategory": "residential",
    "latitude": 31.617145700000002,
    "longitude": 74.27056075,
    "id": 417982496
  },
  {
    "name": "residential",
    "category": "highway",
    "subcategory": "residential",
    "latitude": 31.61711545,
    "longitude": 74.26746785,
    "id": 417982497
  },
  {
    "name": "residential",
    "category": "highway",
    "subcategory": "residential",
    "latitude": 31.6165516,
    "longitude": 74.26974295,
    "id": 417982498
  },
  {
    "name": "residential",
    "category": "highway",
    "subcategory": "residential",
    "latitude": 31.61780445,
    "longitude": 74.26833545,
    "id": 417982499
  },
  {
    "name": "residential",
    "category": "highway",
    "subcategory": "residential",
    "latitude": 31.617639075,
    "longitude": 74.27222165,
    "id": 417982500
  },
  {
    "name": "residential",
    "category": "highway",
    "subcategory": "residential",
    "latitude": 31.618198966666668,
    "longitude": 74.27194173333334,
    "id": 417982501
  },
  {
    "name": "residential",
    "category": "highway",
    "subcategory": "residential",
    "latitude": 31.617639280000002,
    "longitude": 74.26788134,
    "id": 417982502
  },
  {
    "name": "residential",
    "category": "highway",
    "subcategory": "residential",
    "latitude": 31.616821979999997,
    "longitude": 74.2687904,
    "id": 417982503
  },
  {
    "name": "residential",
    "category": "highway",
    "subcategory": "residential",
    "latitude": 31.61704272,
    "longitude": 74.26833606,
    "id": 417982504
  },
  {
    "name": "residential",
    "category": "highway",
    "subcategory": "residential",
    "latitude": 31.6173728,
    "longitude": 74.26916667142858,
    "id": 417982505
  },
  {
    "name": "residential",
    "category": "highway",
    "subcategory": "residential",
    "latitude": 31.61837255384615,
    "longitude": 74.26904636153846,
    "id": 417982506
  },
  {
    "name": "residential",
    "category": "highway",
    "subcategory": "residential",
    "latitude": 31.657404871428575,
    "longitude": 74.27385348095238,
    "id": 418597254
  },
  {
    "name": "residential",
    "category": "highway",
    "subcategory": "residential",
    "latitude": 31.63581059,
    "longitude": 74.22786132,
    "id": 418597255
  },
  {
    "name": "residential",
    "category": "highway",
    "subcategory": "residential",
    "latitude": 31.6345197,
    "longitude": 74.22885656666666,
    "id": 418597257
  },
  {
    "name": "residential",
    "category": "highway",
    "subcategory": "residential",
    "latitude": 31.635435033333334,
    "longitude": 74.23208846666667,
    "id": 418597258
  },
  {
    "name": "residential",
    "category": "highway",
    "subcategory": "residential",
    "latitude": 31.636827850000003,
    "longitude": 74.22716475,
    "id": 418597260
  },
  {
    "name": "residential",
    "category": "highway",
    "subcategory": "residential",
    "latitude": 31.6362136,
    "longitude": 74.2271851,
    "id": 418597261
  },
  {
    "name": "residential",
    "category": "highway",
    "subcategory": "residential",
    "latitude": 31.6350032,
    "longitude": 74.22719355000001,
    "id": 418597262
  },
  {
    "name": "residential",
    "category": "highway",
    "subcategory": "residential",
    "latitude": 31.63530465,
    "longitude": 74.2271888,
    "id": 418597265
  },
  {
    "name": "residential",
    "category": "highway",
    "subcategory": "residential",
    "latitude": 31.6358342,
    "longitude": 74.22981587142856,
    "id": 418597266
  },
  {
    "name": "residential",
    "category": "highway",
    "subcategory": "residential",
    "latitude": 31.633272429999998,
    "longitude": 74.22980676,
    "id": 418597267
  },
  {
    "name": "residential",
    "category": "highway",
    "subcategory": "residential",
    "latitude": 31.637133900000002,
    "longitude": 74.22717875000001,
    "id": 418597268
  },
  {
    "name": "residential",
    "category": "highway",
    "subcategory": "residential",
    "latitude": 31.63693703333333,
    "longitude": 74.2313628,
    "id": 418597269
  },
  {
    "name": "residential",
    "category": "highway",
    "subcategory": "residential",
    "latitude": 31.634653800000002,
    "longitude": 74.2273646,
    "id": 418597270
  },
  {
    "name": "residential",
    "category": "highway",
    "subcategory": "residential",
    "latitude": 31.63561065,
    "longitude": 74.22718665,
    "id": 418597271
  },
  {
    "name": "residential",
    "category": "highway",
    "subcategory": "residential",
    "latitude": 31.6342656,
    "longitude": 74.22743365,
    "id": 418597273
  },
  {
    "name": "residential",
    "category": "highway",
    "subcategory": "residential",
    "latitude": 31.635914399999997,
    "longitude": 74.22718455,
    "id": 418597274
  },
  {
    "name": "residential",
    "category": "highway",
    "subcategory": "residential",
    "latitude": 31.63653095,
    "longitude": 74.227183,
    "id": 418597275
  },
  {
    "name": "residential",
    "category": "highway",
    "subcategory": "residential",
    "latitude": 31.638089028571432,
    "longitude": 74.23195545714286,
    "id": 418597276
  },
  {
    "name": "residential",
    "category": "highway",
    "subcategory": "residential",
    "latitude": 31.6582492,
    "longitude": 74.27431950769231,
    "id": 418597277
  },
  {
    "name": "residential",
    "category": "highway",
    "subcategory": "residential",
    "latitude": 31.634801325,
    "longitude": 74.2300277,
    "id": 418597282
  },
  {
    "name": "tertiary",
    "category": "highway",
    "subcategory": "tertiary",
    "latitude": 31.631210907142854,
    "longitude": 74.22839667142857,
    "id": 418597285
  },
  {
    "name": "tertiary",
    "category": "highway",
    "subcategory": "tertiary",
    "latitude": 31.637509185714286,
    "longitude": 74.22899577142857,
    "id": 418597286
  },
  {
    "name": "tertiary",
    "category": "highway",
    "subcategory": "tertiary",
    "latitude": 31.663715262857142,
    "longitude": 74.24424201238095,
    "id": 418597288
  },
  {
    "name": "residential",
    "category": "highway",
    "subcategory": "residential",
    "latitude": 31.636376788888885,
    "longitude": 74.23163181111111,
    "id": 418597290
  },
  {
    "name": "residential",
    "category": "highway",
    "subcategory": "residential",
    "latitude": 31.666762362500002,
    "longitude": 74.271252775,
    "id": 418612417
  },
  {
    "name": "tertiary",
    "category": "highway",
    "subcategory": "tertiary",
    "latitude": 31.60891045714286,
    "longitude": 74.27283818571428,
    "id": 418612424
  },
  {
    "name": "residential",
    "category": "highway",
    "subcategory": "residential",
    "latitude": 31.605095990000002,
    "longitude": 74.27391697,
    "id": 418612443
  },
  {
    "name": "residential",
    "category": "highway",
    "subcategory": "residential",
    "latitude": 31.60648274,
    "longitude": 74.2727485,
    "id": 418612453
  },
  {
    "name": "residential",
    "category": "highway",
    "subcategory": "residential",
    "latitude": 31.60888479090909,
    "longitude": 74.26140509999999,
    "id": 418612458
  },
  {
    "name": "residential",
    "category": "highway",
    "subcategory": "residential",
    "latitude": 31.6075628,
    "longitude": 74.2752557125,
    "id": 418612462
  },
  {
    "name": "residential",
    "category": "highway",
    "subcategory": "residential",
    "latitude": 31.60793185,
    "longitude": 74.26072675,
    "id": 418612470
  },
  {
    "name": "residential",
    "category": "highway",
    "subcategory": "residential",
    "latitude": 31.606336285714285,
    "longitude": 74.27169751428572,
    "id": 418612472
  },
  {
    "name": "residential",
    "category": "highway",
    "subcategory": "residential",
    "latitude": 31.623810175,
    "longitude": 74.25646901666667,
    "id": 418612473
  },
  {
    "name": "residential",
    "category": "highway",
    "subcategory": "residential",
    "latitude": 31.62974255,
    "longitude": 74.2715473375,
    "id": 418612490
  },
  {
    "name": "tertiary",
    "category": "highway",
    "subcategory": "tertiary",
    "latitude": 31.62289378888889,
    "longitude": 74.25808545555554,
    "id": 418612495
  },
  {
    "name": "residential",
    "category": "highway",
    "subcategory": "residential",
    "latitude": 31.59616946923077,
    "longitude": 74.23404762692307,
    "id": 418618856
  },
  {
    "name": "residential",
    "category": "highway",
    "subcategory": "residential",
    "latitude": 31.59619221612903,
    "longitude": 74.23394427741935,
    "id": 418618865
  },
  {
    "name": "residential",
    "category": "highway",
    "subcategory": "residential",
    "latitude": 31.598117978947368,
    "longitude": 74.230319,
    "id": 418618873
  },
  {
    "name": "residential",
    "category": "highway",
    "subcategory": "residential",
    "latitude": 31.619540800000003,
    "longitude": 74.2697312,
    "id": 418618881
  },
  {
    "name": "residential",
    "category": "highway",
    "subcategory": "residential",
    "latitude": 31.598845124999997,
    "longitude": 74.228376275,
    "id": 418618894
  },
  {
    "name": "residential",
    "category": "highway",
    "subcategory": "residential",
    "latitude": 31.61900392857143,
    "longitude": 74.2675193142857,
    "id": 418618898
  },
  {
    "name": "residential",
    "category": "highway",
    "subcategory": "residential",
    "latitude": 31.59813234,
    "longitude": 74.23271609999999,
    "id": 418618903
  },
  {
    "name": "residential",
    "category": "highway",
    "subcategory": "residential",
    "latitude": 31.59811158,
    "longitude": 74.22811234000001,
    "id": 418618907
  },
  {
    "name": "residential",
    "category": "highway",
    "subcategory": "residential",
    "latitude": 31.615449625,
    "longitude": 74.266113925,
    "id": 418618912
  },
  {
    "name": "residential",
    "category": "highway",
    "subcategory": "residential",
    "latitude": 31.59657082857143,
    "longitude": 74.23172406428571,
    "id": 418618915
  },
  {
    "name": "residential",
    "category": "highway",
    "subcategory": "residential",
    "latitude": 31.599567389999997,
    "longitude": 74.23025142,
    "id": 418618919
  },
  {
    "name": "Taha Road",
    "category": "highway",
    "subcategory": "residential",
    "latitude": 31.59872285,
    "longitude": 74.2265095,
    "id": 418618927
  },
  {
    "name": "residential",
    "category": "highway",
    "subcategory": "residential",
    "latitude": 31.597849955555553,
    "longitude": 74.22885111111111,
    "id": 418618932
  },
  {
    "name": "residential",
    "category": "highway",
    "subcategory": "residential",
    "latitude": 31.5996793,
    "longitude": 74.23032453333333,
    "id": 418618934
  },
  {
    "name": "Main Bazaar",
    "category": "highway",
    "subcategory": "tertiary",
    "latitude": 31.61653025882353,
    "longitude": 74.26436195882353,
    "id": 418618941
  },
  {
    "name": "residential",
    "category": "highway",
    "subcategory": "residential",
    "latitude": 31.59686569090909,
    "longitude": 74.23026088181818,
    "id": 418618944
  },
  {
    "name": "residential",
    "category": "highway",
    "subcategory": "residential",
    "latitude": 31.596829584615385,
    "longitude": 74.23041993846154,
    "id": 418618950
  },
  {
    "name": "residential",
    "category": "highway",
    "subcategory": "residential",
    "latitude": 31.598484507692305,
    "longitude": 74.23088563846153,
    "id": 418618955
  },
  {
    "name": "residential",
    "category": "highway",
    "subcategory": "residential",
    "latitude": 31.600050988235292,
    "longitude": 74.23186738235295,
    "id": 418618959
  },
  {
    "name": "residential",
    "category": "highway",
    "subcategory": "residential",
    "latitude": 31.5963217,
    "longitude": 74.2346121,
    "id": 418619781
  },
  {
    "name": "residential",
    "category": "highway",
    "subcategory": "residential",
    "latitude": 31.59919595,
    "longitude": 74.2308836,
    "id": 418619784
  },
  {
    "name": "residential",
    "category": "highway",
    "subcategory": "residential",
    "latitude": 31.59923135,
    "longitude": 74.23177229999999,
    "id": 418619788
  },
  {
    "name": "residential",
    "category": "highway",
    "subcategory": "residential",
    "latitude": 31.59919945,
    "longitude": 74.2313535,
    "id": 418619790
  },
  {
    "name": "residential",
    "category": "highway",
    "subcategory": "residential",
    "latitude": 31.5993389,
    "longitude": 74.2321965,
    "id": 418619794
  },
  {
    "name": "residential",
    "category": "highway",
    "subcategory": "residential",
    "latitude": 31.59933935,
    "longitude": 74.2330797,
    "id": 418619796
  },
  {
    "name": "residential",
    "category": "highway",
    "subcategory": "residential",
    "latitude": 31.59751505,
    "longitude": 74.23237602500001,
    "id": 418619800
  },
  {
    "name": "residential",
    "category": "highway",
    "subcategory": "residential",
    "latitude": 31.599342800000002,
    "longitude": 74.23261305,
    "id": 418619804
  },
  {
    "name": "residential",
    "category": "highway",
    "subcategory": "residential",
    "latitude": 31.596579383333335,
    "longitude": 74.23486948333333,
    "id": 418619806
  },
  {
    "name": "residential",
    "category": "highway",
    "subcategory": "residential",
    "latitude": 31.5966785,
    "longitude": 74.23405505,
    "id": 418619810
  },
  {
    "name": "residential",
    "category": "highway",
    "subcategory": "residential",
    "latitude": 31.604502017647057,
    "longitude": 74.2319074235294,
    "id": 418623945
  },
  {
    "name": "residential",
    "category": "highway",
    "subcategory": "residential",
    "latitude": 31.595695499999998,
    "longitude": 74.23197715,
    "id": 418623952
  },
  {
    "name": "residential",
    "category": "highway",
    "subcategory": "residential",
    "latitude": 31.5968758,
    "longitude": 74.2311096,
    "id": 418623955
  },
  {
    "name": "residential",
    "category": "highway",
    "subcategory": "residential",
    "latitude": 31.604497350000003,
    "longitude": 74.23266502499999,
    "id": 418623959
  },
  {
    "name": "residential",
    "category": "highway",
    "subcategory": "residential",
    "latitude": 31.596250433333335,
    "longitude": 74.23182366666667,
    "id": 418623961
  },
  {
    "name": "residential",
    "category": "highway",
    "subcategory": "residential",
    "latitude": 31.595697100000002,
    "longitude": 74.2323283,
    "id": 418623964
  },
  {
    "name": "residential",
    "category": "highway",
    "subcategory": "residential",
    "latitude": 31.604497000000002,
    "longitude": 74.2312671,
    "id": 418623967
  },
  {
    "name": "residential",
    "category": "highway",
    "subcategory": "residential",
    "latitude": 31.5955288,
    "longitude": 74.234673,
    "id": 418623969
  },
  {
    "name": "residential",
    "category": "highway",
    "subcategory": "residential",
    "latitude": 31.59641545,
    "longitude": 74.235068525,
    "id": 418623971
  },
  {
    "name": "residential",
    "category": "highway",
    "subcategory": "residential",
    "latitude": 31.597204414285716,
    "longitude": 74.2322422,
    "id": 418623974
  },
  {
    "name": "residential",
    "category": "highway",
    "subcategory": "residential",
    "latitude": 31.5968902,
    "longitude": 74.2295464,
    "id": 418623977
  },
  {
    "name": "residential",
    "category": "highway",
    "subcategory": "residential",
    "latitude": 31.596365300000002,
    "longitude": 74.23269636153847,
    "id": 418623980
  },
  {
    "name": "residential",
    "category": "highway",
    "subcategory": "residential",
    "latitude": 31.5972144,
    "longitude": 74.2295461,
    "id": 418623982
  },
  {
    "name": "residential",
    "category": "highway",
    "subcategory": "residential",
    "latitude": 31.59546145,
    "longitude": 74.23117665000001,
    "id": 418623985
  },
  {
    "name": "residential",
    "category": "highway",
    "subcategory": "residential",
    "latitude": 31.6056137,
    "longitude": 74.23190578571429,
    "id": 418623988
  },
  {
    "name": "residential",
    "category": "highway",
    "subcategory": "residential",
    "latitude": 31.597316650000003,
    "longitude": 74.23467074999999,
    "id": 418623990
  },
  {
    "name": "residential",
    "category": "highway",
    "subcategory": "residential",
    "latitude": 31.6020545,
    "longitude": 74.23188895,
    "id": 418623993
  },
  {
    "name": "residential",
    "category": "highway",
    "subcategory": "residential",
    "latitude": 31.5966166,
    "longitude": 74.235873175,
    "id": 418623995
  },
  {
    "name": "residential",
    "category": "highway",
    "subcategory": "residential",
    "latitude": 31.59644953333333,
    "longitude": 74.23548319999999,
    "id": 418623997
  },
  {
    "name": "residential",
    "category": "highway",
    "subcategory": "residential",
    "latitude": 31.597805240000003,
    "longitude": 74.2283227,
    "id": 418624002
  },
  {
    "name": "residential",
    "category": "highway",
    "subcategory": "residential",
    "latitude": 31.59752573333333,
    "longitude": 74.22892789999999,
    "id": 418624004
  },
  {
    "name": "residential",
    "category": "highway",
    "subcategory": "residential",
    "latitude": 31.594731299999996,
    "longitude": 74.2359346888889,
    "id": 418624011
  },
  {
    "name": "residential",
    "category": "highway",
    "subcategory": "residential",
    "latitude": 31.5980528,
    "longitude": 74.23524805,
    "id": 418624014
  },
  {
    "name": "residential",
    "category": "highway",
    "subcategory": "residential",
    "latitude": 31.59592425,
    "longitude": 74.23157425,
    "id": 418624018
  },
  {
    "name": "residential",
    "category": "highway",
    "subcategory": "residential",
    "latitude": 31.597803050000003,
    "longitude": 74.23137589999999,
    "id": 418632482
  },
  {
    "name": "residential",
    "category": "highway",
    "subcategory": "residential",
    "latitude": 31.5978297,
    "longitude": 74.23335795,
    "id": 418632486
  },
  {
    "name": "residential",
    "category": "highway",
    "subcategory": "residential",
    "latitude": 31.61867277777778,
    "longitude": 74.24644202222221,
    "id": 418632488
  },
  {
    "name": "residential",
    "category": "highway",
    "subcategory": "residential",
    "latitude": 31.61735293809524,
    "longitude": 74.23899985714286,
    "id": 418632492
  },
  {
    "name": "residential",
    "category": "highway",
    "subcategory": "residential",
    "latitude": 31.606298032258067,
    "longitude": 74.22842328064516,
    "id": 418632498
  },
  {
    "name": "residential",
    "category": "highway",
    "subcategory": "residential",
    "latitude": 31.607061675,
    "longitude": 74.242929825,
    "id": 418632505
  },
  {
    "name": "residential",
    "category": "highway",
    "subcategory": "residential",
    "latitude": 31.597658575,
    "longitude": 74.23234975,
    "id": 418632512
  },
  {
    "name": "residential",
    "category": "highway",
    "subcategory": "residential",
    "latitude": 31.613271769565216,
    "longitude": 74.23426053043478,
    "id": 418632516
  },
  {
    "name": "residential",
    "category": "highway",
    "subcategory": "residential",
    "latitude": 31.609808229166664,
    "longitude": 74.24049934166666,
    "id": 418632521
  },
  {
    "name": "residential",
    "category": "highway",
    "subcategory": "residential",
    "latitude": 31.627151050000002,
    "longitude": 74.27266900000001,
    "id": 418642494
  },
  {
    "name": "residential",
    "category": "highway",
    "subcategory": "residential",
    "latitude": 31.627117475,
    "longitude": 74.27229845,
    "id": 418642495
  },
  {
    "name": "residential",
    "category": "highway",
    "subcategory": "residential",
    "latitude": 31.626850575,
    "longitude": 74.27255065,
    "id": 418642496
  },
  {
    "name": "residential",
    "category": "highway",
    "subcategory": "residential",
    "latitude": 31.627589716666666,
    "longitude": 74.27354441666667,
    "id": 418642497
  },
  {
    "name": "tertiary",
    "category": "highway",
    "subcategory": "tertiary",
    "latitude": 31.622847688235296,
    "longitude": 74.27784174705883,
    "id": 418736699
  },
  {
    "name": "residential",
    "category": "highway",
    "subcategory": "residential",
    "latitude": 31.62156407058823,
    "longitude": 74.23199709411766,
    "id": 418764613
  },
  {
    "name": "residential",
    "category": "highway",
    "subcategory": "residential",
    "latitude": 31.620394807692307,
    "longitude": 74.23271355384615,
    "id": 418764615
  },
  {
    "name": "residential",
    "category": "highway",
    "subcategory": "residential",
    "latitude": 31.6209846,
    "longitude": 74.2333469,
    "id": 418764617
  },
  {
    "name": "residential",
    "category": "highway",
    "subcategory": "residential",
    "latitude": 31.62404755,
    "longitude": 74.23315755,
    "id": 418764619
  },
  {
    "name": "residential",
    "category": "highway",
    "subcategory": "residential",
    "latitude": 31.620983600000002,
    "longitude": 74.23291655,
    "id": 418764621
  },
  {
    "name": "residential",
    "category": "highway",
    "subcategory": "residential",
    "latitude": 31.6209672,
    "longitude": 74.2319118,
    "id": 418764622
  },
  {
    "name": "residential",
    "category": "highway",
    "subcategory": "residential",
    "latitude": 31.62258306,
    "longitude": 74.23379182,
    "id": 418764624
  },
  {
    "name": "residential",
    "category": "highway",
    "subcategory": "residential",
    "latitude": 31.623054099999997,
    "longitude": 74.23382875714286,
    "id": 418764626
  },
  {
    "name": "residential",
    "category": "highway",
    "subcategory": "residential",
    "latitude": 31.620336783333332,
    "longitude": 74.23096388333333,
    "id": 418764627
  },
  {
    "name": "residential",
    "category": "highway",
    "subcategory": "residential",
    "latitude": 31.623365133333333,
    "longitude": 74.23236556666667,
    "id": 418764629
  },
  {
    "name": "residential",
    "category": "highway",
    "subcategory": "residential",
    "latitude": 31.623085666666668,
    "longitude": 74.23153015,
    "id": 418764631
  },
  {
    "name": "residential",
    "category": "highway",
    "subcategory": "residential",
    "latitude": 31.619074,
    "longitude": 74.23200908,
    "id": 418764632
  },
  {
    "name": "residential",
    "category": "highway",
    "subcategory": "residential",
    "latitude": 31.623423328571427,
    "longitude": 74.23216221428571,
    "id": 418764634
  },
  {
    "name": "residential",
    "category": "highway",
    "subcategory": "residential",
    "latitude": 31.6188103,
    "longitude": 74.23165205714285,
    "id": 418764636
  },
  {
    "name": "residential",
    "category": "highway",
    "subcategory": "residential",
    "latitude": 31.619195660000003,
    "longitude": 74.2323536,
    "id": 418764638
  },
  {
    "name": "residential",
    "category": "highway",
    "subcategory": "residential",
    "latitude": 31.619477916666668,
    "longitude": 74.23380668333333,
    "id": 418764640
  },
  {
    "name": "residential",
    "category": "highway",
    "subcategory": "residential",
    "latitude": 31.62139925,
    "longitude": 74.2314138,
    "id": 418764642
  },
  {
    "name": "residential",
    "category": "highway",
    "subcategory": "residential",
    "latitude": 31.62191492857143,
    "longitude": 74.23444974285714,
    "id": 418764644
  },
  {
    "name": "residential",
    "category": "highway",
    "subcategory": "residential",
    "latitude": 31.623059336363635,
    "longitude": 74.23273733636364,
    "id": 418764646
  },
  {
    "name": "residential",
    "category": "highway",
    "subcategory": "residential",
    "latitude": 31.63138581756757,
    "longitude": 74.24211461216215,
    "id": 418765761
  },
  {
    "name": "residential",
    "category": "highway",
    "subcategory": "residential",
    "latitude": 31.62274243809524,
    "longitude": 74.24947686190477,
    "id": 418767327
  },
  {
    "name": "unclassified",
    "category": "highway",
    "subcategory": "unclassified",
    "latitude": 31.602806775,
    "longitude": 74.2106616,
    "id": 449533916
  },
  {
    "name": "residential",
    "category": "highway",
    "subcategory": "residential",
    "latitude": 31.6155169,
    "longitude": 74.21171135,
    "id": 449533917
  },
  {
    "name": "residential",
    "category": "highway",
    "subcategory": "residential",
    "latitude": 31.6063077875,
    "longitude": 74.210986325,
    "id": 449533918
  },
  {
    "name": "residential",
    "category": "highway",
    "subcategory": "residential",
    "latitude": 31.606666850000003,
    "longitude": 74.2124319,
    "id": 449533919
  },
  {
    "name": "unclassified",
    "category": "highway",
    "subcategory": "unclassified",
    "latitude": 31.6151974,
    "longitude": 74.21025115,
    "id": 449533920
  },
  {
    "name": "residential",
    "category": "highway",
    "subcategory": "residential",
    "latitude": 31.61515455,
    "longitude": 74.211402225,
    "id": 449533921
  },
  {
    "name": "residential",
    "category": "highway",
    "subcategory": "residential",
    "latitude": 31.607372249999997,
    "longitude": 74.21146668,
    "id": 449533922
  },
  {
    "name": "residential",
    "category": "highway",
    "subcategory": "residential",
    "latitude": 31.60457463846154,
    "longitude": 74.21309865384616,
    "id": 449533923
  },
  {
    "name": "residential",
    "category": "highway",
    "subcategory": "residential",
    "latitude": 31.6065582,
    "longitude": 74.21134953333333,
    "id": 449533925
  },
  {
    "name": "Boota Park Qabristan",
    "category": "amenity",
    "subcategory": "grave_yard",
    "latitude": 31.628211099999998,
    "longitude": 74.26959450000001,
    "id": 499860218
  },
  {
    "name": "Firdos Minar Park",
    "category": "leisure",
    "subcategory": "park",
    "latitude": 31.618894719999997,
    "longitude": 74.24802353999999,
    "id": 499860219
  },
  {
    "name": "Local Park",
    "category": "leisure",
    "subcategory": "park",
    "latitude": 31.61359232,
    "longitude": 74.26894198,
    "id": 499860220
  },
  {
    "name": "primary_link",
    "category": "highway",
    "subcategory": "primary_link",
    "latitude": 31.610476916666666,
    "longitude": 74.25027811666666,
    "id": 541140116
  },
  {
    "name": "ایم 3",
    "category": "highway",
    "subcategory": "motorway_link",
    "latitude": 31.577724358888887,
    "longitude": 74.2295256511111,
    "id": 562258553
  },
  {
    "name": "ایم 2",
    "category": "highway",
    "subcategory": "motorway_link",
    "latitude": 31.575111158536586,
    "longitude": 74.22751783414634,
    "id": 562258765
  },
  {
    "name": "Lahore Motorway City",
    "category": "landuse",
    "subcategory": "residential",
    "latitude": 31.642735209523806,
    "longitude": 74.21664613809523,
    "id": 568503992
  },
  {
    "name": "residential",
    "category": "highway",
    "subcategory": "residential",
    "latitude": 31.619510163636367,
    "longitude": 74.2537448090909,
    "id": 604755653
  },
  {
    "name": "residential",
    "category": "highway",
    "subcategory": "residential",
    "latitude": 31.62345475,
    "longitude": 74.24579035,
    "id": 604755654
  },
  {
    "name": "residential",
    "category": "highway",
    "subcategory": "residential",
    "latitude": 31.623941614285712,
    "longitude": 74.24637237142858,
    "id": 604755655
  },
  {
    "name": "residential",
    "category": "highway",
    "subcategory": "residential",
    "latitude": 31.622945083333335,
    "longitude": 74.24636149999999,
    "id": 604755656
  },
  {
    "name": "residential",
    "category": "highway",
    "subcategory": "residential",
    "latitude": 31.621677666666667,
    "longitude": 74.24733509166667,
    "id": 604755657
  },
  {
    "name": "residential",
    "category": "highway",
    "subcategory": "residential",
    "latitude": 31.62685344347826,
    "longitude": 74.25105576956521,
    "id": 604755658
  },
  {
    "name": "residential",
    "category": "highway",
    "subcategory": "residential",
    "latitude": 31.62326375,
    "longitude": 74.2510656,
    "id": 604755659
  },
  {
    "name": "residential",
    "category": "highway",
    "subcategory": "residential",
    "latitude": 31.623264550000002,
    "longitude": 74.249091225,
    "id": 604755660
  },
  {
    "name": "residential",
    "category": "highway",
    "subcategory": "residential",
    "latitude": 31.6236617,
    "longitude": 74.24883375,
    "id": 604755661
  },
  {
    "name": "tertiary",
    "category": "highway",
    "subcategory": "tertiary",
    "latitude": 31.6240872,
    "longitude": 74.24967982222222,
    "id": 604755662
  },
  {
    "name": "residential",
    "category": "highway",
    "subcategory": "residential",
    "latitude": 31.622588725,
    "longitude": 74.2488115,
    "id": 604755663
  },
  {
    "name": "residential",
    "category": "highway",
    "subcategory": "residential",
    "latitude": 31.621859999999998,
    "longitude": 74.2490385,
    "id": 604755664
  },
  {
    "name": "residential",
    "category": "highway",
    "subcategory": "residential",
    "latitude": 31.621044866666665,
    "longitude": 74.25321495,
    "id": 604755665
  },
  {
    "name": "residential",
    "category": "highway",
    "subcategory": "residential",
    "latitude": 31.63820768,
    "longitude": 74.2006138,
    "id": 612703052
  },
  {
    "name": "unclassified",
    "category": "highway",
    "subcategory": "unclassified",
    "latitude": 31.6390871375,
    "longitude": 74.198183925,
    "id": 612703054
  },
  {
    "name": "unclassified",
    "category": "highway",
    "subcategory": "unclassified",
    "latitude": 31.63895245,
    "longitude": 74.19815505,
    "id": 612703055
  },
  {
    "name": "unclassified",
    "category": "highway",
    "subcategory": "unclassified",
    "latitude": 31.63878062,
    "longitude": 74.19836628,
    "id": 612703056
  },
  {
    "name": "residential",
    "category": "highway",
    "subcategory": "residential",
    "latitude": 31.6397537,
    "longitude": 74.204135025,
    "id": 612703058
  },
  {
    "name": "residential",
    "category": "highway",
    "subcategory": "residential",
    "latitude": 31.639778749999998,
    "longitude": 74.20507309999999,
    "id": 612703060
  },
  {
    "name": "residential",
    "category": "highway",
    "subcategory": "residential",
    "latitude": 31.64225621,
    "longitude": 74.20371807000001,
    "id": 612703061
  },
  {
    "name": "residential",
    "category": "highway",
    "subcategory": "residential",
    "latitude": 31.6401144,
    "longitude": 74.20422305,
    "id": 612703062
  },
  {
    "name": "residential",
    "category": "highway",
    "subcategory": "residential",
    "latitude": 31.640280133333334,
    "longitude": 74.20473013333333,
    "id": 612703063
  },
  {
    "name": "residential",
    "category": "highway",
    "subcategory": "residential",
    "latitude": 31.6409798,
    "longitude": 74.203999775,
    "id": 612703065
  },
  {
    "name": "residential",
    "category": "highway",
    "subcategory": "residential",
    "latitude": 31.6404956,
    "longitude": 74.20311315000001,
    "id": 612703066
  },
  {
    "name": "residential",
    "category": "highway",
    "subcategory": "residential",
    "latitude": 31.6415035,
    "longitude": 74.20316406666667,
    "id": 612703067
  },
  {
    "name": "residential",
    "category": "highway",
    "subcategory": "residential",
    "latitude": 31.641055933333334,
    "longitude": 74.20172073333333,
    "id": 612703068
  },
  {
    "name": "residential",
    "category": "highway",
    "subcategory": "residential",
    "latitude": 31.641505095000003,
    "longitude": 74.19825726500001,
    "id": 612703069
  },
  {
    "name": "residential",
    "category": "highway",
    "subcategory": "residential",
    "latitude": 31.641188749999998,
    "longitude": 74.20029645,
    "id": 612703071
  },
  {
    "name": "residential",
    "category": "highway",
    "subcategory": "residential",
    "latitude": 31.64091972142857,
    "longitude": 74.20093074285715,
    "id": 612703073
  },
  {
    "name": "residential",
    "category": "highway",
    "subcategory": "residential",
    "latitude": 31.640877033333336,
    "longitude": 74.20117803333333,
    "id": 612703074
  },
  {
    "name": "residential",
    "category": "highway",
    "subcategory": "residential",
    "latitude": 31.640377049999998,
    "longitude": 74.20199515,
    "id": 612703075
  },
  {
    "name": "residential",
    "category": "highway",
    "subcategory": "residential",
    "latitude": 31.641768118181815,
    "longitude": 74.20276068181818,
    "id": 612703077
  },
  {
    "name": "residential",
    "category": "highway",
    "subcategory": "residential",
    "latitude": 31.6421442,
    "longitude": 74.20170783333333,
    "id": 612703078
  },
  {
    "name": "residential",
    "category": "landuse",
    "subcategory": "residential",
    "latitude": 31.641703607407408,
    "longitude": 74.20123365185185,
    "id": 612703079
  },
  {
    "name": "industrial",
    "category": "landuse",
    "subcategory": "industrial",
    "latitude": 31.642936081818185,
    "longitude": 74.19567375909091,
    "id": 612703081
  },
  {
    "name": "industrial",
    "category": "landuse",
    "subcategory": "industrial",
    "latitude": 31.639737916666665,
    "longitude": 74.19765111666666,
    "id": 612703082
  },
  {
    "name": "residential",
    "category": "landuse",
    "subcategory": "residential",
    "latitude": 31.63791861904762,
    "longitude": 74.19081758571429,
    "id": 612703084
  },
  {
    "name": "primary",
    "category": "highway",
    "subcategory": "primary",
    "latitude": 31.61005736923077,
    "longitude": 74.24999987692307,
    "id": 636413312
  },
  {
    "name": "Jaranwala - Lahore Road",
    "category": "highway",
    "subcategory": "primary",
    "latitude": 31.611414470270272,
    "longitude": 74.25853654324324,
    "id": 636413313
  },
  {
    "name": "Sagian Wala Bypass Road",
    "category": "highway",
    "subcategory": "primary",
    "latitude": 31.59113459375,
    "longitude": 74.25762005625,
    "id": 636413316
  },
  {
    "name": "residential",
    "category": "highway",
    "subcategory": "residential",
    "latitude": 31.59250009375,
    "longitude": 74.26221548125,
    "id": 636413317
  },
  {
    "name": "primary_link",
    "category": "highway",
    "subcategory": "primary_link",
    "latitude": 31.5866407,
    "longitude": 74.25772055,
    "id": 638610884
  },
  {
    "name": "residential",
    "category": "highway",
    "subcategory": "residential",
    "latitude": 31.60168257272727,
    "longitude": 74.24938364545454,
    "id": 638612854
  },
  {
    "name": "residential",
    "category": "highway",
    "subcategory": "residential",
    "latitude": 31.60087145,
    "longitude": 74.24918947500001,
    "id": 638612855
  },
  {
    "name": "Sagian Moti Fouji Rd",
    "category": "highway",
    "subcategory": "residential",
    "latitude": 31.59984241851852,
    "longitude": 74.24445961851852,
    "id": 638612856
  },
  {
    "name": "Village Street",
    "category": "highway",
    "subcategory": "residential",
    "latitude": 31.594936425,
    "longitude": 74.24607265,
    "id": 638612857
  },
  {
    "name": "residential",
    "category": "highway",
    "subcategory": "residential",
    "latitude": 31.594399850000002,
    "longitude": 74.2457344,
    "id": 638612858
  },
  {
    "name": "residential",
    "category": "highway",
    "subcategory": "residential",
    "latitude": 31.59454315,
    "longitude": 74.24625475,
    "id": 638612859
  },
  {
    "name": "residential",
    "category": "highway",
    "subcategory": "residential",
    "latitude": 31.596918092857145,
    "longitude": 74.24959311428572,
    "id": 638612860
  },
  {
    "name": "residential",
    "category": "highway",
    "subcategory": "residential",
    "latitude": 31.59633585,
    "longitude": 74.24979265,
    "id": 638612861
  },
  {
    "name": "residential",
    "category": "highway",
    "subcategory": "residential",
    "latitude": 31.59634635,
    "longitude": 74.2491086,
    "id": 638612862
  },
  {
    "name": "residential",
    "category": "highway",
    "subcategory": "residential",
    "latitude": 31.5966242,
    "longitude": 74.24838170000001,
    "id": 638612863
  },
  {
    "name": "residential",
    "category": "highway",
    "subcategory": "residential",
    "latitude": 31.58856719,
    "longitude": 74.25240371,
    "id": 638612864
  },
  {
    "name": "Sagian Moti Fouji Road",
    "category": "highway",
    "subcategory": "residential",
    "latitude": 31.601866911111113,
    "longitude": 74.24027904444443,
    "id": 638612865
  },
  {
    "name": "residential",
    "category": "highway",
    "subcategory": "residential",
    "latitude": 31.598249988235292,
    "longitude": 74.23801526470588,
    "id": 638612866
  },
  {
    "name": "residential",
    "category": "highway",
    "subcategory": "residential",
    "latitude": 31.5987596,
    "longitude": 74.23707765,
    "id": 638612867
  },
  {
    "name": "residential",
    "category": "highway",
    "subcategory": "residential",
    "latitude": 31.597975066666667,
    "longitude": 74.23622933333333,
    "id": 638613626
  },
  {
    "name": "residential",
    "category": "highway",
    "subcategory": "residential",
    "latitude": 31.5857381875,
    "longitude": 74.2564441125,
    "id": 638613627
  },
  {
    "name": "residential",
    "category": "highway",
    "subcategory": "residential",
    "latitude": 31.587257455555555,
    "longitude": 74.24470052777777,
    "id": 638613628
  },
  {
    "name": "residential",
    "category": "highway",
    "subcategory": "residential",
    "latitude": 31.585420533333334,
    "longitude": 74.2501401,
    "id": 638613629
  },
  {
    "name": "unclassified",
    "category": "highway",
    "subcategory": "unclassified",
    "latitude": 31.58601294,
    "longitude": 74.25436013999999,
    "id": 638613630
  },
  {
    "name": "residential",
    "category": "highway",
    "subcategory": "residential",
    "latitude": 31.59227605,
    "longitude": 74.25007405,
    "id": 638613631
  },
  {
    "name": "residential",
    "category": "highway",
    "subcategory": "residential",
    "latitude": 31.602711516666663,
    "longitude": 74.24846738333333,
    "id": 638613920
  },
  {
    "name": "residential",
    "category": "highway",
    "subcategory": "residential",
    "latitude": 31.62093935,
    "longitude": 74.25637361666666,
    "id": 677114690
  },
  {
    "name": "residential",
    "category": "highway",
    "subcategory": "residential",
    "latitude": 31.618860825,
    "longitude": 74.254978325,
    "id": 677114691
  },
  {
    "name": "unclassified",
    "category": "highway",
    "subcategory": "unclassified",
    "latitude": 31.623735208333333,
    "longitude": 74.22691756666667,
    "id": 694814819
  },
  {
    "name": "unclassified",
    "category": "highway",
    "subcategory": "unclassified",
    "latitude": 31.62643183333333,
    "longitude": 74.22321083333334,
    "id": 694814820
  },
  {
    "name": "unclassified",
    "category": "highway",
    "subcategory": "unclassified",
    "latitude": 31.62559943157895,
    "longitude": 74.21577416315789,
    "id": 694814821
  },
  {
    "name": "unclassified",
    "category": "highway",
    "subcategory": "unclassified",
    "latitude": 31.62940208888889,
    "longitude": 74.20564737407408,
    "id": 694814822
  },
  {
    "name": "residential",
    "category": "highway",
    "subcategory": "residential",
    "latitude": 31.63688845,
    "longitude": 74.2284761,
    "id": 694814823
  },
  {
    "name": "unclassified",
    "category": "highway",
    "subcategory": "unclassified",
    "latitude": 31.632225646666665,
    "longitude": 74.22494451333334,
    "id": 694814824
  },
  {
    "name": "residential",
    "category": "highway",
    "subcategory": "residential",
    "latitude": 31.626569200000002,
    "longitude": 74.24455663,
    "id": 694814825
  },
  {
    "name": "tertiary",
    "category": "highway",
    "subcategory": "tertiary",
    "latitude": 31.62585307692308,
    "longitude": 74.23708955576923,
    "id": 694814826
  },
  {
    "name": "unclassified",
    "category": "highway",
    "subcategory": "unclassified",
    "latitude": 31.65191115,
    "longitude": 74.19259246,
    "id": 694814831
  },
  {
    "name": "residential",
    "category": "highway",
    "subcategory": "residential",
    "latitude": 31.61277474,
    "longitude": 74.24597028000001,
    "id": 694823407
  },
  {
    "name": "residential",
    "category": "highway",
    "subcategory": "residential",
    "latitude": 31.61270615,
    "longitude": 74.24491705,
    "id": 694823408
  },
  {
    "name": "residential",
    "category": "highway",
    "subcategory": "residential",
    "latitude": 31.611464014285712,
    "longitude": 74.24407861428571,
    "id": 694823409
  },
  {
    "name": "residential",
    "category": "highway",
    "subcategory": "residential",
    "latitude": 31.61354285,
    "longitude": 74.24581450833334,
    "id": 694823410
  },
  {
    "name": "residential",
    "category": "highway",
    "subcategory": "residential",
    "latitude": 31.61412326285714,
    "longitude": 74.24389207714286,
    "id": 694823411
  },
  {
    "name": "residential",
    "category": "highway",
    "subcategory": "residential",
    "latitude": 31.592961025,
    "longitude": 74.24459895,
    "id": 694823412
  },
  {
    "name": "residential",
    "category": "highway",
    "subcategory": "residential",
    "latitude": 31.5935983,
    "longitude": 74.24062358461538,
    "id": 694823413
  },
  {
    "name": "residential",
    "category": "highway",
    "subcategory": "residential",
    "latitude": 31.59035046923077,
    "longitude": 74.23744433846153,
    "id": 694823415
  },
  {
    "name": "residential",
    "category": "highway",
    "subcategory": "residential",
    "latitude": 31.591764554545453,
    "longitude": 74.23582640000001,
    "id": 694823416
  },
  {
    "name": "residential",
    "category": "highway",
    "subcategory": "residential",
    "latitude": 31.59265045,
    "longitude": 74.23484035000001,
    "id": 694823417
  },
  {
    "name": "residential",
    "category": "highway",
    "subcategory": "residential",
    "latitude": 31.592649350000002,
    "longitude": 74.23551094999999,
    "id": 694823418
  },
  {
    "name": "residential",
    "category": "highway",
    "subcategory": "residential",
    "latitude": 31.592648349999997,
    "longitude": 74.23616200000001,
    "id": 694823419
  },
  {
    "name": "residential",
    "category": "highway",
    "subcategory": "residential",
    "latitude": 31.59264735,
    "longitude": 74.23679695,
    "id": 694823420
  },
  {
    "name": "residential",
    "category": "highway",
    "subcategory": "residential",
    "latitude": 31.59360641111111,
    "longitude": 74.23526142222221,
    "id": 694823423
  },
  {
    "name": "residential",
    "category": "highway",
    "subcategory": "residential",
    "latitude": 31.5915820875,
    "longitude": 74.2382718625,
    "id": 694823424
  },
  {
    "name": "residential",
    "category": "highway",
    "subcategory": "residential",
    "latitude": 31.591998025,
    "longitude": 74.23857505000001,
    "id": 694823425
  },
  {
    "name": "residential",
    "category": "highway",
    "subcategory": "residential",
    "latitude": 31.592301733333333,
    "longitude": 74.23798996666666,
    "id": 694823426
  },
  {
    "name": "residential",
    "category": "highway",
    "subcategory": "residential",
    "latitude": 31.593341300000002,
    "longitude": 74.23740271666667,
    "id": 694823427
  },
  {
    "name": "residential",
    "category": "highway",
    "subcategory": "residential",
    "latitude": 31.59351743846154,
    "longitude": 74.23543348461538,
    "id": 694823428
  },
  {
    "name": "unclassified",
    "category": "highway",
    "subcategory": "unclassified",
    "latitude": 31.58198066521739,
    "longitude": 74.21646942173913,
    "id": 694823429
  },
  {
    "name": "residential",
    "category": "highway",
    "subcategory": "residential",
    "latitude": 31.587408744444442,
    "longitude": 74.21496951111111,
    "id": 694823430
  },
  {
    "name": "primary_link",
    "category": "highway",
    "subcategory": "primary_link",
    "latitude": 31.590087599999997,
    "longitude": 74.21292985,
    "id": 694823431
  },
  {
    "name": "residential",
    "category": "highway",
    "subcategory": "residential",
    "latitude": 31.5941317,
    "longitude": 74.209304,
    "id": 694823432
  },
  {
    "name": "residential",
    "category": "highway",
    "subcategory": "residential",
    "latitude": 31.593875750000002,
    "longitude": 74.20917495,
    "id": 694823433
  },
  {
    "name": "residential",
    "category": "highway",
    "subcategory": "residential",
    "latitude": 31.5935415,
    "longitude": 74.2090192,
    "id": 694823434
  },
  {
    "name": "residential",
    "category": "highway",
    "subcategory": "residential",
    "latitude": 31.59267285,
    "longitude": 74.20860045,
    "id": 694823435
  },
  {
    "name": "residential",
    "category": "highway",
    "subcategory": "residential",
    "latitude": 31.59267645,
    "longitude": 74.2089821,
    "id": 694823436
  },
  {
    "name": "residential",
    "category": "highway",
    "subcategory": "residential",
    "latitude": 31.592704050000002,
    "longitude": 74.2093753,
    "id": 694823437
  },
  {
    "name": "residential",
    "category": "highway",
    "subcategory": "residential",
    "latitude": 31.593612766666666,
    "longitude": 74.20949005833333,
    "id": 694823438
  },
  {
    "name": "residential",
    "category": "highway",
    "subcategory": "residential",
    "latitude": 31.5931176,
    "longitude": 74.208197625,
    "id": 694823439
  },
  {
    "name": "residential",
    "category": "highway",
    "subcategory": "residential",
    "latitude": 31.59265915,
    "longitude": 74.20780475000001,
    "id": 694823440
  },
  {
    "name": "residential",
    "category": "highway",
    "subcategory": "residential",
    "latitude": 31.5924638,
    "longitude": 74.20742325,
    "id": 694823441
  },
  {
    "name": "residential",
    "category": "highway",
    "subcategory": "residential",
    "latitude": 31.5935716,
    "longitude": 74.208295075,
    "id": 694823442
  },
  {
    "name": "residential",
    "category": "highway",
    "subcategory": "residential",
    "latitude": 31.589709,
    "longitude": 74.20932375000001,
    "id": 694823443
  },
  {
    "name": "residential",
    "category": "highway",
    "subcategory": "residential",
    "latitude": 31.590001649999998,
    "longitude": 74.20936065000001,
    "id": 694823444
  },
  {
    "name": "residential",
    "category": "highway",
    "subcategory": "residential",
    "latitude": 31.59035315,
    "longitude": 74.20940245,
    "id": 694823445
  },
  {
    "name": "residential",
    "category": "highway",
    "subcategory": "residential",
    "latitude": 31.5906799,
    "longitude": 74.20944115,
    "id": 694823446
  },
  {
    "name": "residential",
    "category": "highway",
    "subcategory": "residential",
    "latitude": 31.59262965,
    "longitude": 74.2103304,
    "id": 694823447
  },
  {
    "name": "residential",
    "category": "highway",
    "subcategory": "residential",
    "latitude": 31.592073499999998,
    "longitude": 74.20839240000001,
    "id": 694823448
  },
  {
    "name": "residential",
    "category": "highway",
    "subcategory": "residential",
    "latitude": 31.593262449999997,
    "longitude": 74.2122694,
    "id": 694823449
  },
  {
    "name": "residential",
    "category": "highway",
    "subcategory": "residential",
    "latitude": 31.5941776125,
    "longitude": 74.2127771125,
    "id": 694823450
  },
  {
    "name": "residential",
    "category": "highway",
    "subcategory": "residential",
    "latitude": 31.592474092307693,
    "longitude": 74.21034757692308,
    "id": 694823451
  },
  {
    "name": "residential",
    "category": "highway",
    "subcategory": "residential",
    "latitude": 31.592442207692308,
    "longitude": 74.21094782307692,
    "id": 694823452
  },
  {
    "name": "primary_link",
    "category": "highway",
    "subcategory": "primary_link",
    "latitude": 31.5917015,
    "longitude": 74.21437765,
    "id": 694823453
  },
  {
    "name": "residential",
    "category": "highway",
    "subcategory": "residential",
    "latitude": 31.593298533333332,
    "longitude": 74.21340147777778,
    "id": 694823454
  },
  {
    "name": "residential",
    "category": "highway",
    "subcategory": "residential",
    "latitude": 31.594358600000003,
    "longitude": 74.2138231,
    "id": 694823455
  },
  {
    "name": "residential",
    "category": "highway",
    "subcategory": "residential",
    "latitude": 31.595304991666666,
    "longitude": 74.2120951375,
    "id": 694823456
  },
  {
    "name": "service",
    "category": "highway",
    "subcategory": "service",
    "latitude": 31.596020431818182,
    "longitude": 74.21616031363637,
    "id": 694823457
  },
  {
    "name": "residential",
    "category": "highway",
    "subcategory": "residential",
    "latitude": 31.5902364,
    "longitude": 74.20591395,
    "id": 694823458
  },
  {
    "name": "residential",
    "category": "highway",
    "subcategory": "residential",
    "latitude": 31.589063666666664,
    "longitude": 74.21031909999999,
    "id": 694823459
  },
  {
    "name": "residential",
    "category": "highway",
    "subcategory": "residential",
    "latitude": 31.58868235,
    "longitude": 74.2099014,
    "id": 694823460
  },
  {
    "name": "residential",
    "category": "highway",
    "subcategory": "residential",
    "latitude": 31.59100805,
    "longitude": 74.209861175,
    "id": 694823461
  },
  {
    "name": "residential",
    "category": "highway",
    "subcategory": "residential",
    "latitude": 31.58977585,
    "longitude": 74.209740425,
    "id": 694823462
  },
  {
    "name": "residential",
    "category": "highway",
    "subcategory": "residential",
    "latitude": 31.5899100625,
    "longitude": 74.2096391125,
    "id": 694823463
  },
  {
    "name": "residential",
    "category": "highway",
    "subcategory": "residential",
    "latitude": 31.589213733333334,
    "longitude": 74.20475403333334,
    "id": 694823464
  },
  {
    "name": "residential",
    "category": "highway",
    "subcategory": "residential",
    "latitude": 31.59024175,
    "longitude": 74.205552,
    "id": 694823465
  },
  {
    "name": "residential",
    "category": "highway",
    "subcategory": "residential",
    "latitude": 31.589495033333332,
    "longitude": 74.2071981,
    "id": 694823466
  },
  {
    "name": "residential",
    "category": "highway",
    "subcategory": "residential",
    "latitude": 31.5906903,
    "longitude": 74.20830925,
    "id": 694823467
  },
  {
    "name": "residential",
    "category": "highway",
    "subcategory": "residential",
    "latitude": 31.59069885,
    "longitude": 74.20790944999999,
    "id": 694823468
  },
  {
    "name": "residential",
    "category": "highway",
    "subcategory": "residential",
    "latitude": 31.590241075,
    "longitude": 74.2081082,
    "id": 694823469
  },
  {
    "name": "residential",
    "category": "highway",
    "subcategory": "residential",
    "latitude": 31.590035337499998,
    "longitude": 74.2090622375,
    "id": 694823470
  },
  {
    "name": "residential",
    "category": "highway",
    "subcategory": "residential",
    "latitude": 31.5896253,
    "longitude": 74.208675675,
    "id": 694823471
  },
  {
    "name": "residential",
    "category": "highway",
    "subcategory": "residential",
    "latitude": 31.589102766666667,
    "longitude": 74.20827466666667,
    "id": 694823472
  },
  {
    "name": "residential",
    "category": "highway",
    "subcategory": "residential",
    "latitude": 31.589113733333335,
    "longitude": 74.20787766666666,
    "id": 694823473
  },
  {
    "name": "residential",
    "category": "highway",
    "subcategory": "residential",
    "latitude": 31.589715950000002,
    "longitude": 74.207532875,
    "id": 694823474
  },
  {
    "name": "residential",
    "category": "highway",
    "subcategory": "residential",
    "latitude": 31.591044720000003,
    "longitude": 74.20640123999999,
    "id": 694823475
  },
  {
    "name": "residential",
    "category": "highway",
    "subcategory": "residential",
    "latitude": 31.589348985714288,
    "longitude": 74.20706187142858,
    "id": 694823476
  },
  {
    "name": "residential",
    "category": "highway",
    "subcategory": "residential",
    "latitude": 31.58740495,
    "longitude": 74.20299664999999,
    "id": 694823477
  },
  {
    "name": "residential",
    "category": "highway",
    "subcategory": "residential",
    "latitude": 31.586612357142858,
    "longitude": 74.20332927142856,
    "id": 694823478
  },
  {
    "name": "residential",
    "category": "highway",
    "subcategory": "residential",
    "latitude": 31.58732755,
    "longitude": 74.2033184,
    "id": 694823479
  },
  {
    "name": "residential",
    "category": "highway",
    "subcategory": "residential",
    "latitude": 31.5873233,
    "longitude": 74.20363025,
    "id": 694823480
  },
  {
    "name": "residential",
    "category": "highway",
    "subcategory": "residential",
    "latitude": 31.587317,
    "longitude": 74.2039804,
    "id": 694823481
  },
  {
    "name": "residential",
    "category": "highway",
    "subcategory": "residential",
    "latitude": 31.588097466666667,
    "longitude": 74.20434573333334,
    "id": 694823482
  },
  {
    "name": "residential",
    "category": "highway",
    "subcategory": "residential",
    "latitude": 31.58740505,
    "longitude": 74.20473405,
    "id": 694823483
  },
  {
    "name": "residential",
    "category": "highway",
    "subcategory": "residential",
    "latitude": 31.58743125,
    "longitude": 74.20587665,
    "id": 694823484
  },
  {
    "name": "residential",
    "category": "highway",
    "subcategory": "residential",
    "latitude": 31.587435149999997,
    "longitude": 74.20549065,
    "id": 694823485
  },
  {
    "name": "residential",
    "category": "highway",
    "subcategory": "residential",
    "latitude": 31.58680765,
    "longitude": 74.205694725,
    "id": 694823486
  },
  {
    "name": "residential",
    "category": "highway",
    "subcategory": "residential",
    "latitude": 31.58827526,
    "longitude": 74.20511832,
    "id": 694823487
  },
  {
    "name": "residential",
    "category": "highway",
    "subcategory": "residential",
    "latitude": 31.58731645,
    "longitude": 74.2079814,
    "id": 694823488
  },
  {
    "name": "residential",
    "category": "highway",
    "subcategory": "residential",
    "latitude": 31.587406700000003,
    "longitude": 74.2087592,
    "id": 694823489
  },
  {
    "name": "residential",
    "category": "highway",
    "subcategory": "residential",
    "latitude": 31.58657475,
    "longitude": 74.20832300000001,
    "id": 694823490
  },
  {
    "name": "residential",
    "category": "highway",
    "subcategory": "residential",
    "latitude": 31.58656155,
    "longitude": 74.20795290000001,
    "id": 694823491
  },
  {
    "name": "residential",
    "category": "highway",
    "subcategory": "residential",
    "latitude": 31.58645735,
    "longitude": 74.20753985,
    "id": 694823492
  },
  {
    "name": "residential",
    "category": "highway",
    "subcategory": "residential",
    "latitude": 31.58647155,
    "longitude": 74.2071748,
    "id": 694823493
  },
  {
    "name": "residential",
    "category": "highway",
    "subcategory": "residential",
    "latitude": 31.58742856666667,
    "longitude": 74.20720853333334,
    "id": 694823494
  },
  {
    "name": "residential",
    "category": "highway",
    "subcategory": "residential",
    "latitude": 31.5882633,
    "longitude": 74.20682622,
    "id": 694823495
  },