[
  {
    "name": "Fuel Station",
    "category": "amenity",
    "subcategory": "fuel",
    "latitude": 25.0339156,
    "longitude": 66.876911,
    "id": 4058908401
  },
  {
    "name": "رئيس گوٹہ",
    "category": "tourism",
    "subcategory": "guest_house",
    "latitude": 24.9928516,
    "longitude": 66.8965714,
    "id": 4330026789
  },
  {
    "name": "Burhani Recreation Park",
    "category": "leisure",
    "subcategory": "water_park",
    "latitude": 25.0572937,
    "longitude": 66.8933175,
    "id": 5142615702
  },
  {
    "name": "NBP Hub Chowki",
    "category": "amenity",
    "subcategory": "bank",
    "latitude": 24.9881335,
    "longitude": 66.904288,
    "id": 5176470443
  },
  {
    "name": "Al-Madina Hotel",
    "category": "amenity",
    "subcategory": "restaurant",
    "latitude": 25.0036186,
    "longitude": 66.8963177,
    "id": 5234606717
  },
  {
    "name": "ٹوٹل",
    "category": "amenity",
    "subcategory": "fuel",
    "latitude": 25.0086417,
    "longitude": 66.8938251,
    "id": 5234606718
  },
  {
    "name": "New Quetta Payala Hotel",
    "category": "amenity",
    "subcategory": "restaurant",
    "latitude": 25.0342334,
    "longitude": 66.8755907,
    "id": 5314600073
  },
  {
    "name": "الائیڈ بینک لمیٹڈ",
    "category": "amenity",
    "subcategory": "bank",
    "latitude": 25.0353097,
    "longitude": 66.8741078,
    "id": 5314600075
  },
  {
    "name": "Askari CNG",
    "category": "amenity",
    "subcategory": "fuel",
    "latitude": 25.0354591,
    "longitude": 66.8739482,
    "id": 5314600076
  },
  {
    "name": "سندھ بینک",
    "category": "amenity",
    "subcategory": "bank",
    "latitude": 25.0361044,
    "longitude": 66.8731461,
    "id": 5314600077
  },
  {
    "name": "Qaboos Hotel",
    "category": "amenity",
    "subcategory": "restaurant",
    "latitude": 25.0372399,
    "longitude": 66.8723923,
    "id": 5314600079
  },
  {
    "name": "Baloch Petroleum Service",
    "category": "amenity",
    "subcategory": "fuel",
    "latitude": 25.0408565,
    "longitude": 66.868004,
    "id": 5314600081
  },
  {
    "name": "Hub City Restuarant",
    "category": "amenity",
    "subcategory": "restaurant",
    "latitude": 25.0427845,
    "longitude": 66.8651483,
    "id": 5314600084
  },
  {
    "name": "Ziauddin Traders",
    "category": "amenity",
    "subcategory": "restaurant",
    "latitude": 25.0420108,
    "longitude": 66.8651955,
    "id": 5314600085
  },
  {
    "name": "Attock",
    "category": "amenity",
    "subcategory": "fuel",
    "latitude": 25.0429119,
    "longitude": 66.864189,
    "id": 5314600086
  },
  {
    "name": "Shakir Restaurant",
    "category": "amenity",
    "subcategory": "restaurant",
    "latitude": 25.0444976,
    "longitude": 66.8629287,
    "id": 5314600087
  },
  {
    "name": "Quetta Arbaz Hotel",
    "category": "amenity",
    "subcategory": "restaurant",
    "latitude": 25.0484377,
    "longitude": 66.8579584,
    "id": 5314600089
  },
  {
    "name": "MashAllah Hot",
    "category": "amenity",
    "subcategory": "restaurant",
    "latitude": 25.0524823,
    "longitude": 66.8516671,
    "id": 5314657023
  },
  {
    "name": "AL Saeed Mobile Communication",
    "category": "shop",
    "subcategory": "mobile_phone",
    "latitude": 25.0526293,
    "longitude": 66.8517342,
    "id": 5314657024
  },
  {
    "name": "ایچ بی ایل پاکستان",
    "category": "amenity",
    "subcategory": "bank",
    "latitude": 25.0554374,
    "longitude": 66.873231,
    "id": 5314657035
  },
  {
    "name": "شیل",
    "category": "amenity",
    "subcategory": "fuel",
    "latitude": 25.0533352,
    "longitude": 66.875213,
    "id": 5314657036
  },
  {
    "name": "Burhani Recreational Park",
    "category": "leisure",
    "subcategory": "water_park",
    "latitude": 25.0593496,
    "longitude": 66.8901549,
    "id": 5314657047
  },
  {
    "name": "Police station",
    "category": "amenity",
    "subcategory": "police",
    "latitude": 25.0556296,
    "longitude": 66.8815037,
    "id": 5314657048
  },
  {
    "name": "Bab e Balochistan Shopping Mall",
    "category": "shop",
    "subcategory": "mall",
    "latitude": 25.020376,
    "longitude": 66.8919454,
    "id": 5314791013
  },
  {
    "name": "CNG & PETROL PUMP",
    "category": "amenity",
    "subcategory": "fuel",
    "latitude": 25.0197014,
    "longitude": 66.8921375,
    "id": 5314791014
  },
  {
    "name": "PSO Fuel Station",
    "category": "amenity",
    "subcategory": "fuel",
    "latitude": 25.0238305,
    "longitude": 66.889076,
    "id": 5314791015
  },
  {
    "name": "Baluchistan Tyre Shop",
    "category": "shop",
    "subcategory": "tyres",
    "latitude": 25.0242472,
    "longitude": 66.8880538,
    "id": 5314791016
  },
  {
    "name": "Jummah Khan resturant",
    "category": "amenity",
    "subcategory": "restaurant",
    "latitude": 25.0251587,
    "longitude": 66.8876887,
    "id": 5314791017
  },
  {
    "name": "Cafe SubhanAllah",
    "category": "amenity",
    "subcategory": "restaurant",
    "latitude": 25.0255724,
    "longitude": 66.8876851,
    "id": 5314791018
  },
  {
    "name": "Exide Battery Shop",
    "category": "shop",
    "subcategory": "yes",
    "latitude": 25.0252388,
    "longitude": 66.8869773,
    "id": 5314791019
  },
  {
    "name": "Mohammadi mosque",
    "category": "amenity",
    "subcategory": "place_of_worship",
    "latitude": 25.0239178,
    "longitude": 66.8837951,
    "id": 5314791821
  },
  {
    "name": "Bahar Ali Memorial Clinic And Meternity Home",
    "category": "amenity",
    "subcategory": "clinic",
    "latitude": 25.0236035,
    "longitude": 66.884057,
    "id": 5314791822
  },
  {
    "name": "Rind Academy High School Hub",
    "category": "amenity",
    "subcategory": "school",
    "latitude": 25.0250295,
    "longitude": 66.883205,
    "id": 5314791823
  },
  {
    "name": "Gulistan Hotel",
    "category": "amenity",
    "subcategory": "restaurant",
    "latitude": 25.0257038,
    "longitude": 66.8870837,
    "id": 5314791824
  },
  {
    "name": "Majid Market",
    "category": "amenity",
    "subcategory": "marketplace",
    "latitude": 25.0262415,
    "longitude": 66.8879505,
    "id": 5314791825
  },
  {
    "name": "New Baloch Kariana Store",
    "category": "shop",
    "subcategory": "supermarket",
    "latitude": 25.0267972,
    "longitude": 66.8870511,
    "id": 5314791827
  },
  {
    "name": "New Baloch Kariana Store",
    "category": "amenity",
    "subcategory": "place_of_worship",
    "latitude": 25.026416,
    "longitude": 66.8859202,
    "id": 5314791828
  },
  {
    "name": "Cafe Balochistan Resturant",
    "category": "amenity",
    "subcategory": "restaurant",
    "latitude": 25.0262041,
    "longitude": 66.8862299,
    "id": 5314791829
  },
  {
    "name": "Al Noor Biryani & Pakwan Centre",
    "category": "amenity",
    "subcategory": "restaurant",
    "latitude": 25.0262999,
    "longitude": 66.8861282,
    "id": 5314791830
  },
  {
    "name": "Baldeya Vegetable and Meat Market",
    "category": "amenity",
    "subcategory": "marketplace",
    "latitude": 25.0274455,
    "longitude": 66.8861892,
    "id": 5314791831
  },
  {
    "name": "Government Boys High School Hub",
    "category": "amenity",
    "subcategory": "school",
    "latitude": 25.0279281,
    "longitude": 66.8861664,
    "id": 5314791832
  },
  {
    "name": "Al Khalid",
    "category": "tourism",
    "subcategory": "hotel",
    "latitude": 25.0274941,
    "longitude": 66.8849094,
    "id": 5314791833
  },
  {
    "name": "Zahid Medical Centre & Maternity Home",
    "category": "amenity",
    "subcategory": "hospital",
    "latitude": 25.0271753,
    "longitude": 66.8848939,
    "id": 5314852221
  },
  {
    "name": "Jhulay Lal Electronics & Mobile Centre",
    "category": "shop",
    "subcategory": "mobile_phone",
    "latitude": 25.0272798,
    "longitude": 66.8847746,
    "id": 5314852222
  },
  {
    "name": "Masjid Gulzar-e-Madina Hub",
    "category": "amenity",
    "subcategory": "place_of_worship",
    "latitude": 25.0282761,
    "longitude": 66.8850697,
    "id": 5314852223
  },
  {
    "name": "Pakeeza Food Centre",
    "category": "amenity",
    "subcategory": "restaurant",
    "latitude": 25.0285532,
    "longitude": 66.8831771,
    "id": 5314852224
  },
  {
    "name": "Akhtar Resturant",
    "category": "amenity",
    "subcategory": "restaurant",
    "latitude": 25.0290244,
    "longitude": 66.8829161,
    "id": 5314852225
  },
  {
    "name": "Occidental Traders",
    "category": "shop",
    "subcategory": "hardware",
    "latitude": 25.0287826,
    "longitude": 66.8832634,
    "id": 5314852226
  },
  {
    "name": "میزان بینک",
    "category": "amenity",
    "subcategory": "bank",
    "latitude": 25.0290087,
    "longitude": 66.8825235,
    "id": 5314852227
  },
  {
    "name": "سونیری بینک",
    "category": "amenity",
    "subcategory": "bank",
    "latitude": 25.0294049,
    "longitude": 66.8817265,
    "id": 5314852228
  },
  {
    "name": "Fuel Station",
    "category": "amenity",
    "subcategory": "fuel",
    "latitude": 25.0295763,
    "longitude": 66.8817158,
    "id": 5314852229
  },
  {
    "name": "سی این جی",
    "category": "amenity",
    "subcategory": "fuel",
    "latitude": 25.0298873,
    "longitude": 66.8813389,
    "id": 5314852230
  },
  {
    "name": "Al-Saif Coach Booking Office",
    "category": "amenity",
    "subcategory": "bus_station",
    "latitude": 25.0300283,
    "longitude": 66.8812316,
    "id": 5314852231
  },
  {
    "name": "Bilal Hotel",
    "category": "amenity",
    "subcategory": "restaurant",
    "latitude": 25.0301632,
    "longitude": 66.8810626,
    "id": 5314852232
  },
  {
    "name": "Al Khalid Hotel Lasbela",
    "category": "amenity",
    "subcategory": "restaurant",
    "latitude": 25.030292,
    "longitude": 66.8808628,
    "id": 5314852233
  },
  {
    "name": "A-One",
    "category": "shop",
    "subcategory": "hardware",
    "latitude": 25.0304038,
    "longitude": 66.8807207,
    "id": 5314852234
  },
  {
    "name": "Student Burger",
    "category": "amenity",
    "subcategory": "restaurant",
    "latitude": 25.0304961,
    "longitude": 66.8805825,
    "id": 5314852235
  },
  {
    "name": "فیصل بینک",
    "category": "amenity",
    "subcategory": "bank",
    "latitude": 25.0307495,
    "longitude": 66.8802551,
    "id": 5314852236
  },
  {
    "name": "Khuzdar Petroleum Service",
    "category": "amenity",
    "subcategory": "fuel",
    "latitude": 25.0325214,
    "longitude": 66.8780323,
    "id": 5315974140
  },
  {
    "name": "Alrehyan Enterprises",
    "category": "shop",
    "subcategory": "yes",
    "latitude": 25.0328956,
    "longitude": 66.8775203,
    "id": 5315974141
  },
  {
    "name": "فیصل بینک",
    "category": "amenity",
    "subcategory": "bank",
    "latitude": 25.029887,
    "longitude": 66.8818351,
    "id": 5315974142
  },
  {
    "name": "Mengal Market",
    "category": "shop",
    "subcategory": "yes",
    "latitude": 25.0296658,
    "longitude": 66.8821114,
    "id": 5315974143
  },
  {
    "name": "Hatim Hardware store",
    "category": "shop",
    "subcategory": "hardware",
    "latitude": 25.0293664,
    "longitude": 66.8824957,
    "id": 5315974144
  },
  {
    "name": "Balochistan Medical Store",
    "category": "amenity",
    "subcategory": "pharmacy",
    "latitude": 25.0280085,
    "longitude": 66.8838164,
    "id": 5315974145
  },
  {
    "name": "Hub Communication",
    "category": "shop",
    "subcategory": "mobile_phone",
    "latitude": 25.0263226,
    "longitude": 66.8863726,
    "id": 5315974146
  },
  {
    "name": "مسجد",
    "category": "amenity",
    "subcategory": "place_of_worship",
    "latitude": 25.0238441,
    "longitude": 66.8878621,
    "id": 5315974147
  },
  {
    "name": "Balochistan College of Education",
    "category": "amenity",
    "subcategory": "college",
    "latitude": 25.0320713,
    "longitude": 66.887422,
    "id": 5315974149
  },
  {
    "name": "Madni Masjid",
    "category": "amenity",
    "subcategory": "place_of_worship",
    "latitude": 25.0313955,
    "longitude": 66.8861194,
    "id": 5315974150
  },
  {
    "name": "مسجد بلال",
    "category": "amenity",
    "subcategory": "place_of_worship",
    "latitude": 25.0319987,
    "longitude": 66.8830949,
    "id": 5315974151
  },
  {
    "name": "Zaib Ahmed Mobile Services And Repairing",
    "category": "shop",
    "subcategory": "electronics",
    "latitude": 25.0309669,
    "longitude": 66.8823636,
    "id": 5315974152
  },
  {
    "name": "Makki Masjid",
    "category": "amenity",
    "subcategory": "place_of_worship",
    "latitude": 25.0293008,
    "longitude": 66.8835129,
    "id": 5315974153
  },
  {
    "name": "Post office Hub",
    "category": "amenity",
    "subcategory": "post_office",
    "latitude": 25.0255264,
    "longitude": 66.889759,
    "id": 12572024642
  },
  {
    "name": "Bank Al-Habib",
    "category": "amenity",
    "subcategory": "bank",
    "latitude": 25.0348719,
    "longitude": 66.8760139,
    "id": 12586042885
  },
  {
    "name": "Cricket ground",
    "category": "leisure",
    "subcategory": "pitch",
    "latitude": 25.0351324,
    "longitude": 66.8779998,
    "id": 12586063416
  },
  {
    "name": "DARYASHAH TUCK SHOP",
    "category": "shop",
    "subcategory": "supermarket",
    "latitude": 25.0108395,
    "longitude": 66.8912444,
    "id": 12797105676
  },
  {
    "name": "General Store",
    "category": "shop",
    "subcategory": "supermarket",
    "latitude": 25.0351559,
    "longitude": 66.8794783,
    "id": 13111932796
  }
]