[
  {
    "name": "حب",
    "category": "place",
    "subcategory": "city",
    "latitude": 25.0255428,
    "longitude": 66.8840285,
    "id": 253185684
  },
  {
    "name": "Fuel Station",
    "category": "amenity",
    "subcategory": "fuel",
    "latitude": 25.0339156,
    "longitude": 66.876911,
    "id": 4058908401
  },
  {
    "name": "رئيس گوٹہ",
    "category": "tourism",
    "subcategory": "guest_house",
    "latitude": 24.9928516,
    "longitude": 66.8965714,
    "id": 4330026789
  },
  {
    "name": "Burhani Recreation Park",
    "category": "leisure",
    "subcategory": "water_park",
    "latitude": 25.0572937,
    "longitude": 66.8933175,
    "id": 5142615702
  },
  {
    "name": "Tapal Energy Power House",
    "category": "highway",
    "subcategory": "bus_stop",
    "latitude": 24.9936266,
    "longitude": 66.9001858,
    "id": 5176470442
  },
  {
    "name": "NBP Hub Chowki",
    "category": "amenity",
    "subcategory": "bank",
    "latitude": 24.9881335,
    "longitude": 66.904288,
    "id": 5176470443
  },
  {
    "name": "Al-Madina Hotel",
    "category": "amenity",
    "subcategory": "restaurant",
    "latitude": 25.0036186,
    "longitude": 66.8963177,
    "id": 5234606717
  },
  {
    "name": "ٹوٹل",
    "category": "amenity",
    "subcategory": "fuel",
    "latitude": 25.0086417,
    "longitude": 66.8938251,
    "id": 5234606718
  },
  {
    "name": "Agriauto Industry Limited",
    "category": "office",
    "subcategory": "company",
    "latitude": 25.0261385,
    "longitude": 66.8683484,
    "id": 5314600063
  },
  {
    "name": "Habib ADM Limited",
    "category": "office",
    "subcategory": "company",
    "latitude": 25.0277091,
    "longitude": 66.869286,
    "id": 5314600064
  },
  {
    "name": "Siddique Sons' Denim Mills",
    "category": "office",
    "subcategory": "company",
    "latitude": 25.0307691,
    "longitude": 66.8738412,
    "id": 5314600070
  },
  {
    "name": "Siddiqsons Denim Mills",
    "category": "office",
    "subcategory": "company",
    "latitude": 25.0337792,
    "longitude": 66.8763743,
    "id": 5314600071
  },
  {
    "name": "Gwadar Agricultural Workshop",
    "category": "office",
    "subcategory": "company",
    "latitude": 25.0341046,
    "longitude": 66.8757905,
    "id": 5314600072
  },
  {
    "name": "New Quetta Payala Hotel",
    "category": "amenity",
    "subcategory": "restaurant",
    "latitude": 25.0342334,
    "longitude": 66.8755907,
    "id": 5314600073
  },
  {
    "name": "الائیڈ بینک لمیٹڈ",
    "category": "amenity",
    "subcategory": "bank",
    "latitude": 25.0353097,
    "longitude": 66.8741078,
    "id": 5314600075
  },
  {
    "name": "Askari CNG",
    "category": "amenity",
    "subcategory": "fuel",
    "latitude": 25.0354591,
    "longitude": 66.8739482,
    "id": 5314600076
  },
  {
    "name": "سندھ بینک",
    "category": "amenity",
    "subcategory": "bank",
    "latitude": 25.0361044,
    "longitude": 66.8731461,
    "id": 5314600077
  },
  {
    "name": "Civic Centre",
    "category": "office",
    "subcategory": "government",
    "latitude": 25.0364578,
    "longitude": 66.8735899,
    "id": 5314600078
  },
  {
    "name": "Qaboos Hotel",
    "category": "amenity",
    "subcategory": "restaurant",
    "latitude": 25.0372399,
    "longitude": 66.8723923,
    "id": 5314600079
  },
  {
    "name": "Baloch Petroleum Service",
    "category": "amenity",
    "subcategory": "fuel",
    "latitude": 25.0408565,
    "longitude": 66.868004,
    "id": 5314600081
  },
  {
    "name": "یونی فوڈ انڈسٹریز",
    "category": "office",
    "subcategory": "company",
    "latitude": 25.0408042,
    "longitude": 66.8690059,
    "id": 5314600082
  },
  {
    "name": "NJ Auto Pvt Ltd",
    "category": "office",
    "subcategory": "company",
    "latitude": 25.0414138,
    "longitude": 66.8673257,
    "id": 5314600083
  },
  {
    "name": "Hub City Restuarant",
    "category": "amenity",
    "subcategory": "restaurant",
    "latitude": 25.0427845,
    "longitude": 66.8651483,
    "id": 5314600084
  },
  {
    "name": "Ziauddin Traders",
    "category": "amenity",
    "subcategory": "restaurant",
    "latitude": 25.0420108,
    "longitude": 66.8651955,
    "id": 5314600085
  },
  {
    "name": "Attock",
    "category": "amenity",
    "subcategory": "fuel",
    "latitude": 25.0429119,
    "longitude": 66.864189,
    "id": 5314600086
  },
  {
    "name": "Shakir Restaurant",
    "category": "amenity",
    "subcategory": "restaurant",
    "latitude": 25.0444976,
    "longitude": 66.8629287,
    "id": 5314600087
  },
  {
    "name": "Gatron Industries Ltd.",
    "category": "office",
    "subcategory": "company",
    "latitude": 25.0482705,
    "longitude": 66.8568548,
    "id": 5314600088
  },
  {
    "name": "Quetta Arbaz Hotel",
    "category": "amenity",
    "subcategory": "restaurant",
    "latitude": 25.0484377,
    "longitude": 66.8579584,
    "id": 5314600089
  },
  {
    "name": "Mustang Security Services",
    "category": "office",
    "subcategory": "company",
    "latitude": 25.0497882,
    "longitude": 66.8569241,
    "id": 5314600090
  },
  {
    "name": "Hub Grid Station",
    "category": "office",
    "subcategory": "energy_supplier",
    "latitude": 25.0510935,
    "longitude": 66.853301,
    "id": 5314600091
  },
  {
    "name": "MashAllah Hot",
    "category": "amenity",
    "subcategory": "restaurant",
    "latitude": 25.0524823,
    "longitude": 66.8516671,
    "id": 5314657023
  },
  {
    "name": "AL Saeed Mobile Communication",
    "category": "shop",
    "subcategory": "mobile_phone",
    "latitude": 25.0526293,
    "longitude": 66.8517342,
    "id": 5314657024
  },
  {
    "name": "PTCL",
    "category": "office",
    "subcategory": "telecommunication",
    "latitude": 25.0565992,
    "longitude": 66.8489036,
    "id": 5314657025
  },
  {
    "name": "Pioneer Cables",
    "category": "office",
    "subcategory": "company",
    "latitude": 25.0575322,
    "longitude": 66.8473505,
    "id": 5314657026
  },
  {
    "name": "Digital Dyeing (Private) Limited",
    "category": "office",
    "subcategory": "company",
    "latitude": 25.0536479,
    "longitude": 66.8674685,
    "id": 5314657027
  },
  {
    "name": "Diamond international Corp Ltd",
    "category": "office",
    "subcategory": "company",
    "latitude": 25.0535104,
    "longitude": 66.8686068,
    "id": 5314657028
  },
  {
    "name": "Np Cotton Mill",
    "category": "office",
    "subcategory": "company",
    "latitude": 25.0545212,
    "longitude": 66.8688186,
    "id": 5314657029
  },
  {
    "name": "MAL Lube Oil Blending Plant",
    "category": "office",
    "subcategory": "company",
    "latitude": 25.054769,
    "longitude": 66.8708705,
    "id": 5314657030
  },
  {
    "name": "Lasbela Chamber of Commerce & Industry",
    "category": "office",
    "subcategory": "government",
    "latitude": 25.0549075,
    "longitude": 66.8716537,
    "id": 5314657031
  },
  {
    "name": "Lasbela Industrial Development Authority Office",
    "category": "office",
    "subcategory": "government",
    "latitude": 25.0547301,
    "longitude": 66.8719702,
    "id": 5314657032
  },
  {
    "name": "Feroze1888 Mills Limited",
    "category": "office",
    "subcategory": "company",
    "latitude": 25.0552974,
    "longitude": 66.8689893,
    "id": 5314657033
  },
  {
    "name": "place_of_worship",
    "category": "amenity",
    "subcategory": "place_of_worship",
    "latitude": 25.0558359,
    "longitude": 66.8739847,
    "id": 5314657034
  },
  {
    "name": "ایچ بی ایل پاکستان",
    "category": "amenity",
    "subcategory": "bank",
    "latitude": 25.0554374,
    "longitude": 66.873231,
    "id": 5314657035
  },
  {
    "name": "شیل",
    "category": "amenity",
    "subcategory": "fuel",
    "latitude": 25.0533352,
    "longitude": 66.875213,
    "id": 5314657036
  },
  {
    "name": "Shafi Gluco Chem",
    "category": "office",
    "subcategory": "company",
    "latitude": 25.0526921,
    "longitude": 66.8752641,
    "id": 5314657037
  },
  {
    "name": "Pakistan Synthetics Limited",
    "category": "office",
    "subcategory": "company",
    "latitude": 25.0560757,
    "longitude": 66.8752729,
    "id": 5314657038
  },
  {
    "name": "Fortune Steel",
    "category": "office",
    "subcategory": "company",
    "latitude": 25.059507,
    "longitude": 66.8720523,
    "id": 5314657039
  },
  {
    "name": "GoodLuck Paper Mill",
    "category": "office",
    "subcategory": "company",
    "latitude": 25.0612331,
    "longitude": 66.8688678,
    "id": 5314657040
  },
  {
    "name": "AL HUSSAINI PACKAGES",
    "category": "office",
    "subcategory": "company",
    "latitude": 25.064479,
    "longitude": 66.8691272,
    "id": 5314657041
  },
  {
    "name": "Burhani Recreational Park",
    "category": "leisure",
    "subcategory": "water_park",
    "latitude": 25.0593496,
    "longitude": 66.8901549,
    "id": 5314657047
  },
  {
    "name": "Police station",
    "category": "amenity",
    "subcategory": "police",
    "latitude": 25.0556296,
    "longitude": 66.8815037,
    "id": 5314657048
  },
  {
    "name": "Mondelez Factory",
    "category": "office",
    "subcategory": "company",
    "latitude": 25.0607928,
    "longitude": 66.8753574,
    "id": 5314657049
  },
  {
    "name": "Dynea Pakistan Limited",
    "category": "office",
    "subcategory": "company",
    "latitude": 25.0630658,
    "longitude": 66.8743054,
    "id": 5314657050
  },
  {
    "name": "Bab e Balochistan Shopping Mall",
    "category": "shop",
    "subcategory": "mall",
    "latitude": 25.020376,
    "longitude": 66.8919454,
    "id": 5314791013
  },
  {
    "name": "CNG & PETROL PUMP",
    "category": "amenity",
    "subcategory": "fuel",
    "latitude": 25.0197014,
    "longitude": 66.8921375,
    "id": 5314791014
  },
  {
    "name": "PSO Fuel Station",
    "category": "amenity",
    "subcategory": "fuel",
    "latitude": 25.0238305,
    "longitude": 66.889076,
    "id": 5314791015
  },
  {
    "name": "Baluchistan Tyre Shop",
    "category": "shop",
    "subcategory": "tyres",
    "latitude": 25.0242472,
    "longitude": 66.8880538,
    "id": 5314791016
  },
  {
    "name": "Jummah Khan resturant",
    "category": "amenity",
    "subcategory": "restaurant",
    "latitude": 25.0251587,
    "longitude": 66.8876887,
    "id": 5314791017
  },
  {
    "name": "Cafe SubhanAllah",
    "category": "amenity",
    "subcategory": "restaurant",
    "latitude": 25.0255724,
    "longitude": 66.8876851,
    "id": 5314791018
  },
  {
    "name": "Exide Battery Shop",
    "category": "shop",
    "subcategory": "yes",
    "latitude": 25.0252388,
    "longitude": 66.8869773,
    "id": 5314791019
  },
  {
    "name": "parking",
    "category": "amenity",
    "subcategory": "parking",
    "latitude": 25.0240012,
    "longitude": 66.8845702,
    "id": 5314791020
  },
  {
    "name": "Mohammadi mosque",
    "category": "amenity",
    "subcategory": "place_of_worship",
    "latitude": 25.0239178,
    "longitude": 66.8837951,
    "id": 5314791821
  },
  {
    "name": "Bahar Ali Memorial Clinic And Meternity Home",
    "category": "amenity",
    "subcategory": "clinic",
    "latitude": 25.0236035,
    "longitude": 66.884057,
    "id": 5314791822
  },
  {
    "name": "Rind Academy High School Hub",
    "category": "amenity",
    "subcategory": "school",
    "latitude": 25.0250295,
    "longitude": 66.883205,
    "id": 5314791823
  },
  {
    "name": "Gulistan Hotel",
    "category": "amenity",
    "subcategory": "restaurant",
    "latitude": 25.0257038,
    "longitude": 66.8870837,
    "id": 5314791824
  },
  {
    "name": "Majid Market",
    "category": "amenity",
    "subcategory": "marketplace",
    "latitude": 25.0262415,
    "longitude": 66.8879505,
    "id": 5314791825
  },
  {
    "name": "New Baloch Kariana Store",
    "category": "shop",
    "subcategory": "supermarket",
    "latitude": 25.0267972,
    "longitude": 66.8870511,
    "id": 5314791827
  },
  {
    "name": "New Baloch Kariana Store",
    "category": "amenity",
    "subcategory": "place_of_worship",
    "latitude": 25.026416,
    "longitude": 66.8859202,
    "id": 5314791828
  },
  {
    "name": "Cafe Balochistan Resturant",
    "category": "amenity",
    "subcategory": "restaurant",
    "latitude": 25.0262041,
    "longitude": 66.8862299,
    "id": 5314791829
  },
  {
    "name": "Al Noor Biryani & Pakwan Centre",
    "category": "amenity",
    "subcategory": "restaurant",
    "latitude": 25.0262999,
    "longitude": 66.8861282,
    "id": 5314791830
  },
  {
    "name": "Baldeya Vegetable and Meat Market",
    "category": "amenity",
    "subcategory": "marketplace",
    "latitude": 25.0274455,
    "longitude": 66.8861892,
    "id": 5314791831
  },
  {
    "name": "Government Boys High School Hub",
    "category": "amenity",
    "subcategory": "school",
    "latitude": 25.0279281,
    "longitude": 66.8861664,
    "id": 5314791832
  },
  {
    "name": "Al Khalid",
    "category": "tourism",
    "subcategory": "hotel",
    "latitude": 25.0274941,
    "longitude": 66.8849094,
    "id": 5314791833
  },
  {
    "name": "Sheikh Muhammad Akram Lasi Colony",
    "category": "place",
    "subcategory": "village",
    "latitude": 25.0209343,
    "longitude": 66.8772831,
    "id": 5314852220
  },
  {
    "name": "Zahid Medical Centre & Maternity Home",
    "category": "amenity",
    "subcategory": "hospital",
    "latitude": 25.0271753,
    "longitude": 66.8848939,
    "id": 5314852221
  },
  {
    "name": "Jhulay Lal Electronics & Mobile Centre",
    "category": "shop",
    "subcategory": "mobile_phone",
    "latitude": 25.0272798,
    "longitude": 66.8847746,
    "id": 5314852222
  },
  {
    "name": "Masjid Gulzar-e-Madina Hub",
    "category": "amenity",
    "subcategory": "place_of_worship",
    "latitude": 25.0282761,
    "longitude": 66.8850697,
    "id": 5314852223
  },
  {
    "name": "Pakeeza Food Centre",
    "category": "amenity",
    "subcategory": "restaurant",
    "latitude": 25.0285532,
    "longitude": 66.8831771,
    "id": 5314852224
  },
  {
    "name": "Akhtar Resturant",
    "category": "amenity",
    "subcategory": "restaurant",
    "latitude": 25.0290244,
    "longitude": 66.8829161,
    "id": 5314852225
  },
  {
    "name": "Occidental Traders",
    "category": "shop",
    "subcategory": "hardware",
    "latitude": 25.0287826,
    "longitude": 66.8832634,
    "id": 5314852226
  },
  {
    "name": "میزان بینک",
    "category": "amenity",
    "subcategory": "bank",
    "latitude": 25.0290087,
    "longitude": 66.8825235,
    "id": 5314852227
  },
  {
    "name": "سونیری بینک",
    "category": "amenity",
    "subcategory": "bank",
    "latitude": 25.0294049,
    "longitude": 66.8817265,
    "id": 5314852228
  },
  {
    "name": "Fuel Station",
    "category": "amenity",
    "subcategory": "fuel",
    "latitude": 25.0295763,
    "longitude": 66.8817158,
    "id": 5314852229
  },
  {
    "name": "سی این جی",
    "category": "amenity",
    "subcategory": "fuel",
    "latitude": 25.0298873,
    "longitude": 66.8813389,
    "id": 5314852230
  },
  {
    "name": "Al-Saif Coach Booking Office",
    "category": "amenity",
    "subcategory": "bus_station",
    "latitude": 25.0300283,
    "longitude": 66.8812316,
    "id": 5314852231
  },
  {
    "name": "Bilal Hotel",
    "category": "amenity",
    "subcategory": "restaurant",
    "latitude": 25.0301632,
    "longitude": 66.8810626,
    "id": 5314852232
  },
  {
    "name": "Al Khalid Hotel Lasbela",
    "category": "amenity",
    "subcategory": "restaurant",
    "latitude": 25.030292,
    "longitude": 66.8808628,
    "id": 5314852233
  },
  {
    "name": "A-One",
    "category": "shop",
    "subcategory": "hardware",
    "latitude": 25.0304038,
    "longitude": 66.8807207,
    "id": 5314852234
  },
  {
    "name": "Student Burger",
    "category": "amenity",
    "subcategory": "restaurant",
    "latitude": 25.0304961,
    "longitude": 66.8805825,
    "id": 5314852235
  },
  {
    "name": "فیصل بینک",
    "category": "amenity",
    "subcategory": "bank",
    "latitude": 25.0307495,
    "longitude": 66.8802551,
    "id": 5314852236
  },
  {
    "name": "Asad Chowk",
    "category": "highway",
    "subcategory": "bus_stop",
    "latitude": 25.0307662,
    "longitude": 66.8810825,
    "id": 5314852237
  },
  {
    "name": "Khuzdar Petroleum Service",
    "category": "amenity",
    "subcategory": "fuel",
    "latitude": 25.0325214,
    "longitude": 66.8780323,
    "id": 5315974140
  },
  {
    "name": "Alrehyan Enterprises",
    "category": "shop",
    "subcategory": "yes",
    "latitude": 25.0328956,
    "longitude": 66.8775203,
    "id": 5315974141
  },
  {
    "name": "فیصل بینک",
    "category": "amenity",
    "subcategory": "bank",
    "latitude": 25.029887,
    "longitude": 66.8818351,
    "id": 5315974142
  },
  {
    "name": "Mengal Market",
    "category": "shop",
    "subcategory": "yes",
    "latitude": 25.0296658,
    "longitude": 66.8821114,
    "id": 5315974143
  },
  {
    "name": "Hatim Hardware store",
    "category": "shop",
    "subcategory": "hardware",
    "latitude": 25.0293664,
    "longitude": 66.8824957,
    "id": 5315974144
  },
  {
    "name": "Balochistan Medical Store",
    "category": "amenity",
    "subcategory": "pharmacy",
    "latitude": 25.0280085,
    "longitude": 66.8838164,
    "id": 5315974145
  },
  {
    "name": "Hub Communication",
    "category": "shop",
    "subcategory": "mobile_phone",
    "latitude": 25.0263226,
    "longitude": 66.8863726,
    "id": 5315974146
  },
  {
    "name": "مسجد",
    "category": "amenity",
    "subcategory": "place_of_worship",
    "latitude": 25.0238441,
    "longitude": 66.8878621,
    "id": 5315974147
  },
  {
    "name": "Mengal Colony",
    "category": "highway",
    "subcategory": "bus_stop",
    "latitude": 25.0302928,
    "longitude": 66.885723,
    "id": 5315974148
  },
  {
    "name": "Balochistan College of Education",
    "category": "amenity",
    "subcategory": "college",
    "latitude": 25.0320713,
    "longitude": 66.887422,
    "id": 5315974149
  },
  {
    "name": "Madni Masjid",
    "category": "amenity",
    "subcategory": "place_of_worship",
    "latitude": 25.0313955,
    "longitude": 66.8861194,
    "id": 5315974150
  },
  {
    "name": "مسجد بلال",
    "category": "amenity",
    "subcategory": "place_of_worship",
    "latitude": 25.0319987,
    "longitude": 66.8830949,
    "id": 5315974151
  },
  {
    "name": "Zaib Ahmed Mobile Services And Repairing",
    "category": "shop",
    "subcategory": "electronics",
    "latitude": 25.0309669,
    "longitude": 66.8823636,
    "id": 5315974152
  },
  {
    "name": "Makki Masjid",
    "category": "amenity",
    "subcategory": "place_of_worship",
    "latitude": 25.0293008,
    "longitude": 66.8835129,
    "id": 5315974153
  },
  {
    "name": "Press Club",
    "category": "office",
    "subcategory": "newspaper",
    "latitude": 25.0282969,
    "longitude": 66.8838847,
    "id": 5315974154
  },
  {
    "name": "Quice",
    "category": "office",
    "subcategory": "company",
    "latitude": 25.0651373,
    "longitude": 66.8759527,
    "id": 5317959475
  },
  {
    "name": "رئيس گوٹہ",
    "category": "place",
    "subcategory": "neighbourhood",
    "latitude": 24.9945618,
    "longitude": 66.896062,
    "id": 5869465995
  },
  {
    "name": "Emirate City Hub",
    "category": "place",
    "subcategory": "neighbourhood",
    "latitude": 25.0371081,
    "longitude": 66.859825,
    "id": 12570701627
  },
  {
    "name": "Sindh Stop",
    "category": "highway",
    "subcategory": "bus_stop",
    "latitude": 25.0239431,
    "longitude": 66.8887364,
    "id": 12572007262
  },
  {
    "name": "Post office Hub",
    "category": "amenity",
    "subcategory": "post_office",
    "latitude": 25.0255264,
    "longitude": 66.889759,
    "id": 12572024642
  },
  {
    "name": "Bank Al-Habib",
    "category": "amenity",
    "subcategory": "bank",
    "latitude": 25.0348719,
    "longitude": 66.8760139,
    "id": 12586042885
  },
  {
    "name": "Nichari house",
    "category": "place",
    "subcategory": "square",
    "latitude": 25.0304218,
    "longitude": 66.858719,
    "id": 12586057019
  },
  {
    "name": "Hub Bypass Chowk",
    "category": "place",
    "subcategory": "square",
    "latitude": 25.0169997,
    "longitude": 66.8541733,
    "id": 12586059937
  },
  {
    "name": "Cricket ground",
    "category": "leisure",
    "subcategory": "pitch",
    "latitude": 25.0351324,
    "longitude": 66.8779998,
    "id": 12586063416
  },
  {
    "name": "Mondar Chowk",
    "category": "place",
    "subcategory": "square",
    "latitude": 25.0267806,
    "longitude": 66.8856384,
    "id": 12717383239
  },
  {
    "name": "Jam Colony  جام کالونی",
    "category": "place",
    "subcategory": "neighbourhood",
    "latitude": 25.0433618,
    "longitude": 66.8755471,
    "id": 12717385195
  },
  {
    "name": "DARYASHAH TUCK SHOP",
    "category": "shop",
    "subcategory": "supermarket",
    "latitude": 25.0108395,
    "longitude": 66.8912444,
    "id": 12797105676
  },
  {
    "name": "General Store",
    "category": "shop",
    "subcategory": "supermarket",
    "latitude": 25.0351559,
    "longitude": 66.8794783,
    "id": 13111932796
  },
  {
    "name": "قومی شاہراہ 25",
    "category": "highway",
    "subcategory": "trunk",
    "latitude": 24.99749559868421,
    "longitude": 66.89916845394737,
    "id": 23383625
  },
  {
    "name": "قومی شاہراہ 25",
    "category": "highway",
    "subcategory": "trunk",
    "latitude": 25.020070754545454,
    "longitude": 66.89155005454545,
    "id": 23383758
  },
  {
    "name": "قومی شاہراہ 25",
    "category": "highway",
    "subcategory": "trunk",
    "latitude": 25.015898749999998,
    "longitude": 66.89195595,
    "id": 23383766
  },
  {
    "name": "قومی شاہراہ 25",
    "category": "highway",
    "subcategory": "trunk",
    "latitude": 25.02206765,
    "longitude": 66.8903821,
    "id": 23383768
  },
  {
    "name": "قومی شاہراہ 25",
    "category": "highway",
    "subcategory": "trunk",
    "latitude": 25.083777038596494,
    "longitude": 66.82729434385965,
    "id": 23383769
  },
  {
    "name": "حبکو روڈ",
    "category": "highway",
    "subcategory": "secondary",
    "latitude": 24.964030896774194,
    "longitude": 66.76522106225806,
    "id": 26807388
  },
  {
    "name": "Post office Road Hub",
    "category": "highway",
    "subcategory": "residential",
    "latitude": 25.02604788,
    "longitude": 66.89016679333334,
    "id": 45495691
  },
  {
    "name": "residential",
    "category": "highway",
    "subcategory": "residential",
    "latitude": 25.02521565,
    "longitude": 66.88873975,
    "id": 45495712
  },
  {
    "name": "Abdul Latif Lassi Road",
    "category": "highway",
    "subcategory": "residential",
    "latitude": 25.0238203,
    "longitude": 66.8845051882353,
    "id": 45495730
  },
  {
    "name": "residential",
    "category": "highway",
    "subcategory": "residential",
    "latitude": 25.02437389,
    "longitude": 66.89142658,
    "id": 45495734
  },
  {
    "name": "residential",
    "category": "highway",
    "subcategory": "residential",
    "latitude": 25.02376838,
    "longitude": 66.89125781999999,
    "id": 45495736
  },
  {
    "name": "residential",
    "category": "highway",
    "subcategory": "residential",
    "latitude": 25.025257614285714,
    "longitude": 66.89086777142857,
    "id": 45495750
  },
  {
    "name": "Tapal Energy Power Plant",
    "category": "landuse",
    "subcategory": "industrial",
    "latitude": 25.000436327272727,
    "longitude": 66.90684483636363,
    "id": 245536570
  },
  {
    "name": "secondary",
    "category": "highway",
    "subcategory": "secondary",
    "latitude": 24.955151652358488,
    "longitude": 66.80930625613207,
    "id": 296952714
  },
  {
    "name": "residential",
    "category": "highway",
    "subcategory": "residential",
    "latitude": 25.0249982,
    "longitude": 66.8905364,
    "id": 311362121
  },
  {
    "name": "residential",
    "category": "highway",
    "subcategory": "residential",
    "latitude": 25.025869742857143,
    "longitude": 66.89162518571429,
    "id": 311362122
  },
  {
    "name": "residential",
    "category": "highway",
    "subcategory": "residential",
    "latitude": 25.0250732,
    "longitude": 66.89172245,
    "id": 311362123
  },
  {
    "name": "residential",
    "category": "highway",
    "subcategory": "residential",
    "latitude": 25.025342549999998,
    "longitude": 66.89146070000001,
    "id": 311362124
  },
  {
    "name": "residential",
    "category": "highway",
    "subcategory": "residential",
    "latitude": 25.02548855,
    "longitude": 66.89131889999999,
    "id": 311362125
  },
  {
    "name": "residential",
    "category": "highway",
    "subcategory": "residential",
    "latitude": 25.0258265,
    "longitude": 66.89099035000001,
    "id": 311362126
  },
  {
    "name": "residential",
    "category": "highway",
    "subcategory": "residential",
    "latitude": 25.0260829,
    "longitude": 66.8907413,
    "id": 311362127
  },
  {
    "name": "residential",
    "category": "highway",
    "subcategory": "residential",
    "latitude": 25.0228857,
    "longitude": 66.89156515555555,
    "id": 311362128
  },
  {
    "name": "residential",
    "category": "highway",
    "subcategory": "residential",
    "latitude": 25.02274903333333,
    "longitude": 66.89129086666667,
    "id": 311362129
  },
  {
    "name": "residential",
    "category": "highway",
    "subcategory": "residential",
    "latitude": 25.0230748625,
    "longitude": 66.893835125,
    "id": 311362130
  },
  {
    "name": "residential",
    "category": "highway",
    "subcategory": "residential",
    "latitude": 25.02503012777778,
    "longitude": 66.89625101666667,
    "id": 311362131
  },
  {
    "name": "residential",
    "category": "highway",
    "subcategory": "residential",
    "latitude": 25.023591566666667,
    "longitude": 66.8930175,
    "id": 311362132
  },
  {
    "name": "residential",
    "category": "highway",
    "subcategory": "residential",
    "latitude": 25.0241506,
    "longitude": 66.89215296666667,
    "id": 311362133
  },
  {
    "name": "residential",
    "category": "highway",
    "subcategory": "residential",
    "latitude": 25.0250455,
    "longitude": 66.893566,
    "id": 311362134
  },
  {
    "name": "residential",
    "category": "highway",
    "subcategory": "residential",
    "latitude": 25.02812528181818,
    "longitude": 66.8943122,
    "id": 311362135
  },
  {
    "name": "residential",
    "category": "highway",
    "subcategory": "residential",
    "latitude": 25.0269197375,
    "longitude": 66.89199173749999,
    "id": 311362136
  },
  {
    "name": "residential",
    "category": "highway",
    "subcategory": "residential",
    "latitude": 25.027657700000002,
    "longitude": 66.89050076666668,
    "id": 311362138
  },
  {
    "name": "residential",
    "category": "highway",
    "subcategory": "residential",
    "latitude": 25.027553775,
    "longitude": 66.89252355,
    "id": 311362139
  },
  {
    "name": "residential",
    "category": "highway",
    "subcategory": "residential",
    "latitude": 25.0284390875,
    "longitude": 66.892304775,
    "id": 311362140
  },
  {
    "name": "residential",
    "category": "highway",
    "subcategory": "residential",
    "latitude": 25.026374975,
    "longitude": 66.89385145,
    "id": 311362141
  },
  {
    "name": "residential",
    "category": "highway",
    "subcategory": "residential",
    "latitude": 25.02746835,
    "longitude": 66.89478174999999,
    "id": 311362142
  },
  {
    "name": "residential",
    "category": "highway",
    "subcategory": "residential",
    "latitude": 25.02698925,
    "longitude": 66.890287,
    "id": 311362143
  },
  {
    "name": "residential",
    "category": "highway",
    "subcategory": "residential",
    "latitude": 25.02724578333333,
    "longitude": 66.8895225,
    "id": 311362144
  },
  {
    "name": "residential",
    "category": "highway",
    "subcategory": "residential",
    "latitude": 25.0267609,
    "longitude": 66.88999,
    "id": 311362145
  },
  {
    "name": "residential",
    "category": "highway",
    "subcategory": "residential",
    "latitude": 25.02607835,
    "longitude": 66.88925265,
    "id": 311362146
  },
  {
    "name": "residential",
    "category": "highway",
    "subcategory": "residential",
    "latitude": 25.0265855875,
    "longitude": 66.8882696875,
    "id": 311362147
  },
  {
    "name": "residential",
    "category": "highway",
    "subcategory": "residential",
    "latitude": 25.02960964,
    "longitude": 66.89240818,
    "id": 311362148
  },
  {
    "name": "residential",
    "category": "highway",
    "subcategory": "residential",
    "latitude": 25.0293334375,
    "longitude": 66.893293525,
    "id": 311362149
  },
  {
    "name": "tertiary",
    "category": "highway",
    "subcategory": "tertiary",
    "latitude": 25.029768257142855,
    "longitude": 66.89607297857142,
    "id": 311362151
  },
  {
    "name": "residential",
    "category": "highway",
    "subcategory": "residential",
    "latitude": 25.02920965,
    "longitude": 66.894803125,
    "id": 311362152
  },
  {
    "name": "residential",
    "category": "highway",
    "subcategory": "residential",
    "latitude": 25.029500275,
    "longitude": 66.893840775,
    "id": 311362153
  },
  {
    "name": "residential",
    "category": "highway",
    "subcategory": "residential",
    "latitude": 25.029786733333335,
    "longitude": 66.89475816666668,
    "id": 311362154
  },
  {
    "name": "residential",
    "category": "highway",
    "subcategory": "residential",
    "latitude": 25.03142315,
    "longitude": 66.893736625,
    "id": 311362155
  },
  {
    "name": "tertiary",
    "category": "highway",
    "subcategory": "tertiary",
    "latitude": 25.02576610769231,
    "longitude": 66.88383254615384,
    "id": 311390283
  },
  {
    "name": "industrial",
    "category": "landuse",
    "subcategory": "industrial",
    "latitude": 25.027669366666668,
    "longitude": 66.87059853333334,
    "id": 311390284
  },
  {
    "name": "Jam Ghulam Qadir Khan Cricket Stadium",
    "category": "leisure",
    "subcategory": "pitch",
    "latitude": 25.036675539999997,
    "longitude": 66.87537024,
    "id": 311391876
  },
  {
    "name": "park",
    "category": "leisure",
    "subcategory": "park",
    "latitude": 25.0368574375,
    "longitude": 66.87499836875,
    "id": 311391924
  },
  {
    "name": "Civic Centre",
    "category": "office",
    "subcategory": "government",
    "latitude": 25.037072933333334,
    "longitude": 66.8740072,
    "id": 311392620
  },
  {
    "name": "tertiary",
    "category": "highway",
    "subcategory": "tertiary",
    "latitude": 25.024183684210527,
    "longitude": 66.87507768157894,
    "id": 311407691
  },
  {
    "name": "tertiary",
    "category": "highway",
    "subcategory": "tertiary",
    "latitude": 25.02424895,
    "longitude": 66.8811261,
    "id": 311407692
  },
  {
    "name": "residential",
    "category": "highway",
    "subcategory": "residential",
    "latitude": 25.03391950357143,
    "longitude": 66.88988272499999,
    "id": 311874898
  },
  {
    "name": "residential",
    "category": "highway",
    "subcategory": "residential",
    "latitude": 25.0331935,
    "longitude": 66.8922026,
    "id": 311874899
  },
  {
    "name": "residential",
    "category": "highway",
    "subcategory": "residential",
    "latitude": 25.0325824,
    "longitude": 66.89206753333333,
    "id": 311874900
  },
  {
    "name": "residential",
    "category": "highway",
    "subcategory": "residential",
    "latitude": 25.03333365,
    "longitude": 66.89067664999999,
    "id": 311874902
  },
  {
    "name": "tertiary",
    "category": "highway",
    "subcategory": "tertiary",
    "latitude": 25.03162643846154,
    "longitude": 66.93478617832169,
    "id": 403525051
  },
  {
    "name": "Charhaai Road چڑھائی روڈ",
    "category": "highway",
    "subcategory": "tertiary",
    "latitude": 25.027484942857143,
    "longitude": 66.91186853766234,
    "id": 403525057
  },
  {
    "name": "farmyard",
    "category": "landuse",
    "subcategory": "farmyard",
    "latitude": 25.02143242,
    "longitude": 66.9110856,
    "id": 403525058
  },
  {
    "name": "residential",
    "category": "landuse",
    "subcategory": "residential",
    "latitude": 25.021329362499998,
    "longitude": 66.91532215,
    "id": 403525059
  },
  {
    "name": "orchard",
    "category": "landuse",
    "subcategory": "orchard",
    "latitude": 25.0220395,
    "longitude": 66.92045710000001,
    "id": 403525060
  },
  {
    "name": "orchard",
    "category": "landuse",
    "subcategory": "orchard",
    "latitude": 25.02550196,
    "longitude": 66.92205116,
    "id": 403525061
  },
  {
    "name": "farmland",
    "category": "landuse",
    "subcategory": "farmland",
    "latitude": 25.027550283333337,
    "longitude": 66.91636790833333,
    "id": 403525062
  },
  {
    "name": "tertiary",
    "category": "highway",
    "subcategory": "tertiary",
    "latitude": 25.047076629411762,
    "longitude": 66.89115452352941,
    "id": 403525063
  },
  {
    "name": "residential",
    "category": "highway",
    "subcategory": "residential",
    "latitude": 25.0530263375,
    "longitude": 66.88591579999999,
    "id": 403525064
  },
  {
    "name": "tertiary",
    "category": "highway",
    "subcategory": "tertiary",
    "latitude": 25.049078493333333,
    "longitude": 66.88432253333333,
    "id": 403525065
  },
  {
    "name": "residential",
    "category": "highway",
    "subcategory": "residential",
    "latitude": 25.049723583333332,
    "longitude": 66.88575796666667,
    "id": 403525066
  },
  {
    "name": "residential",
    "category": "highway",
    "subcategory": "residential",
    "latitude": 25.047642800000002,
    "longitude": 66.88534981666668,
    "id": 403525067
  },
  {
    "name": "residential",
    "category": "highway",
    "subcategory": "residential",
    "latitude": 25.04795815,
    "longitude": 66.884139325,
    "id": 403525068
  },
  {
    "name": "residential",
    "category": "highway",
    "subcategory": "residential",
    "latitude": 25.048567,
    "longitude": 66.88338585,
    "id": 403525069
  },
  {
    "name": "residential",
    "category": "highway",
    "subcategory": "residential",
    "latitude": 25.0486811,
    "longitude": 66.88722569999999,
    "id": 403525070
  },
  {
    "name": "residential",
    "category": "highway",
    "subcategory": "residential",
    "latitude": 25.05138075,
    "longitude": 66.88606684999999,
    "id": 403525071
  },
  {
    "name": "residential",
    "category": "highway",
    "subcategory": "residential",
    "latitude": 25.051410150000002,
    "longitude": 66.88719337500001,
    "id": 403525072
  },
  {
    "name": "residential",
    "category": "highway",
    "subcategory": "residential",
    "latitude": 25.0507945,
    "longitude": 66.88433660000001,
    "id": 403525073
  },
  {
    "name": "residential",
    "category": "highway",
    "subcategory": "residential",
    "latitude": 25.05187255,
    "longitude": 66.88429485,
    "id": 403525074
  },
  {
    "name": "residential",
    "category": "highway",
    "subcategory": "residential",
    "latitude": 25.0519752,
    "longitude": 66.88811545,
    "id": 403525075
  },
  {
    "name": "residential",
    "category": "highway",
    "subcategory": "residential",
    "latitude": 25.05089525,
    "longitude": 66.8881701,
    "id": 403525076
  },
  {
    "name": "residential",
    "category": "highway",
    "subcategory": "residential",
    "latitude": 25.0475782,
    "longitude": 66.88692845,
    "id": 403525077
  },
  {
    "name": "residential",
    "category": "highway",
    "subcategory": "residential",
    "latitude": 25.047906849999997,
    "longitude": 66.8847422,
    "id": 403525078
  },
  {
    "name": "residential",
    "category": "highway",
    "subcategory": "residential",
    "latitude": 25.0464869,
    "longitude": 66.8863036,
    "id": 403525079
  },
  {
    "name": "tertiary",
    "category": "highway",
    "subcategory": "tertiary",
    "latitude": 25.052501733333333,
    "longitude": 66.89563996666666,
    "id": 403525080
  },
  {
    "name": "park",
    "category": "leisure",
    "subcategory": "park",
    "latitude": 25.058486400000003,
    "longitude": 66.8915631888889,
    "id": 403525081
  },
  {
    "name": "service",
    "category": "highway",
    "subcategory": "service",
    "latitude": 25.05697538,
    "longitude": 66.88948341,
    "id": 403525082
  },
  {
    "name": "service",
    "category": "highway",
    "subcategory": "service",
    "latitude": 25.059566866666668,
    "longitude": 66.89186676666667,
    "id": 403525083
  },
  {
    "name": "service",
    "category": "highway",
    "subcategory": "service",
    "latitude": 25.0600901,
    "longitude": 66.89253965,
    "id": 403525084
  },
  {
    "name": "service",
    "category": "highway",
    "subcategory": "service",
    "latitude": 25.0585359,
    "longitude": 66.89407109999999,
    "id": 403525085
  },
  {
    "name": "service",
    "category": "highway",
    "subcategory": "service",
    "latitude": 25.058078895,
    "longitude": 66.89226622,
    "id": 403525086
  },
  {
    "name": "residential",
    "category": "landuse",
    "subcategory": "residential",
    "latitude": 25.04954154,
    "longitude": 66.89827196,
    "id": 403525087
  },
  {
    "name": "residential",
    "category": "highway",
    "subcategory": "residential",
    "latitude": 25.055748649999998,
    "longitude": 66.88707258333334,
    "id": 403525088
  },
  {
    "name": "residential",
    "category": "highway",
    "subcategory": "residential",
    "latitude": 25.054468616666668,
    "longitude": 66.88898473333333,
    "id": 403525089
  },
  {
    "name": "residential",
    "category": "highway",
    "subcategory": "residential",
    "latitude": 25.05419123333333,
    "longitude": 66.88756213333333,
    "id": 403525090
  },
  {
    "name": "residential",
    "category": "highway",
    "subcategory": "residential",
    "latitude": 25.054195800000002,
    "longitude": 66.88836244999999,
    "id": 403525091
  },
  {
    "name": "tertiary",
    "category": "highway",
    "subcategory": "tertiary",
    "latitude": 25.055348714285714,
    "longitude": 66.87958295714286,
    "id": 403525092
  },
  {
    "name": "tertiary",
    "category": "highway",
    "subcategory": "tertiary",
    "latitude": 25.055454764285713,
    "longitude": 66.8787638,
    "id": 403525093
  },
  {
    "name": "residential",
    "category": "highway",
    "subcategory": "residential",
    "latitude": 25.05782458,
    "longitude": 66.87913942,
    "id": 403525094
  },
  {
    "name": "residential",
    "category": "highway",
    "subcategory": "residential",
    "latitude": 25.056805439999998,
    "longitude": 66.88090294,
    "id": 403525095
  },
  {
    "name": "residential",
    "category": "highway",
    "subcategory": "residential",
    "latitude": 25.0587567,
    "longitude": 66.87997155,
    "id": 403525096
  },
  {
    "name": "residential",
    "category": "highway",
    "subcategory": "residential",
    "latitude": 25.05769915,
    "longitude": 66.88000704999999,
    "id": 403525097
  },
  {
    "name": "residential",
    "category": "highway",
    "subcategory": "residential",
    "latitude": 25.056604,
    "longitude": 66.8800438,
    "id": 403525098
  },
  {
    "name": "residential",
    "category": "highway",
    "subcategory": "residential",
    "latitude": 25.059711172727273,
    "longitude": 66.8841626181818,
    "id": 403525099
  },
  {
    "name": "residential",
    "category": "highway",
    "subcategory": "residential",
    "latitude": 25.059574066666666,
    "longitude": 66.88336883333334,
    "id": 403525100
  },
  {
    "name": "residential",
    "category": "highway",
    "subcategory": "residential",
    "latitude": 25.058937049999997,
    "longitude": 66.88369785,
    "id": 403525101
  },
  {
    "name": "residential",
    "category": "highway",
    "subcategory": "residential",
    "latitude": 25.0605844,
    "longitude": 66.88375065,
    "id": 403525102
  },
  {
    "name": "residential",
    "category": "highway",
    "subcategory": "residential",
    "latitude": 25.0542403,
    "longitude": 66.884901,
    "id": 403525103
  },
  {
    "name": "residential",
    "category": "highway",
    "subcategory": "residential",
    "latitude": 25.059124375,
    "longitude": 66.877909175,
    "id": 403525104
  },
  {
    "name": "tertiary",
    "category": "highway",
    "subcategory": "tertiary",
    "latitude": 25.061397706666664,
    "longitude": 66.87418182,
    "id": 403525105
  },
  {
    "name": "tertiary",
    "category": "highway",
    "subcategory": "tertiary",
    "latitude": 25.05372294,
    "longitude": 66.86633732499999,
    "id": 403525106
  },
  {
    "name": "tertiary",
    "category": "highway",
    "subcategory": "tertiary",
    "latitude": 25.061912970588235,
    "longitude": 66.87093444117647,
    "id": 403525107
  },
  {
    "name": "tertiary",
    "category": "highway",
    "subcategory": "tertiary",
    "latitude": 25.061672075,
    "longitude": 66.871442425,
    "id": 403525109
  },
  {
    "name": "tertiary",
    "category": "highway",
    "subcategory": "tertiary",
    "latitude": 25.06162685,
    "longitude": 66.87157486666666,
    "id": 403525110
  },
  {
    "name": "residential",
    "category": "highway",
    "subcategory": "residential",
    "latitude": 25.06048856,
    "longitude": 66.87098426,
    "id": 403525111
  },
  {
    "name": "residential",
    "category": "highway",
    "subcategory": "residential",
    "latitude": 25.059683,
    "longitude": 66.87285263999999,
    "id": 403525112
  },
  {
    "name": "residential",
    "category": "highway",
    "subcategory": "residential",
    "latitude": 25.0610429,
    "longitude": 66.87086925,
    "id": 403525113
  },
  {
    "name": "residential",
    "category": "highway",
    "subcategory": "residential",
    "latitude": 25.059135166666664,
    "longitude": 66.8704914,
    "id": 403525114
  },
  {
    "name": "residential",
    "category": "highway",
    "subcategory": "residential",
    "latitude": 25.0593455,
    "longitude": 66.87003315,
    "id": 403525115
  },
  {
    "name": "residential",
    "category": "highway",
    "subcategory": "residential",
    "latitude": 25.05908306666667,
    "longitude": 66.87169033333333,
    "id": 403525116
  },
  {
    "name": "residential",
    "category": "highway",
    "subcategory": "residential",
    "latitude": 25.05915135,
    "longitude": 66.872277,
    "id": 403525117
  },
  {
    "name": "residential",
    "category": "highway",
    "subcategory": "residential",
    "latitude": 25.059399300000003,
    "longitude": 66.87348845,
    "id": 403525118
  },
  {
    "name": "residential",
    "category": "highway",
    "subcategory": "residential",
    "latitude": 25.0617564,
    "longitude": 66.87747485999999,
    "id": 403525119
  },
  {
    "name": "tertiary",
    "category": "highway",
    "subcategory": "tertiary",
    "latitude": 25.0629633625,
    "longitude": 66.8795514,
    "id": 403525120
  },
  {
    "name": "tertiary",
    "category": "highway",
    "subcategory": "tertiary",
    "latitude": 25.0630602,
    "longitude": 66.88009368571429,
    "id": 403525121
  },
  {
    "name": "residential",
    "category": "highway",
    "subcategory": "residential",
    "latitude": 25.06234665,
    "longitude": 66.8785077,
    "id": 403525122
  },
  {
    "name": "residential",
    "category": "highway",
    "subcategory": "residential",
    "latitude": 25.06229405,
    "longitude": 66.87609425,
    "id": 403532092
  },
  {
    "name": "residential",
    "category": "highway",
    "subcategory": "residential",
    "latitude": 25.061563814285712,
    "longitude": 66.88004265714287,
    "id": 403532093
  },
  {
    "name": "residential",
    "category": "highway",
    "subcategory": "residential",
    "latitude": 25.05037437,
    "longitude": 66.8820168,
    "id": 403532095
  },
  {
    "name": "residential",
    "category": "highway",
    "subcategory": "residential",
    "latitude": 25.0527714,
    "longitude": 66.87862268571429,
    "id": 403532096
  },
  {
    "name": "residential",
    "category": "highway",
    "subcategory": "residential",
    "latitude": 25.05463696,
    "longitude": 66.87533026,
    "id": 403532097
  },
  {
    "name": "tertiary",
    "category": "highway",
    "subcategory": "tertiary",
    "latitude": 25.054943033333334,
    "longitude": 66.87443173333334,
    "id": 403532098
  },
  {
    "name": "Jaam Colony Road",
    "category": "highway",
    "subcategory": "tertiary",
    "latitude": 25.046714899999998,
    "longitude": 66.87455416,
    "id": 403532099
  },
  {
    "name": "residential",
    "category": "highway",
    "subcategory": "residential",
    "latitude": 25.04264182758621,
    "longitude": 66.87755345862068,
    "id": 403532100
  },
  {
    "name": "residential",
    "category": "highway",
    "subcategory": "residential",
    "latitude": 25.04307987857143,
    "longitude": 66.87163035714285,
    "id": 403532101
  },
  {
    "name": "residential",
    "category": "highway",
    "subcategory": "residential",
    "latitude": 25.044315657142857,
    "longitude": 66.87088498571428,
    "id": 403532102
  },
  {
    "name": "residential",
    "category": "highway",
    "subcategory": "residential",
    "latitude": 25.0448410875,
    "longitude": 66.8688497375,
    "id": 403532103
  },
  {
    "name": "residential",
    "category": "highway",
    "subcategory": "residential",
    "latitude": 25.04572865,
    "longitude": 66.8663736,
    "id": 403532104
  },
  {
    "name": "residential",
    "category": "highway",
    "subcategory": "residential",
    "latitude": 25.0440186,
    "longitude": 66.86641700000001,
    "id": 403532105
  },
  {
    "name": "residential",
    "category": "highway",
    "subcategory": "residential",
    "latitude": 25.046180133333337,
    "longitude": 66.86474913333333,
    "id": 403532106
  },
  {
    "name": "residential",
    "category": "highway",
    "subcategory": "residential",
    "latitude": 25.04804872,
    "longitude": 66.86484862,
    "id": 403532107
  },
  {
    "name": "residential",
    "category": "highway",
    "subcategory": "residential",
    "latitude": 25.048778425000002,
    "longitude": 66.867222925,
    "id": 403532108
  },
  {
    "name": "residential",
    "category": "highway",
    "subcategory": "residential",
    "latitude": 25.05056755,
    "longitude": 66.8632878,
    "id": 403532109
  },
  {
    "name": "basin",
    "category": "landuse",
    "subcategory": "basin",
    "latitude": 25.044424016666667,
    "longitude": 66.85755643333333,
    "id": 403532110
  },
  {
    "name": "basin",
    "category": "landuse",
    "subcategory": "basin",
    "latitude": 25.044165720000002,
    "longitude": 66.85830231999999,
    "id": 403532112
  },
  {
    "name": "basin",
    "category": "landuse",
    "subcategory": "basin",
    "latitude": 25.049008349999998,
    "longitude": 66.85233095,
    "id": 403532114
  },
  {
    "name": "basin",
    "category": "landuse",
    "subcategory": "basin",
    "latitude": 25.049496966666666,
    "longitude": 66.85137421666667,
    "id": 403532115
  },
  {
    "name": "residential",
    "category": "highway",
    "subcategory": "residential",
    "latitude": 25.04465774,
    "longitude": 66.85454318666667,
    "id": 403532117
  },
  {
    "name": "tertiary",
    "category": "highway",
    "subcategory": "tertiary",
    "latitude": 25.05374875263158,
    "longitude": 66.86681679473685,
    "id": 403532118
  },
  {
    "name": "tertiary",
    "category": "highway",
    "subcategory": "tertiary",
    "latitude": 25.060632766666668,
    "longitude": 66.87407234,
    "id": 403532119
  },
  {
    "name": "residential",
    "category": "highway",
    "subcategory": "residential",
    "latitude": 25.058565350000002,
    "longitude": 66.8760873,
    "id": 403532120
  },
  {
    "name": "water",
    "category": "natural",
    "subcategory": "water",
    "latitude": 25.01528574,
    "longitude": 66.86383788,
    "id": 403532130
  },
  {
    "name": "residential",
    "category": "highway",
    "subcategory": "residential",
    "latitude": 25.019103591666667,
    "longitude": 66.8588489,
    "id": 403532132
  },
  {
    "name": "residential",
    "category": "landuse",
    "subcategory": "residential",
    "latitude": 25.019375009999997,
    "longitude": 66.85814945,
    "id": 403532133
  },
  {
    "name": "residential",
    "category": "landuse",
    "subcategory": "residential",
    "latitude": 25.02038525714286,
    "longitude": 66.86396284285715,
    "id": 403532134
  },
  {
    "name": "residential",
    "category": "landuse",
    "subcategory": "residential",
    "latitude": 25.025438700000002,
    "longitude": 66.85658184,
    "id": 403532135
  },
  {
    "name": "residential",
    "category": "landuse",
    "subcategory": "residential",
    "latitude": 25.02580837777778,
    "longitude": 66.85078428888889,
    "id": 403532137
  },
  {
    "name": "residential",
    "category": "highway",
    "subcategory": "residential",
    "latitude": 25.0212322,
    "longitude": 66.855674375,
    "id": 403532138
  },
  {
    "name": "residential",
    "category": "landuse",
    "subcategory": "residential",
    "latitude": 25.02138938,
    "longitude": 66.85563862,
    "id": 403532139
  },
  {
    "name": "residential",
    "category": "landuse",
    "subcategory": "residential",
    "latitude": 25.02587947142857,
    "longitude": 66.86210665714286,
    "id": 403532140
  },
  {
    "name": "residential",
    "category": "landuse",
    "subcategory": "residential",
    "latitude": 25.026438716666664,
    "longitude": 66.86745179166667,
    "id": 403532142
  },
  {
    "name": "residential",
    "category": "landuse",
    "subcategory": "residential",
    "latitude": 25.028642100000003,
    "longitude": 66.8680497,
    "id": 403532143
  },
  {
    "name": "basin",
    "category": "landuse",
    "subcategory": "basin",
    "latitude": 25.0270122,
    "longitude": 66.8710165,
    "id": 403532144
  },
  {
    "name": "basin",
    "category": "landuse",
    "subcategory": "basin",
    "latitude": 25.026986360000002,
    "longitude": 66.87037706,
    "id": 403532146
  },
  {
    "name": "basin",
    "category": "landuse",
    "subcategory": "basin",
    "latitude": 25.02701772,
    "longitude": 66.86965816,
    "id": 403532147
  },
  {
    "name": "basin",
    "category": "landuse",
    "subcategory": "basin",
    "latitude": 25.02645124,
    "longitude": 66.86982384000001,
    "id": 403532148
  },
  {
    "name": "residential",
    "category": "landuse",
    "subcategory": "residential",
    "latitude": 25.03031908,
    "longitude": 66.87242102,
    "id": 403532149
  },
  {
    "name": "residential",
    "category": "highway",
    "subcategory": "residential",
    "latitude": 25.032709399999998,
    "longitude": 66.86783104285715,
    "id": 403532151
  },
  {
    "name": "residential",
    "category": "highway",
    "subcategory": "residential",
    "latitude": 25.0335269375,
    "longitude": 66.8691579,
    "id": 403532153
  },
  {
    "name": "residential",
    "category": "highway",
    "subcategory": "residential",
    "latitude": 25.03325192,
    "longitude": 66.86864724,
    "id": 403532154
  },
  {
    "name": "residential",
    "category": "highway",
    "subcategory": "residential",
    "latitude": 25.03406556666667,
    "longitude": 66.8680369,
    "id": 403532155
  },
  {
    "name": "residential",
    "category": "highway",
    "subcategory": "residential",
    "latitude": 25.033792000000002,
    "longitude": 66.86835076666667,
    "id": 403532156
  },
  {
    "name": "residential",
    "category": "highway",
    "subcategory": "residential",
    "latitude": 25.0335632,
    "longitude": 66.86877204,
    "id": 403532158
  },
  {
    "name": "residential",
    "category": "highway",
    "subcategory": "residential",
    "latitude": 25.032134099999997,
    "longitude": 66.86997456666667,
    "id": 403532159
  },
  {
    "name": "residential",
    "category": "highway",
    "subcategory": "residential",
    "latitude": 25.03231476666667,
    "longitude": 66.86960676666666,
    "id": 403532160
  },
  {
    "name": "residential",
    "category": "highway",
    "subcategory": "residential",
    "latitude": 25.03185395,
    "longitude": 66.86961005,
    "id": 403532161
  },
  {
    "name": "residential",
    "category": "landuse",
    "subcategory": "residential",
    "latitude": 25.032291822222223,
    "longitude": 66.87266386666667,
    "id": 403532162
  },
  {
    "name": "residential",
    "category": "highway",
    "subcategory": "residential",
    "latitude": 25.030579566666663,
    "longitude": 66.87076804166666,
    "id": 403532168
  },
  {
    "name": "residential",
    "category": "highway",
    "subcategory": "residential",
    "latitude": 25.030803199999998,
    "longitude": 66.871036,
    "id": 403532170
  },
  {
    "name": "residential",
    "category": "highway",
    "subcategory": "residential",
    "latitude": 25.03654126666667,
    "longitude": 66.87122743333333,
    "id": 403532171
  },
  {
    "name": "industrial",
    "category": "landuse",
    "subcategory": "industrial",
    "latitude": 25.035949157142856,
    "longitude": 66.86310390000001,
    "id": 403532172
  },
  {
    "name": "Emirate City Road",
    "category": "highway",
    "subcategory": "residential",
    "latitude": 25.033828276923074,
    "longitude": 66.85940026153845,
    "id": 403532173
  },
  {
    "name": "residential",
    "category": "highway",
    "subcategory": "residential",
    "latitude": 25.03999775,
    "longitude": 66.8643595,
    "id": 403532176
  },
  {
    "name": "industrial",
    "category": "landuse",
    "subcategory": "industrial",
    "latitude": 25.039443566666666,
    "longitude": 66.86527118333333,
    "id": 403532177
  },
  {
    "name": "residential",
    "category": "highway",
    "subcategory": "residential",
    "latitude": 25.040667550000002,
    "longitude": 66.86663225000001,
    "id": 403532178
  },
  {
    "name": "بلوچستان گلاس روڈ",
    "category": "highway",
    "subcategory": "residential",
    "latitude": 25.038880550000002,
    "longitude": 66.8677335,
    "id": 403532179
  },
  {
    "name": "residential",
    "category": "highway",
    "subcategory": "residential",
    "latitude": 25.037994366666666,
    "longitude": 66.8695862,
    "id": 403532180
  },
  {
    "name": "industrial",
    "category": "landuse",
    "subcategory": "industrial",
    "latitude": 25.0364837,
    "longitude": 66.86630248461539,
    "id": 403532181
  },
  {
    "name": "residential",
    "category": "landuse",
    "subcategory": "residential",
    "latitude": 25.040884816666665,
    "longitude": 66.85821101666666,
    "id": 403532183
  },
  {
    "name": "residential",
    "category": "highway",
    "subcategory": "residential",
    "latitude": 25.043170850000003,
    "longitude": 66.85898234999999,
    "id": 403532184
  },
  {
    "name": "residential",
    "category": "highway",
    "subcategory": "residential",
    "latitude": 25.0453314,
    "longitude": 66.85931403636363,
    "id": 403532185
  },
  {
    "name": "residential",
    "category": "landuse",
    "subcategory": "residential",
    "latitude": 25.045535266666665,
    "longitude": 66.8590162,
    "id": 403532186
  },
  {
    "name": "greenfield",
    "category": "landuse",
    "subcategory": "greenfield",
    "latitude": 25.04396015714286,
    "longitude": 66.8593733,
    "id": 403532187
  },
  {
    "name": "residential",
    "category": "landuse",
    "subcategory": "residential",
    "latitude": 25.04371642,
    "longitude": 66.85682782,
    "id": 403532188
  },
  {
    "name": "industrial",
    "category": "landuse",
    "subcategory": "industrial",
    "latitude": 25.042652716666666,
    "longitude": 66.85454866666667,
    "id": 403532190
  },
  {
    "name": "service",
    "category": "highway",
    "subcategory": "service",
    "latitude": 25.0434455,
    "longitude": 66.85498413333333,
    "id": 403532191
  },
  {
    "name": "service",
    "category": "highway",
    "subcategory": "service",
    "latitude": 25.0437316,
    "longitude": 66.85603467142857,
    "id": 403532192
  },
  {
    "name": "service",
    "category": "highway",
    "subcategory": "service",
    "latitude": 25.048749649999998,
    "longitude": 66.86127575,
    "id": 403532193
  },
  {
    "name": "residential",
    "category": "highway",
    "subcategory": "residential",
    "latitude": 25.034749075,
    "longitude": 66.872247225,
    "id": 403532195
  },
  {
    "name": "residential",
    "category": "highway",
    "subcategory": "residential",
    "latitude": 25.034583433333335,
    "longitude": 66.8703565,
    "id": 403532197
  },
  {
    "name": "residential",
    "category": "highway",
    "subcategory": "residential",
    "latitude": 25.034296833333332,
    "longitude": 66.8702086,
    "id": 403532198
  },
  {
    "name": "residential",
    "category": "highway",
    "subcategory": "residential",
    "latitude": 25.03330305,
    "longitude": 66.87112880000001,
    "id": 403532200
  },
  {
    "name": "residential",
    "category": "highway",
    "subcategory": "residential",
    "latitude": 25.034182225000002,
    "longitude": 66.873589675,
    "id": 403532201
  },
  {
    "name": "residential",
    "category": "landuse",
    "subcategory": "residential",
    "latitude": 25.02743551304348,
    "longitude": 66.87651900869565,
    "id": 403532202
  },
  {
    "name": "residential",
    "category": "landuse",
    "subcategory": "residential",
    "latitude": 25.026084299999997,
    "longitude": 66.88282125555556,
    "id": 403532204
  },
  {
    "name": "residential",
    "category": "highway",
    "subcategory": "residential",
    "latitude": 25.02157166,
    "longitude": 66.87603179999999,
    "id": 403532205
  },
  {
    "name": "residential",
    "category": "highway",
    "subcategory": "residential",
    "latitude": 25.020457615384615,
    "longitude": 66.87665928461539,
    "id": 403532206
  },
  {
    "name": "commercial",
    "category": "landuse",
    "subcategory": "commercial",
    "latitude": 25.02273734,
    "longitude": 66.87114522,
    "id": 403532207
  },
  {
    "name": "residential",
    "category": "landuse",
    "subcategory": "residential",
    "latitude": 25.022127689473685,
    "longitude": 66.87461968947368,
    "id": 403532209
  },
  {
    "name": "residential",
    "category": "landuse",
    "subcategory": "residential",
    "latitude": 25.022223880000002,
    "longitude": 66.87980717,
    "id": 403532210
  },
  {
    "name": "residential",
    "category": "landuse",
    "subcategory": "residential",
    "latitude": 25.022543992857145,
    "longitude": 66.88350707857143,
    "id": 403532211
  },
  {
    "name": "residential",
    "category": "landuse",
    "subcategory": "residential",
    "latitude": 25.026410765,
    "longitude": 66.89439741,
    "id": 403532213
  },
  {
    "name": "park",
    "category": "leisure",
    "subcategory": "park",
    "latitude": 25.0261624,
    "longitude": 66.88955430000001,
    "id": 403532214
  },
  {
    "name": "residential",
    "category": "landuse",
    "subcategory": "residential",
    "latitude": 25.0288503,
    "longitude": 66.88622954285714,
    "id": 403532215
  },
  {
    "name": "residential",
    "category": "landuse",
    "subcategory": "residential",
    "latitude": 25.03314744375,
    "longitude": 66.88257285625,
    "id": 403532216
  },
  {
    "name": "residential",
    "category": "landuse",
    "subcategory": "residential",
    "latitude": 25.030119380000002,
    "longitude": 66.88846392,
    "id": 403532218
  },
  {
    "name": "residential",
    "category": "highway",
    "subcategory": "residential",
    "latitude": 25.03890386666667,
    "longitude": 66.88891926666666,
    "id": 403532220
  },
  {
    "name": "residential",
    "category": "highway",
    "subcategory": "residential",
    "latitude": 25.04079312,
    "longitude": 66.8938111,
    "id": 403532222
  },
  {
    "name": "residential",
    "category": "highway",
    "subcategory": "residential",
    "latitude": 25.04185795,
    "longitude": 66.89429935000001,
    "id": 403532224
  },
  {
    "name": "residential",
    "category": "highway",
    "subcategory": "residential",
    "latitude": 25.03936625,
    "longitude": 66.89663784999999,
    "id": 403532225
  },
  {
    "name": "residential",
    "category": "highway",
    "subcategory": "residential",
    "latitude": 25.051592875,
    "longitude": 66.891909625,
    "id": 403532227
  },
  {
    "name": "industrial",
    "category": "landuse",
    "subcategory": "industrial",
    "latitude": 25.050946427272724,
    "longitude": 66.88645067272728,
    "id": 403532228
  },
  {
    "name": "residential",
    "category": "highway",
    "subcategory": "residential",
    "latitude": 25.0557398,
    "longitude": 66.8878886,
    "id": 403532229
  },
  {
    "name": "scrub",
    "category": "natural",
    "subcategory": "scrub",
    "latitude": 25.055444740000002,
    "longitude": 66.89311508,
    "id": 403532231
  },
  {
    "name": "residential",
    "category": "highway",
    "subcategory": "residential",
    "latitude": 25.05336075,
    "longitude": 66.88021810000001,
    "id": 403532233
  },
  {
    "name": "residential",
    "category": "highway",
    "subcategory": "residential",
    "latitude": 25.05221956666667,
    "longitude": 66.87863446666667,
    "id": 403532235
  },
  {
    "name": "residential",
    "category": "highway",
    "subcategory": "residential",
    "latitude": 25.047733975,
    "longitude": 66.87861484999999,
    "id": 403532237
  },
  {
    "name": "residential",
    "category": "highway",
    "subcategory": "residential",
    "latitude": 25.048872120000002,
    "longitude": 66.87861656,
    "id": 403532239
  },
  {
    "name": "residential",
    "category": "highway",
    "subcategory": "residential",
    "latitude": 25.04832185,
    "longitude": 66.87949425,
    "id": 403532241
  },
  {
    "name": "residential",
    "category": "highway",
    "subcategory": "residential",
    "latitude": 25.0482784,
    "longitude": 66.87746755,
    "id": 403532243
  },
  {
    "name": "residential",
    "category": "highway",
    "subcategory": "residential",
    "latitude": 25.050880375,
    "longitude": 66.880572125,
    "id": 403532245
  },
  {
    "name": "residential",
    "category": "highway",
    "subcategory": "residential",
    "latitude": 25.050289675000002,
    "longitude": 66.8799841,
    "id": 403532247
  },
  {
    "name": "industrial",
    "category": "landuse",
    "subcategory": "industrial",
    "latitude": 25.047372822222222,
    "longitude": 66.87846436666666,
    "id": 403532249
  },
  {
    "name": "Madina colony street",
    "category": "highway",
    "subcategory": "residential",
    "latitude": 25.035531935714285,
    "longitude": 66.87988427857142,
    "id": 403532251
  },
  {
    "name": "residential",
    "category": "highway",
    "subcategory": "residential",
    "latitude": 25.037652154545455,
    "longitude": 66.88102071818183,
    "id": 403532253
  },
  {
    "name": "service",
    "category": "highway",
    "subcategory": "service",
    "latitude": 25.053388115,
    "longitude": 66.86628563000001,
    "id": 403532257
  },
  {
    "name": "service",
    "category": "highway",
    "subcategory": "service",
    "latitude": 25.05292359090909,
    "longitude": 66.86296090909092,
    "id": 403532260
  },
  {
    "name": "residential",
    "category": "landuse",
    "subcategory": "residential",
    "latitude": 25.04512233333333,
    "longitude": 66.87114584242424,
    "id": 403532261
  },
  {
    "name": "industrial",
    "category": "landuse",
    "subcategory": "industrial",
    "latitude": 25.047094771428572,
    "longitude": 66.85505092857143,
    "id": 403532263
  },
  {
    "name": "industrial",
    "category": "landuse",
    "subcategory": "industrial",
    "latitude": 25.0524565,
    "longitude": 66.85786945,
    "id": 403532264
  },
  {
    "name": "industrial",
    "category": "landuse",
    "subcategory": "industrial",
    "latitude": 25.047118878571432,
    "longitude": 66.8694591047619,
    "id": 403532266
  },
  {
    "name": "residential",
    "category": "highway",
    "subcategory": "residential",
    "latitude": 25.05322347142857,
    "longitude": 66.87261701428572,
    "id": 403532267
  },
  {
    "name": "residential",
    "category": "highway",
    "subcategory": "residential",
    "latitude": 25.053937275000003,
    "longitude": 66.877306225,
    "id": 403532268
  },
  {
    "name": "residential",
    "category": "highway",
    "subcategory": "residential",
    "latitude": 25.05344925,
    "longitude": 66.8767383,
    "id": 403532269
  },
  {
    "name": "residential",
    "category": "highway",
    "subcategory": "residential",
    "latitude": 25.050293,
    "longitude": 66.87670308333334,
    "id": 403532270
  },
  {
    "name": "residential",
    "category": "highway",
    "subcategory": "residential",
    "latitude": 25.054208449999997,
    "longitude": 66.88372195,
    "id": 403532271
  },
  {
    "name": "industrial",
    "category": "landuse",
    "subcategory": "industrial",
    "latitude": 25.058457909999998,
    "longitude": 66.87831912,
    "id": 403532272
  },
  {
    "name": "residential",
    "category": "highway",
    "subcategory": "residential",
    "latitude": 25.05596,
    "longitude": 66.87149344,
    "id": 403532273
  },
  {
    "name": "residential",
    "category": "highway",
    "subcategory": "residential",
    "latitude": 25.0565441,
    "longitude": 66.8728303,
    "id": 403532274
  },
  {
    "name": "industrial",
    "category": "landuse",
    "subcategory": "industrial",
    "latitude": 25.0599377,
    "longitude": 66.8711863,
    "id": 403532275
  },
  {
    "name": "industrial",
    "category": "landuse",
    "subcategory": "industrial",
    "latitude": 25.056603935714286,
    "longitude": 66.86674325,
    "id": 403532276
  },
  {
    "name": "commercial",
    "category": "landuse",
    "subcategory": "commercial",
    "latitude": 25.054204328571426,
    "longitude": 66.87295705714286,
    "id": 403532277
  },
  {
    "name": "commercial",
    "category": "landuse",
    "subcategory": "commercial",
    "latitude": 25.056207816666667,
    "longitude": 66.8727833,
    "id": 403532278
  },
  {
    "name": "residential",
    "category": "landuse",
    "subcategory": "residential",
    "latitude": 25.060678925,
    "longitude": 66.8816952625,
    "id": 403532279
  },
  {
    "name": "residential",
    "category": "highway",
    "subcategory": "residential",
    "latitude": 25.06502675,
    "longitude": 66.87550165,
    "id": 403532280
  },
  {
    "name": "residential",
    "category": "landuse",
    "subcategory": "residential",
    "latitude": 25.06356354,
    "longitude": 66.87833084,
    "id": 403532281
  },
  {
    "name": "residential",
    "category": "highway",
    "subcategory": "residential",
    "latitude": 25.06607392777778,
    "longitude": 66.88140697777777,
    "id": 403532282
  },
  {
    "name": "residential",
    "category": "highway",
    "subcategory": "residential",
    "latitude": 25.0655602625,
    "longitude": 66.88532863750001,
    "id": 403532283
  },
  {
    "name": "residential",
    "category": "highway",
    "subcategory": "residential",
    "latitude": 25.064664450000002,
    "longitude": 66.871718275,
    "id": 403532288
  },
  {
    "name": "ridge",
    "category": "natural",
    "subcategory": "ridge",
    "latitude": 25.06506563529412,
    "longitude": 66.85520134117647,
    "id": 403538354
  },
  {
    "name": "scree",
    "category": "natural",
    "subcategory": "scree",
    "latitude": 25.067644375757574,
    "longitude": 66.85587367575758,
    "id": 403538355
  },
  {
    "name": "industrial",
    "category": "landuse",
    "subcategory": "industrial",
    "latitude": 25.056535666666665,
    "longitude": 66.84650169999999,
    "id": 403538439
  },
  {
    "name": "residential",
    "category": "landuse",
    "subcategory": "residential",
    "latitude": 25.04900672826087,
    "longitude": 66.84814186086956,
    "id": 403538440
  },
  {
    "name": "residential",
    "category": "landuse",
    "subcategory": "residential",
    "latitude": 25.040638015384616,
    "longitude": 66.85011115384616,
    "id": 403538441
  },
  {
    "name": "unclassified",
    "category": "highway",
    "subcategory": "unclassified",
    "latitude": 25.040346217391303,
    "longitude": 66.84959094347826,
    "id": 403538442
  },
  {
    "name": "scree",
    "category": "natural",
    "subcategory": "scree",
    "latitude": 25.0454369,
    "longitude": 66.84774593333333,
    "id": 403538443
  },
  {
    "name": "scree",
    "category": "natural",
    "subcategory": "scree",
    "latitude": 25.050893975,
    "longitude": 66.84871001249999,
    "id": 403538444
  },
  {
    "name": "scree",
    "category": "natural",
    "subcategory": "scree",
    "latitude": 25.0486542625,
    "longitude": 66.8484894375,
    "id": 403538445
  },
  {
    "name": "industrial",
    "category": "landuse",
    "subcategory": "industrial",
    "latitude": 25.066395175,
    "longitude": 66.8870595125,
    "id": 403538456
  },
  {
    "name": "residential",
    "category": "landuse",
    "subcategory": "residential",
    "latitude": 25.066840239999998,
    "longitude": 66.87900984000001,
    "id": 403538457
  },
  {
    "name": "tertiary",
    "category": "highway",
    "subcategory": "tertiary",
    "latitude": 25.055288652173914,
    "longitude": 66.8742856826087,
    "id": 403538458
  },
  {
    "name": "residential",
    "category": "landuse",
    "subcategory": "residential",
    "latitude": 25.052268555555557,
    "longitude": 66.91267205555556,
    "id": 403540929
  },
  {
    "name": "residential",
    "category": "landuse",
    "subcategory": "residential",
    "latitude": 25.05740862,
    "longitude": 66.89930898,
    "id": 403540930
  },
  {
    "name": "residential",
    "category": "landuse",
    "subcategory": "residential",
    "latitude": 25.05524788,
    "longitude": 66.89912824000001,
    "id": 403540931
  },
  {
    "name": "residential",
    "category": "landuse",
    "subcategory": "residential",
    "latitude": 25.039249871428574,
    "longitude": 66.87944806666667,
    "id": 403540932
  },
  {
    "name": "residential",
    "category": "landuse",
    "subcategory": "residential",
    "latitude": 25.036805466666667,
    "longitude": 66.88989658888889,
    "id": 403540934
  },
  {
    "name": "residential",
    "category": "landuse",
    "subcategory": "residential",
    "latitude": 25.044992744444446,
    "longitude": 66.89438992962963,
    "id": 403540935
  },
  {
    "name": "residential",
    "category": "landuse",
    "subcategory": "residential",
    "latitude": 25.03619288333333,
    "longitude": 66.89402063333334,
    "id": 403540936
  },
  {
    "name": "residential",
    "category": "landuse",
    "subcategory": "residential",
    "latitude": 25.03095778,
    "longitude": 66.90565924,
    "id": 403540937
  },
  {
    "name": "residential",
    "category": "landuse",
    "subcategory": "residential",
    "latitude": 25.033715728571426,
    "longitude": 66.89998011428573,
    "id": 403540938
  },
  {
    "name": "unclassified",
    "category": "highway",
    "subcategory": "unclassified",
    "latitude": 25.036658041935485,
    "longitude": 66.91613181935483,
    "id": 403540939
  },
  {
    "name": "unclassified",
    "category": "highway",
    "subcategory": "unclassified",
    "latitude": 25.0294769125,
    "longitude": 66.913865775,
    "id": 403540940
  },
  {
    "name": "residential",
    "category": "landuse",
    "subcategory": "residential",
    "latitude": 25.03323594,
    "longitude": 66.9169555,
    "id": 403540941
  },
  {
    "name": "residential",
    "category": "landuse",
    "subcategory": "residential",
    "latitude": 25.0394386,
    "longitude": 66.91506588,
    "id": 403540942
  },
  {
    "name": "residential",
    "category": "landuse",
    "subcategory": "residential",
    "latitude": 25.04215622,
    "longitude": 66.91606234,
    "id": 403540944
  },
  {
    "name": "residential",
    "category": "landuse",
    "subcategory": "residential",
    "latitude": 25.045690371428574,
    "longitude": 66.91432540000001,
    "id": 403540945
  },
  {
    "name": "residential",
    "category": "landuse",
    "subcategory": "residential",
    "latitude": 25.041104645454542,
    "longitude": 66.92150676363636,
    "id": 403540946
  },
  {
    "name": "residential",
    "category": "highway",
    "subcategory": "residential",
    "latitude": 25.042700858333333,
    "longitude": 66.92518950416667,
    "id": 403540947
  },
  {
    "name": "wetland",
    "category": "natural",
    "subcategory": "wetland",
    "latitude": 25.041600650943398,
    "longitude": 66.95428185283019,
    "id": 403540960
  },
  {
    "name": "wetland",
    "category": "natural",
    "subcategory": "wetland",
    "latitude": 24.999424806153844,
    "longitude": 66.8570380846154,
    "id": 403542558
  },
  {
    "name": "scree",
    "category": "natural",
    "subcategory": "scree",
    "latitude": 25.0078710875,
    "longitude": 66.8430109875,
    "id": 403542561
  },
  {
    "name": "residential",
    "category": "landuse",
    "subcategory": "residential",
    "latitude": 25.0119299125,
    "longitude": 66.8500130875,
    "id": 403542562
  },
  {
    "name": "Margala Crush Plant",
    "category": "landuse",
    "subcategory": "quarry",
    "latitude": 25.0127355125,
    "longitude": 66.884793375,
    "id": 403542563
  },
  {
    "name": "residential",
    "category": "landuse",
    "subcategory": "residential",
    "latitude": 25.011427939999997,
    "longitude": 66.90721778,
    "id": 403542564
  },
  {
    "name": "residential",
    "category": "landuse",
    "subcategory": "residential",
    "latitude": 25.0126305,
    "longitude": 66.9002577,
    "id": 403542565
  },
  {
    "name": "residential",
    "category": "highway",
    "subcategory": "residential",
    "latitude": 25.012124245833334,
    "longitude": 66.901409775,
    "id": 403542566
  },
  {
    "name": "N-25 Link Road",
    "category": "highway",
    "subcategory": "unclassified",
    "latitude": 25.000886063043477,
    "longitude": 66.91058105869566,
    "id": 403542567
  },
  {
    "name": "ridge",
    "category": "natural",
    "subcategory": "ridge",
    "latitude": 24.998952,
    "longitude": 66.88547565,
    "id": 403542568
  },
  {
    "name": "residential",
    "category": "landuse",
    "subcategory": "residential",
    "latitude": 24.996375852941174,
    "longitude": 66.89261079411764,
    "id": 403542569
  },
  {
    "name": "residential",
    "category": "landuse",
    "subcategory": "residential",
    "latitude": 24.997576433333332,
    "longitude": 66.89991076666666,
    "id": 403542570
  },
  {
    "name": "farmyard",
    "category": "landuse",
    "subcategory": "farmyard",
    "latitude": 24.997199832,
    "longitude": 66.904829136,
    "id": 403542571
  },
  {
    "name": "ridge",
    "category": "natural",
    "subcategory": "ridge",
    "latitude": 25.001818157142857,
    "longitude": 66.9176951,
    "id": 403542572
  },
  {
    "name": "ridge",
    "category": "natural",
    "subcategory": "ridge",
    "latitude": 25.007040675,
    "longitude": 66.91351925000001,
    "id": 403542573
  },
  {
    "name": "scree",
    "category": "natural",
    "subcategory": "scree",
    "latitude": 25.00666487,
    "longitude": 66.91344932,
    "id": 403542574
  },
  {
    "name": "residential",
    "category": "landuse",
    "subcategory": "residential",
    "latitude": 25.00482564,
    "longitude": 66.91246714,
    "id": 403542575
  },
  {
    "name": "scree",
    "category": "natural",
    "subcategory": "scree",
    "latitude": 25.001519666666667,
    "longitude": 66.91863904444445,
    "id": 403542576
  },
  {
    "name": "residential",
    "category": "landuse",
    "subcategory": "residential",
    "latitude": 24.987454157142857,
    "longitude": 66.9074919,
    "id": 403542577
  },
  {
    "name": "residential",
    "category": "landuse",
    "subcategory": "residential",
    "latitude": 24.984605849999998,
    "longitude": 66.91457356666668,
    "id": 403542579
  },
  {
    "name": "water",
    "category": "natural",
    "subcategory": "water",
    "latitude": 25.00221304520548,
    "longitude": 66.84676444657535,
    "id": 403558734
  },
  {
    "name": "quarry",
    "category": "landuse",
    "subcategory": "quarry",
    "latitude": 24.9991009,
    "longitude": 66.84973448,
    "id": 403558735
  },
  {
    "name": "residential",
    "category": "landuse",
    "subcategory": "residential",
    "latitude": 24.9999503,
    "longitude": 66.85537738571429,
    "id": 403558737
  },
  {
    "name": "track",
    "category": "highway",
    "subcategory": "track",
    "latitude": 24.99146623043478,
    "longitude": 66.84036497826087,
    "id": 403558738
  },
  {
    "name": "unclassified",
    "category": "highway",
    "subcategory": "unclassified",
    "latitude": 25.0039995,
    "longitude": 66.85265231290322,
    "id": 403558739
  },
  {
    "name": "quarry",
    "category": "landuse",
    "subcategory": "quarry",
    "latitude": 25.003687600000003,
    "longitude": 66.85568452857143,
    "id": 403558740
  },
  {
    "name": "Rais Moosa Goth",
    "category": "landuse",
    "subcategory": "residential",
    "latitude": 25.002785094117645,
    "longitude": 66.86737862941176,
    "id": 403558741
  },
  {
    "name": "track",
    "category": "highway",
    "subcategory": "track",
    "latitude": 25.0100049875,
    "longitude": 66.87559565000001,
    "id": 403558742
  },
  {
    "name": "water",
    "category": "natural",
    "subcategory": "water",
    "latitude": 25.013734033333336,
    "longitude": 66.87520106666666,
    "id": 403558743
  },
  {
    "name": "tertiary",
    "category": "highway",
    "subcategory": "tertiary",
    "latitude": 24.97946648,
    "longitude": 66.8834547768421,
    "id": 403558747
  },
  {
    "name": "Rind Road",
    "category": "highway",
    "subcategory": "residential",
    "latitude": 25.02479501666667,
    "longitude": 66.88432496666667,
    "id": 549958213
  },
  {
    "name": "Lasi Road",
    "category": "highway",
    "subcategory": "service",
    "latitude": 25.03129153333333,
    "longitude": 66.87381986666666,
    "id": 550230157
  },
  {
    "name": "residential",
    "category": "landuse",
    "subcategory": "residential",
    "latitude": 24.992382600000003,
    "longitude": 66.92199558,
    "id": 594992234
  },
  {
    "name": "residential",
    "category": "highway",
    "subcategory": "residential",
    "latitude": 24.991447857142855,
    "longitude": 66.92250152857143,
    "id": 594992236
  },
  {
    "name": "residential",
    "category": "highway",
    "subcategory": "residential",
    "latitude": 24.991775566666664,
    "longitude": 66.92276143333333,
    "id": 594992237
  },
  {
    "name": "residential",
    "category": "highway",
    "subcategory": "residential",
    "latitude": 24.994456716666665,
    "longitude": 66.89594463333333,
    "id": 621321047
  },
  {
    "name": "residential",
    "category": "highway",
    "subcategory": "residential",
    "latitude": 24.995060751923077,
    "longitude": 66.89296179807693,
    "id": 621321048
  },
  {
    "name": "residential",
    "category": "highway",
    "subcategory": "residential",
    "latitude": 25.03120189166667,
    "longitude": 66.88602483333334,
    "id": 680953884
  },
  {
    "name": "residential",
    "category": "highway",
    "subcategory": "residential",
    "latitude": 25.0296518,
    "longitude": 66.88486365,
    "id": 680953885
  },
  {
    "name": "residential",
    "category": "highway",
    "subcategory": "residential",
    "latitude": 25.030116200000002,
    "longitude": 66.88410676000001,
    "id": 680953886
  },
  {
    "name": "residential",
    "category": "highway",
    "subcategory": "residential",
    "latitude": 25.030501333333333,
    "longitude": 66.88318123333333,
    "id": 680953887
  },
  {
    "name": "residential",
    "category": "highway",
    "subcategory": "residential",
    "latitude": 25.030547166666665,
    "longitude": 66.88321436666666,
    "id": 680953888
  },
  {
    "name": "residential",
    "category": "highway",
    "subcategory": "residential",
    "latitude": 25.029335185714285,
    "longitude": 66.88389131428572,
    "id": 680953889
  },
  {
    "name": "residential",
    "category": "highway",
    "subcategory": "residential",
    "latitude": 25.0309721,
    "longitude": 66.88245845,
    "id": 680953890
  },
  {
    "name": "residential",
    "category": "highway",
    "subcategory": "residential",
    "latitude": 25.0315006,
    "longitude": 66.8823895,
    "id": 680953891
  },
  {
    "name": "residential",
    "category": "highway",
    "subcategory": "residential",
    "latitude": 25.03215908,
    "longitude": 66.88169614,
    "id": 680953892
  },
  {
    "name": "residential",
    "category": "highway",
    "subcategory": "residential",
    "latitude": 25.0330258375,
    "longitude": 66.88318728750001,
    "id": 680953893
  },
  {
    "name": "residential",
    "category": "highway",
    "subcategory": "residential",
    "latitude": 25.031089984615384,
    "longitude": 66.8834652,
    "id": 680953894
  },
  {
    "name": "residential",
    "category": "highway",
    "subcategory": "residential",
    "latitude": 25.03280635,
    "longitude": 66.881239,
    "id": 680953895
  },
  {
    "name": "residential",
    "category": "highway",
    "subcategory": "residential",
    "latitude": 25.03183335,
    "longitude": 66.88160427727273,
    "id": 680953896
  },
  {
    "name": "residential",
    "category": "highway",
    "subcategory": "residential",
    "latitude": 25.03245578,
    "longitude": 66.88252508000001,
    "id": 680953897
  },
  {
    "name": "residential",
    "category": "highway",
    "subcategory": "residential",
    "latitude": 25.033771653846152,
    "longitude": 66.88249120769231,
    "id": 680953898
  },
  {
    "name": "residential",
    "category": "highway",
    "subcategory": "residential",
    "latitude": 25.034676533333336,
    "longitude": 66.88201830000001,
    "id": 680953899
  },
  {
    "name": "residential",
    "category": "highway",
    "subcategory": "residential",
    "latitude": 25.034411566666666,
    "longitude": 66.88162933333332,
    "id": 680953900
  },
  {
    "name": "residential",
    "category": "highway",
    "subcategory": "residential",
    "latitude": 25.034174233333335,
    "longitude": 66.88126606666667,
    "id": 680953901
  },
  {
    "name": "residential",
    "category": "highway",
    "subcategory": "residential",
    "latitude": 25.033962066666664,
    "longitude": 66.8809557,
    "id": 680953902
  },
  {
    "name": "residential",
    "category": "highway",
    "subcategory": "residential",
    "latitude": 25.03239005,
    "longitude": 66.886847,
    "id": 680955107
  },
  {
    "name": "residential",
    "category": "highway",
    "subcategory": "residential",
    "latitude": 25.03333418571429,
    "longitude": 66.88644341428571,
    "id": 680955108
  },
  {
    "name": "residential",
    "category": "highway",
    "subcategory": "residential",
    "latitude": 25.03410212,
    "longitude": 66.88686856,
    "id": 680955109
  },
  {
    "name": "residential",
    "category": "highway",
    "subcategory": "residential",
    "latitude": 25.033572999999997,
    "longitude": 66.88682112857143,
    "id": 680955110
  },
  {
    "name": "residential",
    "category": "highway",
    "subcategory": "residential",
    "latitude": 25.03140946,
    "longitude": 66.88729494,
    "id": 680955111
  },
  {
    "name": "residential",
    "category": "highway",
    "subcategory": "residential",
    "latitude": 25.031263025,
    "longitude": 66.886887925,
    "id": 680955112
  },
  {
    "name": "residential",
    "category": "highway",
    "subcategory": "residential",
    "latitude": 25.0310014,
    "longitude": 66.8864336,
    "id": 680955113
  },
  {
    "name": "residential",
    "category": "highway",
    "subcategory": "residential",
    "latitude": 25.030983,
    "longitude": 66.8858343,
    "id": 680955114
  },
  {
    "name": "residential",
    "category": "highway",
    "subcategory": "residential",
    "latitude": 25.030579966666664,
    "longitude": 66.88646586666665,
    "id": 680955115
  },
  {
    "name": "residential",
    "category": "highway",
    "subcategory": "residential",
    "latitude": 25.031839333333334,
    "longitude": 66.88603473333333,
    "id": 680955117
  },
  {
    "name": "residential",
    "category": "highway",
    "subcategory": "residential",
    "latitude": 25.033424,
    "longitude": 66.88395486666667,
    "id": 680955118
  },
  {
    "name": "residential",
    "category": "highway",
    "subcategory": "residential",
    "latitude": 25.0325672,
    "longitude": 66.88325593333333,
    "id": 680955119
  },
  {
    "name": "residential",
    "category": "highway",
    "subcategory": "residential",
    "latitude": 25.0329665,
    "longitude": 66.8836261,
    "id": 680955120
  },
  {
    "name": "residential",
    "category": "highway",
    "subcategory": "residential",
    "latitude": 25.032147054545455,
    "longitude": 66.88435117272728,
    "id": 680955121
  },
  {
    "name": "residential",
    "category": "highway",
    "subcategory": "residential",
    "latitude": 25.030281,
    "longitude": 66.8849339,
    "id": 680955122
  },
  {
    "name": "residential",
    "category": "highway",
    "subcategory": "residential",
    "latitude": 25.03230636,
    "longitude": 66.88386954,
    "id": 680955123
  },
  {
    "name": "residential",
    "category": "highway",
    "subcategory": "residential",
    "latitude": 25.0317368,
    "longitude": 66.8836822,
    "id": 680955124
  },
  {
    "name": "residential",
    "category": "highway",
    "subcategory": "residential",
    "latitude": 25.030926450000003,
    "longitude": 66.88418765,
    "id": 680955125
  },
  {
    "name": "residential",
    "category": "highway",
    "subcategory": "residential",
    "latitude": 25.0314276,
    "longitude": 66.88374709,
    "id": 680955126
  },
  {
    "name": "residential",
    "category": "highway",
    "subcategory": "residential",
    "latitude": 25.03335725,
    "longitude": 66.8832399,
    "id": 680955748
  },
  {
    "name": "residential",
    "category": "highway",
    "subcategory": "residential",
    "latitude": 25.03340826666667,
    "longitude": 66.8829164,
    "id": 680955749
  },
  {
    "name": "residential",
    "category": "highway",
    "subcategory": "residential",
    "latitude": 25.032803849999997,
    "longitude": 66.88258953333333,
    "id": 680955750
  },
  {
    "name": "residential",
    "category": "highway",
    "subcategory": "residential",
    "latitude": 25.03299923333333,
    "longitude": 66.8861057,
    "id": 680955751
  },
  {
    "name": "residential",
    "category": "highway",
    "subcategory": "residential",
    "latitude": 25.032565008333336,
    "longitude": 66.88531325833334,
    "id": 680955752
  },
  {
    "name": "residential",
    "category": "highway",
    "subcategory": "residential",
    "latitude": 25.032954766666666,
    "longitude": 66.88612343333334,
    "id": 680955753
  },
  {
    "name": "residential",
    "category": "highway",
    "subcategory": "residential",
    "latitude": 25.03225038,
    "longitude": 66.88517834000001,
    "id": 680955754
  },
  {
    "name": "residential",
    "category": "highway",
    "subcategory": "residential",
    "latitude": 25.03375504,
    "longitude": 66.88168035999999,
    "id": 680955755
  },
  {
    "name": "residential",
    "category": "highway",
    "subcategory": "residential",
    "latitude": 25.033306250000003,
    "longitude": 66.88443035,
    "id": 680955756
  },
  {
    "name": "residential",
    "category": "highway",
    "subcategory": "residential",
    "latitude": 25.032969066666666,
    "longitude": 66.88426046666667,
    "id": 680955757
  },
  {
    "name": "residential",
    "category": "highway",
    "subcategory": "residential",
    "latitude": 25.033732800000003,
    "longitude": 66.88494449999999,
    "id": 680955758
  },
  {
    "name": "residential",
    "category": "highway",
    "subcategory": "residential",
    "latitude": 25.032888726666666,
    "longitude": 66.88511975333333,
    "id": 680955759
  },
  {
    "name": "residential",
    "category": "highway",
    "subcategory": "residential",
    "latitude": 25.03682001818182,
    "longitude": 66.89568147272728,
    "id": 700177274
  },
  {
    "name": "residential",
    "category": "highway",
    "subcategory": "residential",
    "latitude": 25.034423399999998,
    "longitude": 66.90123353333333,
    "id": 700177275
  },
  {
    "name": "residential",
    "category": "highway",
    "subcategory": "residential",
    "latitude": 25.034366300000002,
    "longitude": 66.9004829,
    "id": 700177276
  },
  {
    "name": "residential",
    "category": "highway",
    "subcategory": "residential",
    "latitude": 25.03461702,
    "longitude": 66.90015836,
    "id": 700177277
  },
  {
    "name": "residential",
    "category": "highway",
    "subcategory": "residential",
    "latitude": 25.0350242,
    "longitude": 66.90003300000001,
    "id": 700177278
  },
  {
    "name": "residential",
    "category": "highway",
    "subcategory": "residential",
    "latitude": 25.035466200000002,
    "longitude": 66.8999622,
    "id": 700177279
  },
  {
    "name": "residential",
    "category": "highway",
    "subcategory": "residential",
    "latitude": 25.03550986666667,
    "longitude": 66.89933473333333,
    "id": 700177280
  },
  {
    "name": "residential",
    "category": "highway",
    "subcategory": "residential",
    "latitude": 25.033469099999998,
    "longitude": 66.9016771,
    "id": 700177281
  },
  {
    "name": "residential",
    "category": "highway",
    "subcategory": "residential",
    "latitude": 25.03493125,
    "longitude": 66.90106047,
    "id": 700177282
  },
  {
    "name": "residential",
    "category": "highway",
    "subcategory": "residential",
    "latitude": 25.03361255,
    "longitude": 66.9012845,
    "id": 700177283
  },
  {
    "name": "residential",
    "category": "highway",
    "subcategory": "residential",
    "latitude": 25.03391166,
    "longitude": 66.90111254000001,
    "id": 700177284
  },
  {
    "name": "residential",
    "category": "highway",
    "subcategory": "residential",
    "latitude": 25.03467662727273,
    "longitude": 66.90006373636363,
    "id": 700177285
  },
  {
    "name": "residential",
    "category": "highway",
    "subcategory": "residential",
    "latitude": 25.0462231,
    "longitude": 66.8697147,
    "id": 700218358
  },
  {
    "name": "residential",
    "category": "highway",
    "subcategory": "residential",
    "latitude": 25.04570844,
    "longitude": 66.8692839,
    "id": 700218359
  },
  {
    "name": "residential",
    "category": "highway",
    "subcategory": "residential",
    "latitude": 25.04485075,
    "longitude": 66.869519925,
    "id": 700218360
  },
  {
    "name": "residential",
    "category": "highway",
    "subcategory": "residential",
    "latitude": 25.044192000000002,
    "longitude": 66.8705748,
    "id": 700218361
  },
  {
    "name": "residential",
    "category": "highway",
    "subcategory": "residential",
    "latitude": 25.04447594,
    "longitude": 66.87141813999999,
    "id": 700218362
  },
  {
    "name": "residential",
    "category": "highway",
    "subcategory": "residential",
    "latitude": 25.044169699999998,
    "longitude": 66.87113556666667,
    "id": 700218363
  },
  {
    "name": "residential",
    "category": "highway",
    "subcategory": "residential",
    "latitude": 25.044229825000002,
    "longitude": 66.871540375,
    "id": 700218364
  },
  {
    "name": "residential",
    "category": "highway",
    "subcategory": "residential",
    "latitude": 25.04389338,
    "longitude": 66.87140450000001,
    "id": 700218365
  },
  {
    "name": "residential",
    "category": "highway",
    "subcategory": "residential",
    "latitude": 25.043347833333332,
    "longitude": 66.87366113333333,
    "id": 700218366
  },
  {
    "name": "residential",
    "category": "highway",
    "subcategory": "residential",
    "latitude": 25.0431864,
    "longitude": 66.8734325,
    "id": 700218367
  },
  {
    "name": "residential",
    "category": "highway",
    "subcategory": "residential",
    "latitude": 25.042906333333335,
    "longitude": 66.87335086666667,
    "id": 700218368
  },
  {
    "name": "residential",
    "category": "highway",
    "subcategory": "residential",
    "latitude": 25.04323215,
    "longitude": 66.8739435,
    "id": 700218369
  },
  {
    "name": "residential",
    "category": "highway",
    "subcategory": "residential",
    "latitude": 25.043046383333333,
    "longitude": 66.8729132,
    "id": 700218370
  },
  {
    "name": "residential",
    "category": "highway",
    "subcategory": "residential",
    "latitude": 25.04201635,
    "longitude": 66.87308027,
    "id": 700218371
  },
  {
    "name": "residential",
    "category": "highway",
    "subcategory": "residential",
    "latitude": 25.042031533333333,
    "longitude": 66.87358463333334,
    "id": 700218372
  },
  {
    "name": "residential",
    "category": "highway",
    "subcategory": "residential",
    "latitude": 25.0428355,
    "longitude": 66.87441965,
    "id": 700218373
  },
  {
    "name": "residential",
    "category": "highway",
    "subcategory": "residential",
    "latitude": 25.042502575,
    "longitude": 66.87427495,
    "id": 700218374
  },
  {
    "name": "residential",
    "category": "highway",
    "subcategory": "residential",
    "latitude": 25.043332045454544,
    "longitude": 66.87374305454546,
    "id": 700218375
  },
  {
    "name": "residential",
    "category": "highway",
    "subcategory": "residential",
    "latitude": 25.042553849999997,
    "longitude": 66.8720318,
    "id": 700218376
  },
  {
    "name": "residential",
    "category": "highway",
    "subcategory": "residential",
    "latitude": 25.041942950000003,
    "longitude": 66.87271086666667,
    "id": 700218377
  },
  {
    "name": "residential",
    "category": "highway",
    "subcategory": "residential",
    "latitude": 25.039965042857144,
    "longitude": 66.87295082857143,
    "id": 700218378
  },
  {
    "name": "residential",
    "category": "highway",
    "subcategory": "residential",
    "latitude": 25.041569814285715,
    "longitude": 66.87234321428572,
    "id": 700218379
  },
  {
    "name": "residential",
    "category": "highway",
    "subcategory": "residential",
    "latitude": 25.04099765,
    "longitude": 66.8699641,
    "id": 700218380
  },
  {
    "name": "residential",
    "category": "highway",
    "subcategory": "residential",
    "latitude": 25.042368449999998,
    "longitude": 66.87124565,
    "id": 700218381
  },
  {
    "name": "residential",
    "category": "highway",
    "subcategory": "residential",
    "latitude": 25.05386165,
    "longitude": 66.87161015,
    "id": 700218382
  },
  {
    "name": "residential",
    "category": "highway",
    "subcategory": "residential",
    "latitude": 25.054552899999997,
    "longitude": 66.87141604,
    "id": 700218383
  },
  {
    "name": "residential",
    "category": "highway",
    "subcategory": "residential",
    "latitude": 25.05463933333333,
    "longitude": 66.87282556666666,
    "id": 700218384
  },
  {
    "name": "residential",
    "category": "highway",
    "subcategory": "residential",
    "latitude": 25.054078566666664,
    "longitude": 66.8732804,
    "id": 700218385
  },
  {
    "name": "residential",
    "category": "highway",
    "subcategory": "residential",
    "latitude": 25.054122033333332,
    "longitude": 66.873509,
    "id": 700218386
  },
  {
    "name": "residential",
    "category": "highway",
    "subcategory": "residential",
    "latitude": 25.0542168,
    "longitude": 66.873951,
    "id": 700218387
  },
  {
    "name": "service",
    "category": "highway",
    "subcategory": "service",
    "latitude": 25.052903733333334,
    "longitude": 66.86455276666668,
    "id": 700218388
  },
  {
    "name": "residential",
    "category": "highway",
    "subcategory": "residential",
    "latitude": 25.04875606666667,
    "longitude": 66.86888566666666,
    "id": 700218888
  },
  {
    "name": "residential",
    "category": "highway",
    "subcategory": "residential",
    "latitude": 25.050017925000002,
    "longitude": 66.87025711666666,
    "id": 700218889
  },
  {
    "name": "residential",
    "category": "highway",
    "subcategory": "residential",
    "latitude": 25.04659026666667,
    "longitude": 66.8722332,
    "id": 700218890
  },
  {
    "name": "residential",
    "category": "highway",
    "subcategory": "residential",
    "latitude": 25.046327975,
    "longitude": 66.871928175,
    "id": 700218891
  },
  {
    "name": "residential",
    "category": "highway",
    "subcategory": "residential",
    "latitude": 25.047012353846153,
    "longitude": 66.87356160769231,
    "id": 700218892
  },
  {
    "name": "residential",
    "category": "highway",
    "subcategory": "residential",
    "latitude": 25.048206366666665,
    "longitude": 66.87040323333333,
    "id": 700218893
  },
  {
    "name": "residential",
    "category": "highway",
    "subcategory": "residential",
    "latitude": 25.0485641,
    "longitude": 66.86942967499999,
    "id": 700218894
  },
  {
    "name": "residential",
    "category": "highway",
    "subcategory": "residential",
    "latitude": 25.0487012,
    "longitude": 66.87028013333334,
    "id": 700218895
  },
  {
    "name": "residential",
    "category": "highway",
    "subcategory": "residential",
    "latitude": 25.048657316666667,
    "longitude": 66.87047708333334,
    "id": 700218896
  },
  {
    "name": "residential",
    "category": "highway",
    "subcategory": "residential",
    "latitude": 25.04782445,
    "longitude": 66.87091405,
    "id": 700218897
  },
  {
    "name": "residential",
    "category": "highway",
    "subcategory": "residential",
    "latitude": 25.04745365,
    "longitude": 66.87077655,
    "id": 700218898
  },
  {
    "name": "residential",
    "category": "highway",
    "subcategory": "residential",
    "latitude": 25.04700195,
    "longitude": 66.87044523333334,
    "id": 700218899
  },
  {
    "name": "residential",
    "category": "highway",
    "subcategory": "residential",
    "latitude": 25.0465114,
    "longitude": 66.87027186666667,
    "id": 700218900
  },
  {
    "name": "residential",
    "category": "highway",
    "subcategory": "residential",
    "latitude": 25.046696757142858,
    "longitude": 66.87017604285714,
    "id": 700218901
  },
  {
    "name": "residential",
    "category": "highway",
    "subcategory": "residential",
    "latitude": 25.045395,
    "longitude": 66.87133875,
    "id": 700218902
  },
  {
    "name": "residential",
    "category": "highway",
    "subcategory": "residential",
    "latitude": 25.0471146,
    "longitude": 66.87045552307693,
    "id": 700218903
  },
  {
    "name": "residential",
    "category": "highway",
    "subcategory": "residential",
    "latitude": 25.04709271851852,
    "longitude": 66.87114158888889,
    "id": 700218904
  },
  {
    "name": "residential",
    "category": "highway",
    "subcategory": "residential",
    "latitude": 25.045391257142857,
    "longitude": 66.8698453,
    "id": 700218905
  },