[
  {
    "name": "kahif rant@ car",
    "category": "amenity",
    "subcategory": "car_rental",
    "latitude": 30.8024555,
    "longitude": 73.4420145,
    "id": 4559864595
  },
  {
    "name": "The Knowledge School IMT",
    "category": "amenity",
    "subcategory": "school",
    "latitude": 30.8186403,
    "longitude": 73.4539918,
    "id": 4827704336
  },
  {
    "name": "The Knowledge School SMT Campus",
    "category": "amenity",
    "subcategory": "school",
    "latitude": 30.8109649,
    "longitude": 73.4452524,
    "id": 4827704526
  },
  {
    "name": "Masjid Gole Chowk",
    "category": "amenity",
    "subcategory": "place_of_worship",
    "latitude": 30.808821,
    "longitude": 73.4443522,
    "id": 4915436521
  },
  {
    "name": "My home",
    "category": "tourism",
    "subcategory": "guest_house",
    "latitude": 30.7958553,
    "longitude": 73.4333575,
    "id": 5030860121
  },
  {
    "name": "Chef Shoukat Ali Home",
    "category": "tourism",
    "subcategory": "guest_house",
    "latitude": 30.7963554,
    "longitude": 73.4669129,
    "id": 5449595721
  },
  {
    "name": "Ishaq transport",
    "category": "amenity",
    "subcategory": "bus_station",
    "latitude": 30.8101915,
    "longitude": 73.4588328,
    "id": 6127579685
  },
  {
    "name": "Ok Restaurant GT riad okara",
    "category": "amenity",
    "subcategory": "restaurant",
    "latitude": 30.806983,
    "longitude": 73.458768,
    "id": 6175974887
  },
  {
    "name": "admore CNG and petrol station",
    "category": "amenity",
    "subcategory": "fuel",
    "latitude": 30.805836,
    "longitude": 73.46005,
    "id": 6175976685
  },
  {
    "name": "Punjab Clinic",
    "category": "amenity",
    "subcategory": "clinic",
    "latitude": 30.8060366,
    "longitude": 73.4605237,
    "id": 6175976785
  },
  {
    "name": "Well Beans Cafe and Grill",
    "category": "amenity",
    "subcategory": "restaurant",
    "latitude": 30.812749,
    "longitude": 73.448772,
    "id": 6263736686
  },
  {
    "name": "Grande Season Marriage Hall",
    "category": "amenity",
    "subcategory": "community_centre",
    "latitude": 30.8176274,
    "longitude": 73.4773763,
    "id": 6432904786
  },
  {
    "name": "(Captian Safdar Shaheed Park) Company Bagh",
    "category": "leisure",
    "subcategory": "park",
    "latitude": 30.8124981,
    "longitude": 73.446989,
    "id": 7396389985
  },
  {
    "name": "Jinnah Park Okara",
    "category": "leisure",
    "subcategory": "park",
    "latitude": 30.8005849,
    "longitude": 73.4312612,
    "id": 7397334377
  },
  {
    "name": "Janazgah",
    "category": "amenity",
    "subcategory": "place_of_worship",
    "latitude": 30.8154634,
    "longitude": 73.4462769,
    "id": 7397395246
  },
  {
    "name": "DHQ Hospital Okara",
    "category": "amenity",
    "subcategory": "hospital",
    "latitude": 30.8131065,
    "longitude": 73.4430535,
    "id": 7397674628
  },
  {
    "name": "Umer Villas",
    "category": "shop",
    "subcategory": "estate_agent",
    "latitude": 30.7844863,
    "longitude": 73.4672627,
    "id": 9798246150
  },
  {
    "name": "Azan Garden",
    "category": "shop",
    "subcategory": "estate_agent",
    "latitude": 30.7862579,
    "longitude": 73.4720654,
    "id": 9798285176
  },
  {
    "name": "Dimension Gaming",
    "category": "shop",
    "subcategory": "video_games",
    "latitude": 30.8250345,
    "longitude": 73.4548597,
    "id": 10736574196
  },
  {
    "name": "DHQ Hospital Okara",
    "category": "amenity",
    "subcategory": "hospital",
    "latitude": 30.8126702,
    "longitude": 73.4423736,
    "id": 12242550011
  },
  {
    "name": "DHQ Hospital Okara",
    "category": "amenity",
    "subcategory": "hospital",
    "latitude": 30.8120378,
    "longitude": 73.4427187,
    "id": 12242550012
  },
  {
    "name": "Sabzi Mandi (Farmer's Market)",
    "category": "amenity",
    "subcategory": "marketplace",
    "latitude": 30.8099227,
    "longitude": 73.4389793,
    "id": 12242561722
  },
  {
    "name": "Akif Book Depot",
    "category": "shop",
    "subcategory": "books",
    "latitude": 30.8091591,
    "longitude": 73.4444225,
    "id": 12242568013
  },
  {
    "name": "IGM Church Okara",
    "category": "amenity",
    "subcategory": "place_of_worship",
    "latitude": 30.8137234,
    "longitude": 73.4534368,
    "id": 12242568014
  },
  {
    "name": "Fateh Town Park",
    "category": "leisure",
    "subcategory": "park",
    "latitude": 30.8194974,
    "longitude": 73.4566681,
    "id": 12242758547
  },
  {
    "name": "Bilal Masjid",
    "category": "amenity",
    "subcategory": "place_of_worship",
    "latitude": 30.8198221,
    "longitude": 73.4568185,
    "id": 12242758548
  },
  {
    "name": "MCB",
    "category": "amenity",
    "subcategory": "bank",
    "latitude": 30.8075839,
    "longitude": 73.4415456,
    "id": 12243070353
  }
]