[
  {
    "name": "Dandot RS",
    "category": "place",
    "subcategory": "village",
    "latitude": 32.6391598,
    "longitude": 72.9766492,
    "id": 4404984712
  },
  {
    "name": "Dandot RS Dalmian",
    "category": "place",
    "subcategory": "village",
    "latitude": 32.6407354,
    "longitude": 72.971824,
    "id": 5045238120
  },
  {
    "name": "Cricket Ground",
    "category": "leisure",
    "subcategory": "pitch",
    "latitude": 32.6372179,
    "longitude": 72.9763556,
    "id": 5054528205
  },
  {
    "name": "Dandot RS Cement Factory",
    "category": "landuse",
    "subcategory": "industrial",
    "latitude": 32.64318029166667,
    "longitude": 72.977033925,
    "id": 332075447
  },
  {
    "name": "Dandot RS Cement Factory RD",
    "category": "highway",
    "subcategory": "unclassified",
    "latitude": 32.63662214318182,
    "longitude": 72.99140908863636,
    "id": 332075448
  },
  {
    "name": "Dandot RS NCI Man RD",
    "category": "highway",
    "subcategory": "unclassified",
    "latitude": 32.641721358536586,
    "longitude": 72.97528611951219,
    "id": 442849494
  },
  {
    "name": "Dandot RS",
    "category": "landuse",
    "subcategory": "residential",
    "latitude": 32.639801283870966,
    "longitude": 72.97627521612904,
    "id": 442852811
  },
  {
    "name": "NCI Colony Dandot RS RD",
    "category": "highway",
    "subcategory": "unclassified",
    "latitude": 32.639335894285715,
    "longitude": 72.97537181714286,
    "id": 442855634
  },
  {
    "name": "Dandot RS Officers Colony RD",
    "category": "highway",
    "subcategory": "unclassified",
    "latitude": 32.63506827241379,
    "longitude": 72.97688157241379,
    "id": 442862916
  },
  {
    "name": "Dandot RS Officers Colony RD 6",
    "category": "highway",
    "subcategory": "unclassified",
    "latitude": 32.633252875,
    "longitude": 72.976296,
    "id": 442862917
  },
  {
    "name": "Dandot RS Officers Colony RD 5",
    "category": "highway",
    "subcategory": "unclassified",
    "latitude": 32.63364827142858,
    "longitude": 72.97585362857143,
    "id": 442862918
  },
  {
    "name": "Dandot RS Officers Colony RD 4",
    "category": "highway",
    "subcategory": "unclassified",
    "latitude": 32.634476549999995,
    "longitude": 72.97617509999999,
    "id": 442862919
  },
  {
    "name": "Dandot RS Officers Colony Man RD",
    "category": "highway",
    "subcategory": "unclassified",
    "latitude": 32.63424724615385,
    "longitude": 72.97474616923077,
    "id": 442862920
  },
  {
    "name": "Dandot RS Officers Colony Man RD 1",
    "category": "highway",
    "subcategory": "unclassified",
    "latitude": 32.63575947692308,
    "longitude": 72.97569217692308,
    "id": 442862921
  },
  {
    "name": "Dandot RS Officers Colony School RD",
    "category": "highway",
    "subcategory": "unclassified",
    "latitude": 32.63421996,
    "longitude": 72.97511962,
    "id": 442862922
  },
  {
    "name": "Dandot RS Officers Colony Mosque RD",
    "category": "highway",
    "subcategory": "unclassified",
    "latitude": 32.6341226375,
    "longitude": 72.97534734999999,
    "id": 442862923
  },
  {
    "name": "Dandot RS Officers Colony RD 4+5",
    "category": "highway",
    "subcategory": "unclassified",
    "latitude": 32.63397871428571,
    "longitude": 72.9763114,
    "id": 442862924
  },
  {
    "name": "Dandot RS Officers Colony Line 1 RD",
    "category": "highway",
    "subcategory": "unclassified",
    "latitude": 32.63468984,
    "longitude": 72.97400186,
    "id": 442862925
  },
  {
    "name": "Dandot RS Officers Colony Line 2 RD",
    "category": "highway",
    "subcategory": "unclassified",
    "latitude": 32.63436456666667,
    "longitude": 72.97367186666666,
    "id": 442862926
  },
  {
    "name": "Dandot RS Officers Colony Line 3 RD",
    "category": "highway",
    "subcategory": "unclassified",
    "latitude": 32.634027466666666,
    "longitude": 72.97383475,
    "id": 442862927
  },
  {
    "name": "Dandot RS Officers Colony Line 1+3 RD",
    "category": "highway",
    "subcategory": "unclassified",
    "latitude": 32.634221479999994,
    "longitude": 72.97409528,
    "id": 442862928
  },
  {
    "name": "Dandot RS Officers Colony Line 4 RD",
    "category": "highway",
    "subcategory": "unclassified",
    "latitude": 32.63372736666667,
    "longitude": 72.97366088333334,
    "id": 442862929
  },
  {
    "name": "Dandot RS Officers Colony Line 5 RD",
    "category": "highway",
    "subcategory": "unclassified",
    "latitude": 32.633501055555556,
    "longitude": 72.97362747777778,
    "id": 442862930
  },
  {
    "name": "Dandot RS Officers Colony Line 6 RD",
    "category": "highway",
    "subcategory": "unclassified",
    "latitude": 32.633349550000005,
    "longitude": 72.9735427,
    "id": 442862931
  },
  {
    "name": "Dandot RS Officers Colony Shop RD",
    "category": "highway",
    "subcategory": "unclassified",
    "latitude": 32.63474774,
    "longitude": 72.97490774,
    "id": 442862932
  },
  {
    "name": "Dandot RS Officers Colony Stor RD",
    "category": "highway",
    "subcategory": "unclassified",
    "latitude": 32.63447916,
    "longitude": 72.97498729,
    "id": 442862933
  },
  {
    "name": "Dandot RS NCI Colony RD 1",
    "category": "highway",
    "subcategory": "unclassified",
    "latitude": 32.63756078888889,
    "longitude": 72.97650854444444,
    "id": 442864493
  },
  {
    "name": "Dandot RS Boys School RD",
    "category": "highway",
    "subcategory": "unclassified",
    "latitude": 32.6387288,
    "longitude": 72.97734126,
    "id": 442864494
  },
  {
    "name": "Dandot RS Wapda Man RD",
    "category": "highway",
    "subcategory": "unclassified",
    "latitude": 32.637841429999995,
    "longitude": 72.979238795,
    "id": 442864495
  },
  {
    "name": "Dandot RS Wapda + Dhok RD",
    "category": "highway",
    "subcategory": "unclassified",
    "latitude": 32.63351618266667,
    "longitude": 72.97914580000001,
    "id": 442864496
  },
  {
    "name": "Dandot RS Wapda RD 1",
    "category": "highway",
    "subcategory": "unclassified",
    "latitude": 32.63535384615385,
    "longitude": 72.97946026923077,
    "id": 442864497
  },
  {
    "name": "Dandot RS Choran RD",
    "category": "highway",
    "subcategory": "unclassified",
    "latitude": 32.63571757111111,
    "longitude": 72.96952723555556,
    "id": 442865178
  },
  {
    "name": "Dandot RS+ Pont Rd",
    "category": "highway",
    "subcategory": "unclassified",
    "latitude": 32.63878977142857,
    "longitude": 72.98102912857142,
    "id": 442912415
  },
  {
    "name": "Dandot RS Officers Colony School RD",
    "category": "highway",
    "subcategory": "unclassified",
    "latitude": 32.6361531,
    "longitude": 72.975603,
    "id": 1495324161
  },
  {
    "name": "Dandot RS Cement Factory",
    "category": "landuse",
    "subcategory": "industrial",
    "latitude": 32.642725075,
    "longitude": 72.97691869166667,
    "id": 332075447
  },
  {
    "name": "Dandot RS",
    "category": "landuse",
    "subcategory": "residential",
    "latitude": 32.6394111483871,
    "longitude": 72.9761343032258,
    "id": 442852811
  }
]