[
  {
    "name": "shakargarh",
    "category": "amenity",
    "subcategory": "bank",
    "latitude": 32.255345,
    "longitude": 75.1733176,
    "id": 4716315893
  },
  {
    "name": "الائیڈ بینک لمیٹڈ",
    "category": "amenity",
    "subcategory": "bank",
    "latitude": 32.2602966,
    "longitude": 75.1637638,
    "id": 5299092726
  },
  {
    "name": "Govt. High School",
    "category": "amenity",
    "subcategory": "school",
    "latitude": 32.2607934,
    "longitude": 75.1699194,
    "id": 5299104426
  },
  {
    "name": "shell petrol pump",
    "category": "amenity",
    "subcategory": "fuel",
    "latitude": 32.2399026,
    "longitude": 75.1461149,
    "id": 5299104428
  },
  {
    "name": "Total petrol pump",
    "category": "amenity",
    "subcategory": "fuel",
    "latitude": 32.2387262,
    "longitude": 75.1452934,
    "id": 5299104429
  },
  {
    "name": "civil courts",
    "category": "amenity",
    "subcategory": "courthouse",
    "latitude": 32.2615484,
    "longitude": 75.1661584,
    "id": 5299115423
  },
  {
    "name": "HBL Bank",
    "category": "amenity",
    "subcategory": "bank",
    "latitude": 32.260976,
    "longitude": 75.1729133,
    "id": 5299122421
  },
  {
    "name": "Govt. Degree College",
    "category": "amenity",
    "subcategory": "college",
    "latitude": 32.2634673,
    "longitude": 75.1617658,
    "id": 5299122422
  },
  {
    "name": "National Bank",
    "category": "amenity",
    "subcategory": "bank",
    "latitude": 32.2638014,
    "longitude": 75.1623961,
    "id": 5300293923
  },
  {
    "name": "Bank Al Habib",
    "category": "amenity",
    "subcategory": "bank",
    "latitude": 32.2648225,
    "longitude": 75.1576896,
    "id": 5304129122
  },
  {
    "name": "BOP",
    "category": "amenity",
    "subcategory": "bank",
    "latitude": 32.2649313,
    "longitude": 75.1584407,
    "id": 5304129123
  },
  {
    "name": "fruit market",
    "category": "shop",
    "subcategory": "supermarket",
    "latitude": 32.2583924,
    "longitude": 75.1729803,
    "id": 5304129125
  },
  {
    "name": "National photo studio",
    "category": "shop",
    "subcategory": "photo",
    "latitude": 32.2616195,
    "longitude": 75.1675629,
    "id": 5304129126
  },
  {
    "name": "Guest House",
    "category": "tourism",
    "subcategory": "guest_house",
    "latitude": 32.2618618,
    "longitude": 75.1650017,
    "id": 5304129127
  },
  {
    "name": "Taj Plaza",
    "category": "shop",
    "subcategory": "mobile_phone",
    "latitude": 32.2614367,
    "longitude": 75.1649003,
    "id": 5304129128
  },
  {
    "name": "Baghdadi Masjid",
    "category": "amenity",
    "subcategory": "place_of_worship",
    "latitude": 32.2612257,
    "longitude": 75.1683114,
    "id": 5304129129
  },
  {
    "name": "THQ",
    "category": "amenity",
    "subcategory": "hospital",
    "latitude": 32.2642508,
    "longitude": 75.1616967,
    "id": 5304138421
  },
  {
    "name": "HBL Bank",
    "category": "amenity",
    "subcategory": "bank",
    "latitude": 32.264328,
    "longitude": 75.1592821,
    "id": 5304138423
  },
  {
    "name": "تھانہ",
    "category": "amenity",
    "subcategory": "police",
    "latitude": 32.2628878,
    "longitude": 75.1577125,
    "id": 5304138425
  },
  {
    "name": "Akram Hospital",
    "category": "amenity",
    "subcategory": "clinic",
    "latitude": 32.2598934,
    "longitude": 75.170133,
    "id": 5304138426
  },
  {
    "name": "Bus Stand",
    "category": "amenity",
    "subcategory": "bus_station",
    "latitude": 32.2596751,
    "longitude": 75.1640281,
    "id": 5304138523
  },
  {
    "name": "NBP Ghallah Mandi Branch",
    "category": "amenity",
    "subcategory": "bank",
    "latitude": 32.2639258,
    "longitude": 75.1665823,
    "id": 6660678786
  },
  {
    "name": "Special Education School System Shakargarh",
    "category": "amenity",
    "subcategory": "school",
    "latitude": 32.2628549,
    "longitude": 75.1460156,
    "id": 6919507785
  },
  {
    "name": "MCB",
    "category": "amenity",
    "subcategory": "bank",
    "latitude": 32.2649569,
    "longitude": 75.1583843,
    "id": 11420175012
  },
  {
    "name": "Smart Cash & Carry",
    "category": "shop",
    "subcategory": "supermarket",
    "latitude": 32.2650096,
    "longitude": 75.158196,
    "id": 11420175013
  }
]