[
  {
    "name": "PTDC Motel",
    "category": "tourism",
    "subcategory": "hotel",
    "latitude": 35.4802653,
    "longitude": 72.5865144,
    "id": 3522723306
  },
  {
    "name": "Falaksir",
    "category": "tourism",
    "subcategory": "hotel",
    "latitude": 35.4812788,
    "longitude": 72.5867075,
    "id": 3522723307
  },
  {
    "name": "Hotel Heaven Breeze",
    "category": "tourism",
    "subcategory": "hotel",
    "latitude": 35.4787888,
    "longitude": 72.5850016,
    "id": 3522723308
  },
  {
    "name": "Kalam Police",
    "category": "amenity",
    "subcategory": "police",
    "latitude": 35.4822988,
    "longitude": 72.5858792,
    "id": 4439806256
  },
  {
    "name": "Hotel Mid Hills",
    "category": "tourism",
    "subcategory": "hotel",
    "latitude": 35.4719939,
    "longitude": 72.5916939,
    "id": 4439806263
  },
  {
    "name": "Blue Ocean Hotel Kalam",
    "category": "tourism",
    "subcategory": "hotel",
    "latitude": 35.4886286,
    "longitude": 72.5842108,
    "id": 7231566272
  },
  {
    "name": "Hotel Diamond Hills",
    "category": "tourism",
    "subcategory": "hotel",
    "latitude": 35.4720522,
    "longitude": 72.5911167,
    "id": 8274075218
  },
  {
    "name": "Singham Hotel",
    "category": "tourism",
    "subcategory": "motel",
    "latitude": 35.4812988,
    "longitude": 72.5820799,
    "id": 8274087118
  },
  {
    "name": "Hotel Diamond Hills, Kalam",
    "category": "tourism",
    "subcategory": "hotel",
    "latitude": 35.4706569,
    "longitude": 72.5922588,
    "id": 8274089417
  },
  {
    "name": "Honeymoon Hotel",
    "category": "tourism",
    "subcategory": "hotel",
    "latitude": 35.4723596,
    "longitude": 72.5912646,
    "id": 8274089418
  },
  {
    "name": "Hotel Mid Hills",
    "category": "tourism",
    "subcategory": "hotel",
    "latitude": 35.4713117,
    "longitude": 72.5921782,
    "id": 8274089917
  },
  {
    "name": "Kamal restaurant",
    "category": "amenity",
    "subcategory": "restaurant",
    "latitude": 35.4751772,
    "longitude": 72.5914623,
    "id": 9751593421
  },
  {
    "name": "View of valleys north and northwest",
    "category": "tourism",
    "subcategory": "viewpoint",
    "latitude": 35.5114541,
    "longitude": 72.5707779,
    "id": 9751593422
  },
  {
    "name": "End of paved road",
    "category": "tourism",
    "subcategory": "attraction",
    "latitude": 35.5184201,
    "longitude": 72.5611088,
    "id": 9751606218
  },
  {
    "name": "View of valley northeast",
    "category": "tourism",
    "subcategory": "viewpoint",
    "latitude": 35.5043524,
    "longitude": 72.5835023,
    "id": 9751606520
  },
  {
    "name": "Kalam adda terminal",
    "category": "amenity",
    "subcategory": "bus_station",
    "latitude": 35.4832767,
    "longitude": 72.5885265,
    "id": 13969972701
  }
]