[
  {
    "name": "تھانہ",
    "category": "amenity",
    "subcategory": "police",
    "latitude": 33.4388536,
    "longitude": 72.0238988,
    "id": 3882639559
  },
  {
    "name": "Al Shifa Medical Complex",
    "category": "amenity",
    "subcategory": "hospital",
    "latitude": 33.43546,
    "longitude": 72.0205931,
    "id": 4850154723
  },
  {
    "name": "bypass start",
    "category": "tourism",
    "subcategory": "attraction",
    "latitude": 33.4396772,
    "longitude": 71.9959543,
    "id": 4996544223
  },
  {
    "name": "Rehman Hotel Jand",
    "category": "tourism",
    "subcategory": "hotel",
    "latitude": 33.4542818,
    "longitude": 72.039908,
    "id": 5230601823
  },
  {
    "name": "New Madina Resturant, Jand",
    "category": "amenity",
    "subcategory": "restaurant",
    "latitude": 33.4395764,
    "longitude": 71.9957341,
    "id": 13296213301
  }
]