[
  {
    "name": "Haider Stadium",
    "category": "leisure",
    "subcategory": "stadium",
    "latitude": 30.0055989,
    "longitude": 73.2684453,
    "id": 3360749850
  },
  {
    "name": "District Jail",
    "category": "amenity",
    "subcategory": "prison",
    "latitude": 29.9977381,
    "longitude": 73.2673368,
    "id": 4303486218
  },
  {
    "name": "Eidgah",
    "category": "amenity",
    "subcategory": "place_of_worship",
    "latitude": 30.0009163,
    "longitude": 73.2577196,
    "id": 4303494840
  },
  {
    "name": "Government High School Girls",
    "category": "amenity",
    "subcategory": "school",
    "latitude": 29.9972328,
    "longitude": 73.2588758,
    "id": 4303511683
  },
  {
    "name": "City police station",
    "category": "amenity",
    "subcategory": "police",
    "latitude": 29.9997115,
    "longitude": 73.2572415,
    "id": 4303511684
  },
  {
    "name": "Bus Station",
    "category": "amenity",
    "subcategory": "bus_station",
    "latitude": 29.9988242,
    "longitude": 73.2608191,
    "id": 4303511685
  },
  {
    "name": "Sever Bodla Pump",
    "category": "amenity",
    "subcategory": "fuel",
    "latitude": 29.954854,
    "longitude": 73.252926,
    "id": 4360818789
  },
  {
    "name": "Maheen Aviation Travels & Tours",
    "category": "shop",
    "subcategory": "travel_agency",
    "latitude": 30.0004557,
    "longitude": 73.2580349,
    "id": 12261038420
  },
  {
    "name": "Stitch Fabrics",
    "category": "shop",
    "subcategory": "clothes",
    "latitude": 29.9954877,
    "longitude": 73.2539038,
    "id": 13141489991
  },
  {
    "name": "Field store B-Nagar Mepco",
    "category": "shop",
    "subcategory": "convenience",
    "latitude": 30.0060015,
    "longitude": 73.2624778,
    "id": 13751682202
  }
]