[
  {
    "name": "Bhawan Valmik and Durgan Mata Mandir",
    "category": "amenity",
    "subcategory": "place_of_worship",
    "latitude": 27.9548114,
    "longitude": 68.6449959,
    "id": 10003329124
  },
  {
    "name": "جامعہ مسجد پرانا صدر",
    "category": "amenity",
    "subcategory": "place_of_worship",
    "latitude": 27.954448,
    "longitude": 68.6460445,
    "id": 10003329125
  },
  {
    "name": "City Museum",
    "category": "tourism",
    "subcategory": "museum",
    "latitude": 27.9627546,
    "longitude": 68.6330775,
    "id": 10003329146
  },
  {
    "name": "Merewether Pavilion",
    "category": "amenity",
    "subcategory": "shelter",
    "latitude": 27.9446173,
    "longitude": 68.6298617,
    "id": 10003329147
  },
  {
    "name": "Ganga Bai",
    "category": "amenity",
    "subcategory": "hospital",
    "latitude": 27.9527257,
    "longitude": 68.6381392,
    "id": 10003329160
  }
]