[
  {
    "name": "غوریوالہ",
    "category": "place",
    "subcategory": "village",
    "latitude": 32.9034175,
    "longitude": 70.7236359,
    "id": 10669404138
  },
  {
    "name": "Yousafzai Chowk",
    "category": "place",
    "subcategory": "square",
    "latitude": 32.9035807,
    "longitude": 70.7244237,
    "id": 11032014079
  },
  {
    "name": "Kot Mehtar Mughal Khel",
    "category": "place",
    "subcategory": "village",
    "latitude": 32.9064481,
    "longitude": 70.7166048,
    "id": 11088559472
  },
  {
    "name": "Jani Mughal Khel",
    "category": "place",
    "subcategory": "village",
    "latitude": 32.9090101,
    "longitude": 70.7241462,
    "id": 11088583800
  },
  {
    "name": "Jafar Mughal Khel Road",
    "category": "highway",
    "subcategory": "tertiary",
    "latitude": 32.91513814326923,
    "longitude": 70.72646718557692,
    "id": 693424944
  },
  {
    "name": "residential",
    "category": "highway",
    "subcategory": "residential",
    "latitude": 32.9006061275,
    "longitude": 70.736040935,
    "id": 968959872
  },
  {
    "name": "Mughal Khel Road",
    "category": "highway",
    "subcategory": "unclassified",
    "latitude": 32.89666177317073,
    "longitude": 70.74057344268292,
    "id": 968959873
  },
  {
    "name": "residential",
    "category": "highway",
    "subcategory": "residential",
    "latitude": 32.898463400000004,
    "longitude": 70.71928006,
    "id": 968959882
  },
  {
    "name": "residential",
    "category": "highway",
    "subcategory": "residential",
    "latitude": 32.91177028888889,
    "longitude": 70.73454767777778,
    "id": 968961827
  },
  {
    "name": "residential",
    "category": "highway",
    "subcategory": "residential",
    "latitude": 32.906956,
    "longitude": 70.732031,
    "id": 968961828
  },
  {
    "name": "unclassified",
    "category": "highway",
    "subcategory": "unclassified",
    "latitude": 32.906387025,
    "longitude": 70.72518043333334,
    "id": 968962917
  },
  {
    "name": "residential",
    "category": "highway",
    "subcategory": "residential",
    "latitude": 32.908010425,
    "longitude": 70.72833538333333,
    "id": 968962918
  },
  {
    "name": "residential",
    "category": "highway",
    "subcategory": "residential",
    "latitude": 32.905623166666665,
    "longitude": 70.72897465925926,
    "id": 968962919
  },
  {
    "name": "residential",
    "category": "highway",
    "subcategory": "residential",
    "latitude": 32.909501675,
    "longitude": 70.728625925,
    "id": 968962920
  },
  {
    "name": "residential",
    "category": "highway",
    "subcategory": "residential",
    "latitude": 32.90901422121212,
    "longitude": 70.71700198787879,
    "id": 968963333
  },
  {
    "name": "residential",
    "category": "highway",
    "subcategory": "residential",
    "latitude": 32.905790979069764,
    "longitude": 70.71561791860465,
    "id": 968963334
  }
]