[
  {
    "name": "شنگلی پائیں",
    "category": "place",
    "subcategory": "village",
    "latitude": 34.6851705,
    "longitude": 72.9812087,
    "id": 2644624211
  },
  {
    "name": "Shingli Bala",
    "category": "place",
    "subcategory": "village",
    "latitude": 34.6781817,
    "longitude": 72.9848327,
    "id": 2644624263
  },
  {
    "name": "شاہراہ قراقرم",
    "category": "highway",
    "subcategory": "trunk",
    "latitude": 34.70048305535055,
    "longitude": 72.97795317675276,
    "id": 62117888
  },
  {
    "name": "Shingli Bala Road",
    "category": "highway",
    "subcategory": "unclassified",
    "latitude": 34.676544535135136,
    "longitude": 72.98810511891892,
    "id": 419189953
  },
  {
    "name": "residential",
    "category": "highway",
    "subcategory": "residential",
    "latitude": 34.6781075375,
    "longitude": 72.9862413875,
    "id": 457887422
  },
  {
    "name": "Seray Road",
    "category": "highway",
    "subcategory": "residential",
    "latitude": 34.677375093181816,
    "longitude": 72.98574019772728,
    "id": 457888059
  },
  {
    "name": "residential",
    "category": "highway",
    "subcategory": "residential",
    "latitude": 34.68462657280702,
    "longitude": 72.98307726578946,
    "id": 458262806
  },
  {
    "name": "Shingli Bala Qabristan",
    "category": "landuse",
    "subcategory": "cemetery",
    "latitude": 34.677729345454544,
    "longitude": 72.98599368181819,
    "id": 459562605
  },
  {
    "name": "Janazgah",
    "category": "shop",
    "subcategory": "funeral_directors",
    "latitude": 34.67778862,
    "longitude": 72.98654435,
    "id": 463228515
  },
  {
    "name": "Shingli Bala Qabristan",
    "category": "landuse",
    "subcategory": "cemetery",
    "latitude": 34.67763508181818,
    "longitude": 72.9859119090909,
    "id": 459562605
  },
  {
    "name": "Janazgah",
    "category": "shop",
    "subcategory": "funeral_directors",
    "latitude": 34.67777798,
    "longitude": 72.98652062,
    "id": 463228515
  },
  {
    "name": "Ghazikot",
    "category": "natural",
    "subcategory": "wood",
    "latitude": 34.68815949771784,
    "longitude": 72.99660213112033,
    "id": 17810961
  }
]