[
  {
    "name": "دُلّےوالا‎",
    "category": "place",
    "subcategory": "town",
    "latitude": 31.8371094,
    "longitude": 71.4338294,
    "id": 1927757049
  },
  {
    "name": "hamlet",
    "category": "place",
    "subcategory": "hamlet",
    "latitude": 31.838196,
    "longitude": 71.4648284,
    "id": 1927759503
  },
  {
    "name": "Jamia Miana Masjid",
    "category": "amenity",
    "subcategory": "place_of_worship",
    "latitude": 31.8389376,
    "longitude": 71.4365286,
    "id": 4318717501
  },
  {
    "name": "Bilal Masjid Bhatian Wali",
    "category": "amenity",
    "subcategory": "place_of_worship",
    "latitude": 31.8325541,
    "longitude": 71.4363499,
    "id": 4318717508
  },
  {
    "name": "Arbaz Restaurant",
    "category": "amenity",
    "subcategory": "fast_food",
    "latitude": 31.8414159,
    "longitude": 71.4266543,
    "id": 4318717509
  },
  {
    "name": "Jamia Masjid Eid Gah Garbi",
    "category": "amenity",
    "subcategory": "place_of_worship",
    "latitude": 31.8353448,
    "longitude": 71.431299,
    "id": 4318717513
  },
  {
    "name": "Rawn Friends Motors",
    "category": "shop",
    "subcategory": "motorcycle",
    "latitude": 31.842626,
    "longitude": 71.4279986,
    "id": 4318717522
  },
  {
    "name": "Pakistan Post Office",
    "category": "amenity",
    "subcategory": "post_office",
    "latitude": 31.8364965,
    "longitude": 71.4343326,
    "id": 4318717543
  },
  {
    "name": "Jamia Sonhri Masjid",
    "category": "amenity",
    "subcategory": "place_of_worship",
    "latitude": 31.8336732,
    "longitude": 71.4352109,
    "id": 4318717549
  },
  {
    "name": "Sayad Al Mursalen Masjid",
    "category": "amenity",
    "subcategory": "place_of_worship",
    "latitude": 31.8419377,
    "longitude": 71.4265057,
    "id": 4318717551
  },
  {
    "name": "Jamia Masjid Eid Gah Sarki",
    "category": "amenity",
    "subcategory": "place_of_worship",
    "latitude": 31.8345721,
    "longitude": 71.4396489,
    "id": 4318717555
  },
  {
    "name": "Bata Shoes",
    "category": "shop",
    "subcategory": "yes",
    "latitude": 31.8410407,
    "longitude": 71.426989,
    "id": 4318717556
  },
  {
    "name": "Nibuwala",
    "category": "place",
    "subcategory": "village",
    "latitude": 31.8392059,
    "longitude": 71.4607156,
    "id": 4318720566
  },
  {
    "name": "Jafria Masjid Mahallah Jamatan Wala",
    "category": "amenity",
    "subcategory": "place_of_worship",
    "latitude": 31.8283917,
    "longitude": 71.440449,
    "id": 4318720569
  },
  {
    "name": "Petrol Station",
    "category": "amenity",
    "subcategory": "fuel",
    "latitude": 31.8290834,
    "longitude": 71.4384869,
    "id": 4318720585
  },
  {
    "name": "Mahallah Jhammtan Wala",
    "category": "place",
    "subcategory": "village",
    "latitude": 31.8277451,
    "longitude": 71.4411197,
    "id": 4318720588
  },
  {
    "name": "Dullewala High School",
    "category": "amenity",
    "subcategory": "school",
    "latitude": 31.8369704,
    "longitude": 71.4232587,
    "id": 4318722874
  },
  {
    "name": "Al Imran Hotel",
    "category": "tourism",
    "subcategory": "hotel",
    "latitude": 31.8365767,
    "longitude": 71.4223575,
    "id": 4318722884
  },
  {
    "name": "Petroleum",
    "category": "amenity",
    "subcategory": "fuel",
    "latitude": 31.8395553,
    "longitude": 71.4288207,
    "id": 4318726125
  },
  {
    "name": "PSO (good one for stay)",
    "category": "amenity",
    "subcategory": "fuel",
    "latitude": 31.8274183,
    "longitude": 71.4177366,
    "id": 4362720392
  },
  {
    "name": "Jhamat shumali adda",
    "category": "highway",
    "subcategory": "bus_stop",
    "latitude": 31.8344101,
    "longitude": 71.4368276,
    "id": 4809325121
  },
  {
    "name": "Gulraiz medical store",
    "category": "amenity",
    "subcategory": "pharmacy",
    "latitude": 31.8344464,
    "longitude": 71.4367919,
    "id": 4809592424
  },
  {
    "name": "Butcher shop",
    "category": "shop",
    "subcategory": "butcher",
    "latitude": 31.8344537,
    "longitude": 71.4367353,
    "id": 4815674925
  },
  {
    "name": "tertiary",
    "category": "highway",
    "subcategory": "tertiary",
    "latitude": 31.802729465714282,
    "longitude": 71.40689096857143,
    "id": 72844190
  },
  {
    "name": "میانوالی - مظفر گڑھ سڑک‎",
    "category": "highway",
    "subcategory": "trunk",
    "latitude": 31.860958954838708,
    "longitude": 71.42586445870967,
    "id": 93416931
  },
  {
    "name": "secondary",
    "category": "highway",
    "subcategory": "secondary",
    "latitude": 31.815931398701295,
    "longitude": 71.32387814545456,
    "id": 294205157
  },
  {
    "name": "Sardar Khel Street",
    "category": "highway",
    "subcategory": "residential",
    "latitude": 31.842026162499998,
    "longitude": 71.43043665,
    "id": 432946859
  },
  {
    "name": "Haji Dolat Khan Street",
    "category": "highway",
    "subcategory": "residential",
    "latitude": 31.842932400000002,
    "longitude": 71.42848045,
    "id": 432946863
  },
  {
    "name": "tertiary",
    "category": "highway",
    "subcategory": "tertiary",
    "latitude": 31.83988879032258,
    "longitude": 71.49756221612904,
    "id": 432946865
  },
  {
    "name": "residential",
    "category": "highway",
    "subcategory": "residential",
    "latitude": 31.85022867857143,
    "longitude": 71.436137675,
    "id": 432947174
  },
  {
    "name": "Jinnah Rd",
    "category": "highway",
    "subcategory": "residential",
    "latitude": 31.8388682,
    "longitude": 71.4305421125,
    "id": 432947175
  },
  {
    "name": "Link Rd",
    "category": "highway",
    "subcategory": "residential",
    "latitude": 31.835343985294116,
    "longitude": 71.43957530588236,
    "id": 432947393
  },
  {
    "name": "residential",
    "category": "highway",
    "subcategory": "residential",
    "latitude": 31.83971241875,
    "longitude": 71.433592825,
    "id": 432947641
  },
  {
    "name": "Dullewala Mahota Rd",
    "category": "highway",
    "subcategory": "unclassified",
    "latitude": 31.838404475,
    "longitude": 71.404021,
    "id": 432947642
  },
  {
    "name": "Family Park",
    "category": "leisure",
    "subcategory": "park",
    "latitude": 31.824128039999998,
    "longitude": 71.4177173,
    "id": 432947643
  },
  {
    "name": "unclassified",
    "category": "highway",
    "subcategory": "unclassified",
    "latitude": 31.858155636363634,
    "longitude": 71.40938106363636,
    "id": 432947644
  },
  {
    "name": "unclassified",
    "category": "highway",
    "subcategory": "unclassified",
    "latitude": 31.88741880754717,
    "longitude": 71.52283335188679,
    "id": 1070273988
  },
  {
    "name": "secondary",
    "category": "highway",
    "subcategory": "secondary",
    "latitude": 31.885073066141732,
    "longitude": 71.48527858031495,
    "id": 1070284922
  },
  {
    "name": "unclassified",
    "category": "highway",
    "subcategory": "unclassified",
    "latitude": 31.841087028333334,
    "longitude": 71.44783280166666,
    "id": 1070388348
  },
  {
    "name": "track",
    "category": "highway",
    "subcategory": "track",
    "latitude": 31.85154699074074,
    "longitude": 71.44773587222222,
    "id": 1070394186
  },
  {
    "name": "unclassified",
    "category": "highway",
    "subcategory": "unclassified",
    "latitude": 31.854358540186915,
    "longitude": 71.4485186046729,
    "id": 1070394187
  },
  {
    "name": "unclassified",
    "category": "highway",
    "subcategory": "unclassified",
    "latitude": 31.857075592857143,
    "longitude": 71.45830882142857,
    "id": 1070394188
  },
  {
    "name": "track",
    "category": "highway",
    "subcategory": "track",
    "latitude": 31.864760016666665,
    "longitude": 71.46749799166666,
    "id": 1070394189
  },
  {
    "name": "track",
    "category": "highway",
    "subcategory": "track",
    "latitude": 31.885967337857146,
    "longitude": 71.42757816071428,
    "id": 1070394190
  },
  {
    "name": "unclassified",
    "category": "highway",
    "subcategory": "unclassified",
    "latitude": 31.870294771428572,
    "longitude": 71.39616824285714,
    "id": 1070641097
  },
  {
    "name": "tertiary",
    "category": "highway",
    "subcategory": "tertiary",
    "latitude": 31.817889155555555,
    "longitude": 71.4750510074074,
    "id": 1104196759
  },
  {
    "name": "residential",
    "category": "highway",
    "subcategory": "residential",
    "latitude": 31.8377867,
    "longitude": 71.43894152,
    "id": 1127335235
  },
  {
    "name": "residential",
    "category": "highway",
    "subcategory": "residential",
    "latitude": 31.838863025,
    "longitude": 71.4388379,
    "id": 1127335236
  },
  {
    "name": "residential",
    "category": "highway",
    "subcategory": "residential",
    "latitude": 31.83966935882353,
    "longitude": 71.43827491764706,
    "id": 1127335237
  },
  {
    "name": "residential",
    "category": "highway",
    "subcategory": "residential",
    "latitude": 31.837475299999998,
    "longitude": 71.43490345,
    "id": 1127335238
  },
  {
    "name": "residential",
    "category": "highway",
    "subcategory": "residential",
    "latitude": 31.8405705,
    "longitude": 71.4294079,
    "id": 1127335239
  },
  {
    "name": "residential",
    "category": "highway",
    "subcategory": "residential",
    "latitude": 31.841038724999997,
    "longitude": 71.43169632499999,
    "id": 1127335240
  },
  {
    "name": "residential",
    "category": "highway",
    "subcategory": "residential",
    "latitude": 31.84079435,
    "longitude": 71.4344979,
    "id": 1127335241
  },
  {
    "name": "residential",
    "category": "highway",
    "subcategory": "residential",
    "latitude": 31.8408552,
    "longitude": 71.43612665,
    "id": 1127335242
  },
  {
    "name": "residential",
    "category": "highway",
    "subcategory": "residential",
    "latitude": 31.83987665,
    "longitude": 71.43496845,
    "id": 1127335243
  },
  {
    "name": "residential",
    "category": "highway",
    "subcategory": "residential",
    "latitude": 31.840234971428572,
    "longitude": 71.43506388571429,
    "id": 1127335244
  },
  {
    "name": "residential",
    "category": "highway",
    "subcategory": "residential",
    "latitude": 31.836503822222223,
    "longitude": 71.43737815555556,
    "id": 1127335245
  },
  {
    "name": "residential",
    "category": "highway",
    "subcategory": "residential",
    "latitude": 31.83593145,
    "longitude": 71.43983378333333,
    "id": 1127335246
  },
  {
    "name": "residential",
    "category": "highway",
    "subcategory": "residential",
    "latitude": 31.832148589999996,
    "longitude": 71.43785935,
    "id": 1127335247
  },
  {
    "name": "residential",
    "category": "highway",
    "subcategory": "residential",
    "latitude": 31.835897199999998,
    "longitude": 71.43644535,
    "id": 1127335248
  },
  {
    "name": "residential",
    "category": "highway",
    "subcategory": "residential",
    "latitude": 31.834448929999997,
    "longitude": 71.43484033,
    "id": 1127335249
  },
  {
    "name": "residential",
    "category": "highway",
    "subcategory": "residential",
    "latitude": 31.8356631,
    "longitude": 71.43700226666665,
    "id": 1127335250
  },
  {
    "name": "secondary",
    "category": "highway",
    "subcategory": "secondary",
    "latitude": 31.83111658888889,
    "longitude": 71.44145075555555,
    "id": 1158541099
  },
  {
    "name": "unclassified",
    "category": "highway",
    "subcategory": "unclassified",
    "latitude": 31.786593253473686,
    "longitude": 71.45974823978948,
    "id": 1184011051
  },
  {
    "name": "Family Park",
    "category": "leisure",
    "subcategory": "park",
    "latitude": 31.824128039999998,
    "longitude": 71.4177173,
    "id": 432947643
  }
]