[
  {
    "name": "Bahian Wali Masjid",
    "category": "amenity",
    "subcategory": "place_of_worship",
    "latitude": 32.7038135,
    "longitude": 71.9343129,
    "id": 4307022569
  },
  {
    "name": "Baba Dhari Wali Masjid",
    "category": "tourism",
    "subcategory": "hotel",
    "latitude": 32.6915647,
    "longitude": 71.9304554,
    "id": 4307022570
  },
  {
    "name": "Gohar Khan Wala Marka",
    "category": "tourism",
    "subcategory": "hotel",
    "latitude": 32.6961543,
    "longitude": 71.9331288,
    "id": 4307022571
  },
  {
    "name": "Bazar Wali Masjid",
    "category": "amenity",
    "subcategory": "place_of_worship",
    "latitude": 32.6952325,
    "longitude": 71.9321902,
    "id": 4307022578
  },
  {
    "name": "Shaheed Masjid",
    "category": "amenity",
    "subcategory": "place_of_worship",
    "latitude": 32.6968283,
    "longitude": 71.9373599,
    "id": 4307022579
  },
  {
    "name": "Dhanian Wali Masjid",
    "category": "amenity",
    "subcategory": "place_of_worship",
    "latitude": 32.696551,
    "longitude": 71.9294765,
    "id": 4307022587
  },
  {
    "name": "Jahali Wali Masjid",
    "category": "amenity",
    "subcategory": "place_of_worship",
    "latitude": 32.6966653,
    "longitude": 71.9339942,
    "id": 4307022588
  },
  {
    "name": "Ada Wali Masjid",
    "category": "amenity",
    "subcategory": "place_of_worship",
    "latitude": 32.6975901,
    "longitude": 71.9329717,
    "id": 4307022796
  },
  {
    "name": "Banhi Wali Masjid",
    "category": "amenity",
    "subcategory": "place_of_worship",
    "latitude": 32.6952781,
    "longitude": 71.931091,
    "id": 4307022801
  },
  {
    "name": "Khaggi Wali Masjid",
    "category": "amenity",
    "subcategory": "place_of_worship",
    "latitude": 32.6967631,
    "longitude": 71.93534,
    "id": 4307022802
  },
  {
    "name": "Malik House Lawa",
    "category": "amenity",
    "subcategory": "shelter",
    "latitude": 32.6962578,
    "longitude": 71.9399881,
    "id": 4396373391
  }
]