[
  {
    "name": "Nusrat Fateh Ali Khan Auditorium",
    "category": "amenity",
    "subcategory": "theatre",
    "latitude": 31.4314619,
    "longitude": 73.0861493,
    "id": 860974881
  },
  {
    "name": "Commissioner DCO Office",
    "category": "office",
    "subcategory": "government",
    "latitude": 31.4305328,
    "longitude": 73.0884517,
    "id": 860974927
  },
  {
    "name": "Malkapur",
    "category": "place",
    "subcategory": "village",
    "latitude": 31.4536532,
    "longitude": 73.1441293,
    "id": 870835867
  },
  {
    "name": "فیصل آباد",
    "category": "place",
    "subcategory": "city",
    "latitude": 31.4220558,
    "longitude": 73.0923253,
    "id": 1974766376
  },
  {
    "name": "پاکستان اسٹیٹ آئل",
    "category": "amenity",
    "subcategory": "fuel",
    "latitude": 31.4071524,
    "longitude": 73.1214217,
    "id": 2677251707
  },
  {
    "name": "شیل",
    "category": "amenity",
    "subcategory": "fuel",
    "latitude": 31.4061308,
    "longitude": 73.1226551,
    "id": 2677251714
  },
  {
    "name": "Safron Filling Station- Total Petrol Station",
    "category": "amenity",
    "subcategory": "fuel",
    "latitude": 31.4160091,
    "longitude": 73.1097756,
    "id": 2677251724
  },
  {
    "name": "Shell Petrol",
    "category": "amenity",
    "subcategory": "fuel",
    "latitude": 31.4163421,
    "longitude": 73.1087804,
    "id": 2677251730
  },
  {
    "name": "fuel",
    "category": "amenity",
    "subcategory": "fuel",
    "latitude": 31.4065916,
    "longitude": 73.1213225,
    "id": 2677269115
  },
  {
    "name": "village",
    "category": "place",
    "subcategory": "village",
    "latitude": 31.4116268,
    "longitude": 73.123138,
    "id": 2678738273
  },
  {
    "name": "Ayesha CNG",
    "category": "amenity",
    "subcategory": "fuel",
    "latitude": 31.427972,
    "longitude": 73.1166363,
    "id": 2678795289
  },
  {
    "name": "مدینہ ٹاؤن",
    "category": "place",
    "subcategory": "town",
    "latitude": 31.4161545,
    "longitude": 73.1202728,
    "id": 2680682875
  },
  {
    "name": "Shiblee College For Women",
    "category": "amenity",
    "subcategory": "college",
    "latitude": 31.4169255,
    "longitude": 73.1183917,
    "id": 2680725900
  },
  {
    "name": "crossing",
    "category": "highway",
    "subcategory": "crossing",
    "latitude": 31.3887872,
    "longitude": 73.09784,
    "id": 2893907842
  },
  {
    "name": "Qadria Masjid",
    "category": "amenity",
    "subcategory": "place_of_worship",
    "latitude": 31.3977283,
    "longitude": 73.0957002,
    "id": 2895778831
  },
  {
    "name": "crossing",
    "category": "highway",
    "subcategory": "crossing",
    "latitude": 31.4165279,
    "longitude": 73.0941916,
    "id": 2903845165
  },
  {
    "name": "Ideal Sweets",
    "category": "shop",
    "subcategory": "yes",
    "latitude": 31.4045389,
    "longitude": 73.1035661,
    "id": 2912486600
  },
  {
    "name": "Baber Chowk",
    "category": "highway",
    "subcategory": "bus_stop",
    "latitude": 31.3978155,
    "longitude": 73.1003217,
    "id": 2912514363
  },
  {
    "name": "Noorani Masjid",
    "category": "amenity",
    "subcategory": "place_of_worship",
    "latitude": 31.3969272,
    "longitude": 73.0919478,
    "id": 2912516292
  },
  {
    "name": "Usmania Majid",
    "category": "amenity",
    "subcategory": "place_of_worship",
    "latitude": 31.3921192,
    "longitude": 73.0922589,
    "id": 2912517326
  },
  {
    "name": "Al Masoom Masjid",
    "category": "amenity",
    "subcategory": "place_of_worship",
    "latitude": 31.3961076,
    "longitude": 73.0912772,
    "id": 2912517619
  },
  {
    "name": "Dar ul Alum",
    "category": "office",
    "subcategory": "educational_institution",
    "latitude": 31.3938827,
    "longitude": 73.0970281,
    "id": 2912519462
  },
  {
    "name": "Batala Colony Police Station",
    "category": "amenity",
    "subcategory": "police",
    "latitude": 31.3942036,
    "longitude": 73.0966584,
    "id": 2912520678
  },
  {
    "name": "Fowara Post Office",
    "category": "amenity",
    "subcategory": "post_office",
    "latitude": 31.394545,
    "longitude": 73.0960981,
    "id": 2912521573
  },
  {
    "name": "Mc Donaldas",
    "category": "shop",
    "subcategory": "yes",
    "latitude": 31.4030925,
    "longitude": 73.1053593,
    "id": 2912523650
  },
  {
    "name": "Sitara Mall",
    "category": "shop",
    "subcategory": "yes",
    "latitude": 31.4033555,
    "longitude": 73.1069737,
    "id": 2912523857
  },
  {
    "name": "Soqal Kawait",
    "category": "shop",
    "subcategory": "yes",
    "latitude": 31.404034,
    "longitude": 73.1075283,
    "id": 2912524273
  },
  {
    "name": "PTCL Exchange",
    "category": "office",
    "subcategory": "telecommunication",
    "latitude": 31.4092921,
    "longitude": 73.1095963,
    "id": 2912527803
  },
  {
    "name": "SB Departmenal Store",
    "category": "shop",
    "subcategory": "supermarket",
    "latitude": 31.410729,
    "longitude": 73.1068628,
    "id": 2912529166
  },
  {
    "name": "AL Fateh Sports Club",
    "category": "leisure",
    "subcategory": "sports_centre",
    "latitude": 31.4101926,
    "longitude": 73.1046999,
    "id": 2912530823
  },
  {
    "name": "MC Girls School",
    "category": "amenity",
    "subcategory": "school",
    "latitude": 31.4090912,
    "longitude": 73.1009012,
    "id": 2912530857
  },
  {
    "name": "Rex City",
    "category": "amenity",
    "subcategory": "marketplace",
    "latitude": 31.4086096,
    "longitude": 73.0988767,
    "id": 2912530954
  },
  {
    "name": "Care Pharmacy",
    "category": "amenity",
    "subcategory": "pharmacy",
    "latitude": 31.4075419,
    "longitude": 73.0996963,
    "id": 2912530959
  },
  {
    "name": "Rehman Heights",
    "category": "shop",
    "subcategory": "mall",
    "latitude": 31.4076857,
    "longitude": 73.0985199,
    "id": 2912532536
  },
  {
    "name": "Rex Hotel",
    "category": "tourism",
    "subcategory": "hotel",
    "latitude": 31.4081442,
    "longitude": 73.0983957,
    "id": 2912532985
  },
  {
    "name": "Al-Fateh Store",
    "category": "shop",
    "subcategory": "supermarket",
    "latitude": 31.4119393,
    "longitude": 73.1156906,
    "id": 2913717091
  },
  {
    "name": "Mediacom Shopping Cneter",
    "category": "shop",
    "subcategory": "mall",
    "latitude": 31.4132029,
    "longitude": 73.1136047,
    "id": 2913717138
  },
  {
    "name": "Govt. Commerce College, Abdullah Pur",
    "category": "amenity",
    "subcategory": "college",
    "latitude": 31.4188511,
    "longitude": 73.1075261,
    "id": 2913717140
  },
  {
    "name": "Peoples Colony Police Station",
    "category": "amenity",
    "subcategory": "police",
    "latitude": 31.41667,
    "longitude": 73.1089594,
    "id": 2913717421
  },
  {
    "name": "Traffic Police Testing Site",
    "category": "amenity",
    "subcategory": "police",
    "latitude": 31.4175722,
    "longitude": 73.1097882,
    "id": 2913718201
  },
  {
    "name": "Taimoor Travels",
    "category": "shop",
    "subcategory": "travel_agency",
    "latitude": 31.4154597,
    "longitude": 73.0918051,
    "id": 2913719213
  },
  {
    "name": "Kohistan Bus Service",
    "category": "highway",
    "subcategory": "bus_stop",
    "latitude": 31.4174581,
    "longitude": 73.093932,
    "id": 2913731387
  },
  {
    "name": "Naizi Bus Service",
    "category": "highway",
    "subcategory": "bus_stop",
    "latitude": 31.417568,
    "longitude": 73.0942491,
    "id": 2913731934
  },
  {
    "name": "City Bus Terminal",
    "category": "highway",
    "subcategory": "bus_stop",
    "latitude": 31.415616,
    "longitude": 73.0927071,
    "id": 2913732248
  },
  {
    "name": "Nagina Filling Station",
    "category": "amenity",
    "subcategory": "fuel",
    "latitude": 31.4173859,
    "longitude": 73.0900445,
    "id": 2913735356
  },
  {
    "name": "Habib Bank Ltd",
    "category": "amenity",
    "subcategory": "bank",
    "latitude": 31.4209709,
    "longitude": 73.0821999,
    "id": 2913735366
  },
  {
    "name": "State Bank of Pakistan",
    "category": "amenity",
    "subcategory": "bank",
    "latitude": 31.4185163,
    "longitude": 73.0891882,
    "id": 2913737643
  },
  {
    "name": "Standard Charted Bank",
    "category": "amenity",
    "subcategory": "bank",
    "latitude": 31.4160089,
    "longitude": 73.0883219,
    "id": 2913740795
  },
  {
    "name": "ہزارہ ہوٹل",
    "category": "amenity",
    "subcategory": "cafe",
    "latitude": 31.4196944,
    "longitude": 73.0869582,
    "id": 2913741002
  },
  {
    "name": "District Courts Faisalabad",
    "category": "amenity",
    "subcategory": "courthouse",
    "latitude": 31.423178,
    "longitude": 73.0818113,
    "id": 2913741016
  },
  {
    "name": "پہلا یوپی چرچ",
    "category": "amenity",
    "subcategory": "place_of_worship",
    "latitude": 31.415974,
    "longitude": 73.0870468,
    "id": 2913741525
  },
  {
    "name": "United Bank",
    "category": "amenity",
    "subcategory": "bank",
    "latitude": 31.4207178,
    "longitude": 73.0825964,
    "id": 2913741526
  },
  {
    "name": "ایم سی بی بینک",
    "category": "amenity",
    "subcategory": "bank",
    "latitude": 31.4201967,
    "longitude": 73.0832353,
    "id": 2913741605
  },
  {
    "name": "Faisalabad Institute of Cardiology",
    "category": "amenity",
    "subcategory": "hospital",
    "latitude": 31.4226762,
    "longitude": 73.0865772,
    "id": 2913762181
  },
  {
    "name": "Regency Plaza",
    "category": "shop",
    "subcategory": "mall",
    "latitude": 31.422189,
    "longitude": 73.0902068,
    "id": 2913762441
  },
  {
    "name": "Markaz Khairbar",
    "category": "office",
    "subcategory": "educational_institution",
    "latitude": 31.4547033,
    "longitude": 73.1247029,
    "id": 2913775659
  },
  {
    "name": "fuel",
    "category": "amenity",
    "subcategory": "fuel",
    "latitude": 31.4549341,
    "longitude": 73.1584202,
    "id": 2913784652
  },
  {
    "name": "Rasoolia Masjid",
    "category": "amenity",
    "subcategory": "place_of_worship",
    "latitude": 31.3973208,
    "longitude": 73.0933047,
    "id": 2913829883
  },
  {
    "name": "Usmania Masjid",
    "category": "amenity",
    "subcategory": "place_of_worship",
    "latitude": 31.3998005,
    "longitude": 73.0920731,
    "id": 2913829884
  },
  {
    "name": "باغ",
    "category": "tourism",
    "subcategory": "theme_park",
    "latitude": 31.40032,
    "longitude": 73.0946779,
    "id": 2913830224
  },
  {
    "name": "place_of_worship",
    "category": "amenity",
    "subcategory": "place_of_worship",
    "latitude": 31.3994864,
    "longitude": 73.0955143,
    "id": 2913830523
  },
  {
    "name": "place_of_worship",
    "category": "amenity",
    "subcategory": "place_of_worship",
    "latitude": 31.3985983,
    "longitude": 73.0962752,
    "id": 2913830801
  },
  {
    "name": "Jamia Masjid Aqsa Ahl Hadees",
    "category": "amenity",
    "subcategory": "place_of_worship",
    "latitude": 31.3994923,
    "longitude": 73.1012918,
    "id": 2913830892
  },
  {
    "name": "place_of_worship",
    "category": "amenity",
    "subcategory": "place_of_worship",
    "latitude": 31.4040212,
    "longitude": 73.0974645,
    "id": 2913831036
  },
  {
    "name": "Sakhi Medical Store",
    "category": "shop",
    "subcategory": "yes",
    "latitude": 31.39537,
    "longitude": 73.0948653,
    "id": 2913831350
  },
  {
    "name": "Khokhar Book Depot",
    "category": "shop",
    "subcategory": "yes",
    "latitude": 31.3950981,
    "longitude": 73.0953678,
    "id": 2913832294
  },
  {
    "name": "Babar General Store",
    "category": "shop",
    "subcategory": "yes",
    "latitude": 31.395225,
    "longitude": 73.0950847,
    "id": 2913832795
  },
  {
    "name": "Lovely Sweets",
    "category": "shop",
    "subcategory": "yes",
    "latitude": 31.3974923,
    "longitude": 73.0962068,
    "id": 2913833398
  },
  {
    "name": "Tariq General Store",
    "category": "shop",
    "subcategory": "yes",
    "latitude": 31.3974969,
    "longitude": 73.0961585,
    "id": 2913833609
  },
  {
    "name": "Niaz Medicare",
    "category": "amenity",
    "subcategory": "clinic",
    "latitude": 31.3966681,
    "longitude": 73.0989319,
    "id": 2913833613
  },
  {
    "name": "Bank Al-Falah",
    "category": "amenity",
    "subcategory": "bank",
    "latitude": 31.3977488,
    "longitude": 73.1007397,
    "id": 2913833789
  },
  {
    "name": "Tempo Departmental Store",
    "category": "shop",
    "subcategory": "department_store",
    "latitude": 31.3964866,
    "longitude": 73.099478,
    "id": 2913834401
  },
  {
    "name": "Baba Ji Sweets",
    "category": "shop",
    "subcategory": "yes",
    "latitude": 31.3989942,
    "longitude": 73.0941361,
    "id": 2913834408
  },
  {
    "name": "Usmania Dawa Khana",
    "category": "shop",
    "subcategory": "yes",
    "latitude": 31.3991957,
    "longitude": 73.0943185,
    "id": 2913834441
  },
  {
    "name": "Allied Bank Ltd",
    "category": "amenity",
    "subcategory": "bank",
    "latitude": 31.4062679,
    "longitude": 73.1096562,
    "id": 2913834853
  },
  {
    "name": "Habib Bank Ltd",
    "category": "amenity",
    "subcategory": "bank",
    "latitude": 31.3969749,
    "longitude": 73.0961102,
    "id": 2913835263
  },
  {
    "name": "United Bank Ltd",
    "category": "amenity",
    "subcategory": "bank",
    "latitude": 31.3968467,
    "longitude": 73.0997956,
    "id": 2913835452
  },
  {
    "name": "Baba Ji Bakery",
    "category": "shop",
    "subcategory": "yes",
    "latitude": 31.3991453,
    "longitude": 73.0937821,
    "id": 2913835705
  },
  {
    "name": "Ghosia Dawa Khana",
    "category": "shop",
    "subcategory": "yes",
    "latitude": 31.3989759,
    "longitude": 73.0945921,
    "id": 2913835776
  },
  {
    "name": "Sajid Paan Shop",
    "category": "shop",
    "subcategory": "yes",
    "latitude": 31.3993422,
    "longitude": 73.0943024,
    "id": 2913835777
  },
  {
    "name": "Al Maida",
    "category": "shop",
    "subcategory": "yes",
    "latitude": 31.4047145,
    "longitude": 73.108215,
    "id": 2913835957
  },
  {
    "name": "Mehar Somosa Shop",
    "category": "shop",
    "subcategory": "yes",
    "latitude": 31.3974099,
    "longitude": 73.1005627,
    "id": 2913836408
  },
  {
    "name": "Gourmet Bakers",
    "category": "shop",
    "subcategory": "yes",
    "latitude": 31.4014301,
    "longitude": 73.1046397,
    "id": 2913836437
  },
  {
    "name": "Faisal Bank Ltd",
    "category": "amenity",
    "subcategory": "bank",
    "latitude": 31.405625,
    "longitude": 73.1090918,
    "id": 2913837861
  },
  {
    "name": "United Bank",
    "category": "amenity",
    "subcategory": "bank",
    "latitude": 31.4061578,
    "longitude": 73.1099897,
    "id": 2913842703
  },
  {
    "name": "Hassan Shopping Mall",
    "category": "shop",
    "subcategory": "mall",
    "latitude": 31.4092598,
    "longitude": 73.1103494,
    "id": 2913842704
  },
  {
    "name": "MCB Ltd",
    "category": "amenity",
    "subcategory": "bank",
    "latitude": 31.4087116,
    "longitude": 73.1088899,
    "id": 2913844436
  },
  {
    "name": "Ripple Plaza",
    "category": "shop",
    "subcategory": "mall",
    "latitude": 31.4089216,
    "longitude": 73.1101401,
    "id": 2913846210
  },
  {
    "name": "پاکستان اسٹیٹ آئل",
    "category": "amenity",
    "subcategory": "fuel",
    "latitude": 31.4144277,
    "longitude": 73.1112533,
    "id": 2913849217
  },
  {
    "name": "Hameed Palace",
    "category": "amenity",
    "subcategory": "restaurant",
    "latitude": 31.4003463,
    "longitude": 73.103824,
    "id": 2948115187
  },
  {
    "name": "Batala Sweets",
    "category": "shop",
    "subcategory": "yes",
    "latitude": 31.4006378,
    "longitude": 73.1006285,
    "id": 2948161067
  },
  {
    "name": "Occasions Marriage Hall",
    "category": "amenity",
    "subcategory": "restaurant",
    "latitude": 31.4009027,
    "longitude": 73.103049,
    "id": 3662879780
  },
  {
    "name": "Hameed Education Complex",
    "category": "amenity",
    "subcategory": "school",
    "latitude": 31.4014842,
    "longitude": 73.103741,
    "id": 3662882200
  },
  {
    "name": "Fakhar CNG",
    "category": "amenity",
    "subcategory": "fuel",
    "latitude": 31.4013216,
    "longitude": 73.1036391,
    "id": 3662883698
  },
  {
    "name": "parking",
    "category": "amenity",
    "subcategory": "parking",
    "latitude": 31.4235093,
    "longitude": 73.081928,
    "id": 3672494673
  },
  {
    "name": "Jama Masjid Technical High School",
    "category": "amenity",
    "subcategory": "place_of_worship",
    "latitude": 31.4069122,
    "longitude": 73.1126839,
    "id": 3686420202
  },
  {
    "name": "Ladies Park",
    "category": "leisure",
    "subcategory": "park",
    "latitude": 31.4446919,
    "longitude": 73.1286746,
    "id": 3727053519
  },
  {
    "name": "Universal House Masood Head Office.",
    "category": "office",
    "subcategory": "company",
    "latitude": 31.4302613,
    "longitude": 73.1194531,
    "id": 3742575417
  },
  {
    "name": "Garvaish Luxury Hotel",
    "category": "amenity",
    "subcategory": "restaurant",
    "latitude": 31.451329,
    "longitude": 73.1520236,
    "id": 4047739703
  },
  {
    "name": "Ayesha Silk Centre",
    "category": "shop",
    "subcategory": "clothes",
    "latitude": 31.4189701,
    "longitude": 73.0814218,
    "id": 4104256789
  },
  {
    "name": "Dubai Silk Centre",
    "category": "shop",
    "subcategory": "clothes",
    "latitude": 31.4195488,
    "longitude": 73.0812758,
    "id": 4104268689
  },
  {
    "name": "Faymus Media",
    "category": "shop",
    "subcategory": "photo",
    "latitude": 31.4124214,
    "longitude": 73.1145866,
    "id": 4107567190
  },
  {
    "name": "Meezan bank",
    "category": "amenity",
    "subcategory": "bank",
    "latitude": 31.4194555,
    "longitude": 73.0813004,
    "id": 4113477390
  },
  {
    "name": "Habib Bank",
    "category": "amenity",
    "subcategory": "bank",
    "latitude": 31.4199813,
    "longitude": 73.0808099,
    "id": 4113479489
  },
  {
    "name": "Dynasty Marriage Hall",
    "category": "amenity",
    "subcategory": "restaurant",
    "latitude": 31.4118804,
    "longitude": 73.1140395,
    "id": 4151703690
  },
  {
    "name": "Syed Nisar Ali shah",
    "category": "office",
    "subcategory": "lawyer",
    "latitude": 31.3930354,
    "longitude": 73.1008064,
    "id": 4276734989
  },
  {
    "name": "Syed Nisar Ali Shah Chamber office",
    "category": "office",
    "subcategory": "lawyer",
    "latitude": 31.4225862,
    "longitude": 73.0809397,
    "id": 4281447292
  },
  {
    "name": "Lasania Banquet & Restaurant",
    "category": "amenity",
    "subcategory": "restaurant",
    "latitude": 31.4274033,
    "longitude": 73.1240093,
    "id": 4290487192
  },
  {
    "name": "Taj Mahal Banquet Hall",
    "category": "tourism",
    "subcategory": "hotel",
    "latitude": 31.4119114,
    "longitude": 73.1172352,
    "id": 4309305692
  },
  {
    "name": "Eden Valley",
    "category": "tourism",
    "subcategory": "attraction",
    "latitude": 31.4347922,
    "longitude": 73.1565941,
    "id": 4312300991
  },
  {
    "name": "NFC University",
    "category": "amenity",
    "subcategory": "school",
    "latitude": 31.4084498,
    "longitude": 73.1198383,
    "id": 4316009091
  },
  {
    "name": "Medicam Traffic Police Checkpost",
    "category": "amenity",
    "subcategory": "police",
    "latitude": 31.4081219,
    "longitude": 73.1194931,
    "id": 4316064590
  },
  {
    "name": "Punjab College Of Science, Faisalabad",
    "category": "amenity",
    "subcategory": "school",
    "latitude": 31.406719,
    "longitude": 73.1219444,
    "id": 4316109189
  },
  {
    "name": "Suzuki Burj",
    "category": "shop",
    "subcategory": "car_repair",
    "latitude": 31.4308476,
    "longitude": 73.1220592,
    "id": 4362564971
  },
  {
    "name": "hotel",
    "category": "tourism",
    "subcategory": "hotel",
    "latitude": 31.4183878,
    "longitude": 73.1154005,
    "id": 4378841189
  },
  {
    "name": "Zaib Clinic",
    "category": "amenity",
    "subcategory": "clinic",
    "latitude": 31.4233018,
    "longitude": 73.1187664,
    "id": 4386797394
  },
  {
    "name": "nightclub",
    "category": "amenity",
    "subcategory": "nightclub",
    "latitude": 31.4169755,
    "longitude": 73.0890951,
    "id": 4449858689
  },
  {
    "name": "Saleemi's Home Plus",
    "category": "shop",
    "subcategory": "yes",
    "latitude": 31.4149825,
    "longitude": 73.1147036,
    "id": 4487673791
  },
  {
    "name": "The Rising Grammar School",
    "category": "amenity",
    "subcategory": "school",
    "latitude": 31.3961431,
    "longitude": 73.1021343,
    "id": 4510128789
  },
  {
    "name": "Suzuki Canal Road",
    "category": "shop",
    "subcategory": "car",
    "latitude": 31.4209727,
    "longitude": 73.1070821,
    "id": 4512455388
  },
  {
    "name": "Honda Faisalabad",
    "category": "shop",
    "subcategory": "car",
    "latitude": 31.4375691,
    "longitude": 73.1311115,
    "id": 4512478318
  },
  {
    "name": "Bholay Di Jhghi",
    "category": "highway",
    "subcategory": "bus_stop",
    "latitude": 31.4454084,
    "longitude": 73.0881588,
    "id": 4513650690
  },
  {
    "name": "Implant & Dental Art",
    "category": "amenity",
    "subcategory": "dentist",
    "latitude": 31.4154472,
    "longitude": 73.1070143,
    "id": 4550419192
  },
  {
    "name": "Faisalabad Grammar School Main Campus",
    "category": "amenity",
    "subcategory": "school",
    "latitude": 31.413307,
    "longitude": 73.1219386,
    "id": 4561831291
  },
  {
    "name": "Kardar Hospital Faisalabad",
    "category": "amenity",
    "subcategory": "hospital",
    "latitude": 31.4141979,
    "longitude": 73.1129579,
    "id": 4570439189
  },
  {
    "name": "Shehyar Restaurant and Ice Bar",
    "category": "amenity",
    "subcategory": "restaurant",
    "latitude": 31.4033519,
    "longitude": 73.1038296,
    "id": 4614467189
  },
  {
    "name": "Habib Bank Ltd.",
    "category": "amenity",
    "subcategory": "bank",
    "latitude": 31.4031904,
    "longitude": 73.1039979,
    "id": 4614467589
  },
  {
    "name": "shelter",
    "category": "amenity",
    "subcategory": "shelter",
    "latitude": 31.4256476,
    "longitude": 73.1014274,
    "id": 4621612694
  },
  {
    "name": "Ibn-e-Sina Hall PMC Hostels",
    "category": "tourism",
    "subcategory": "hostel",
    "latitude": 31.4560293,
    "longitude": 73.0861228,
    "id": 4629024993
  },
  {
    "name": "Girls Hall PMC Hostels",
    "category": "tourism",
    "subcategory": "hostel",
    "latitude": 31.4542413,
    "longitude": 73.0869401,
    "id": 4629025694
  },
  {
    "name": "PMC Hostel Mosque",
    "category": "amenity",
    "subcategory": "place_of_worship",
    "latitude": 31.4554231,
    "longitude": 73.0865356,
    "id": 4629075295
  },
  {
    "name": "Iqbal Hall PMC Hostels",
    "category": "tourism",
    "subcategory": "hostel",
    "latitude": 31.4556327,
    "longitude": 73.0849723,
    "id": 4629075296
  },
  {
    "name": "Badar Bakery",
    "category": "shop",
    "subcategory": "bakery",
    "latitude": 31.404566,
    "longitude": 73.103291,
    "id": 4634906496
  },
  {
    "name": "سونیری بینک",
    "category": "amenity",
    "subcategory": "bank",
    "latitude": 31.404189,
    "longitude": 73.1037267,
    "id": 4634906497
  },
  {
    "name": "Servis",
    "category": "shop",
    "subcategory": "shoes",
    "latitude": 31.4086497,
    "longitude": 73.100738,
    "id": 4634906498
  },
  {
    "name": "Hush Puppies",
    "category": "shop",
    "subcategory": "shoes",
    "latitude": 31.4087081,
    "longitude": 73.1007756,
    "id": 4634906499
  },
  {
    "name": "The Bank of Punjab",
    "category": "amenity",
    "subcategory": "bank",
    "latitude": 31.4039586,
    "longitude": 73.1040092,
    "id": 4634909891
  },
  {
    "name": "SME Bank",
    "category": "amenity",
    "subcategory": "bank",
    "latitude": 31.4041312,
    "longitude": 73.1038279,
    "id": 4634909994
  },
  {
    "name": "ECS",
    "category": "shop",
    "subcategory": "shoes",
    "latitude": 31.403833,
    "longitude": 73.1041904,
    "id": 4634909995
  },
  {
    "name": "Mujahid pharmacy",
    "category": "amenity",
    "subcategory": "pharmacy",
    "latitude": 31.4446151,
    "longitude": 73.0992083,
    "id": 4690600789
  },
  {
    "name": "Royal Palm Marquee",
    "category": "tourism",
    "subcategory": "hotel",
    "latitude": 31.4383684,
    "longitude": 73.1273053,
    "id": 4700752697
  },
  {
    "name": "Faisal Hospital",
    "category": "amenity",
    "subcategory": "hospital",
    "latitude": 31.4159616,
    "longitude": 73.1020506,
    "id": 4739080643
  },
  {
    "name": "Faisal Hospital",
    "category": "amenity",
    "subcategory": "hospital",
    "latitude": 31.4158475,
    "longitude": 73.1019231,
    "id": 4739080644
  },
  {
    "name": "Beaconfield School System",
    "category": "amenity",
    "subcategory": "school",
    "latitude": 31.4103327,
    "longitude": 73.126466,
    "id": 4764534927
  },
  {
    "name": "Al Haram Girls Hostel",
    "category": "tourism",
    "subcategory": "hostel",
    "latitude": 31.4171685,
    "longitude": 73.1182113,
    "id": 4788392029
  },
  {
    "name": "Sunny Super Store",
    "category": "shop",
    "subcategory": "convenience",
    "latitude": 31.4289419,
    "longitude": 73.1310291,
    "id": 4793169723
  },
  {
    "name": "Sunny Super Store",
    "category": "shop",
    "subcategory": "convenience",
    "latitude": 31.4289192,
    "longitude": 73.1310261,
    "id": 4793169724
  },
  {
    "name": "Quran Academy",
    "category": "amenity",
    "subcategory": "place_of_worship",
    "latitude": 31.4303342,
    "longitude": 73.1355603,
    "id": 4793193321
  },
  {
    "name": "Prime Care Hospital",
    "category": "amenity",
    "subcategory": "hospital",
    "latitude": 31.4270802,
    "longitude": 73.1273911,
    "id": 4793485622
  },
  {
    "name": "Jamia Masjid Tauheed",
    "category": "amenity",
    "subcategory": "place_of_worship",
    "latitude": 31.4271971,
    "longitude": 73.1290911,
    "id": 4793486821
  },
  {
    "name": "Al-Madina Quran Academy",
    "category": "amenity",
    "subcategory": "place_of_worship",
    "latitude": 31.4282939,
    "longitude": 73.1302748,
    "id": 4793486822
  },
  {
    "name": "Home Palettes Cash & Carry",
    "category": "shop",
    "subcategory": "convenience",
    "latitude": 31.4276459,
    "longitude": 73.1241785,
    "id": 4809430821
  },
  {
    "name": "Raza Town",
    "category": "highway",
    "subcategory": "bus_stop",
    "latitude": 31.4514114,
    "longitude": 73.1512201,
    "id": 4821118324
  },
  {
    "name": "حبیب بینک",
    "category": "amenity",
    "subcategory": "bank",
    "latitude": 31.4252239,
    "longitude": 73.1217197,
    "id": 4843179821
  },
  {
    "name": "HONDA NEW GERMAN AUTO",
    "category": "shop",
    "subcategory": "bicycle",
    "latitude": 31.3951243,
    "longitude": 73.1037993,
    "id": 4888305823
  },
  {
    "name": "Best Western Hotel Faisalabad",
    "category": "tourism",
    "subcategory": "hotel",
    "latitude": 31.4218208,
    "longitude": 73.0892314,
    "id": 4985405608
  },
  {
    "name": "New Subhan",
    "category": "amenity",
    "subcategory": "bus_station",
    "latitude": 31.4178099,
    "longitude": 73.0950987,
    "id": 5106898222
  },
  {
    "name": "Makki Masjid",
    "category": "amenity",
    "subcategory": "place_of_worship",
    "latitude": 31.3975639,
    "longitude": 73.1025833,
    "id": 5123982926
  },
  {
    "name": "Kohistan Bus Station",
    "category": "amenity",
    "subcategory": "bus_station",
    "latitude": 31.4174158,
    "longitude": 73.094663,
    "id": 5137257337
  },
  {
    "name": "Checkpoint 5 Take 1 Left For Farooqabad",
    "category": "highway",
    "subcategory": "bus_stop",
    "latitude": 31.4234391,
    "longitude": 73.0892203,
    "id": 5138132021
  },
  {
    "name": "Checkpoint 6 Take Second Left For Farooqabad",
    "category": "highway",
    "subcategory": "bus_stop",
    "latitude": 31.418793,
    "longitude": 73.0952745,
    "id": 5138132121
  },
  {
    "name": "The Bank of Punjab",
    "category": "amenity",
    "subcategory": "bank",
    "latitude": 31.4191363,
    "longitude": 73.1153491,
    "id": 5152203823
  },
  {
    "name": "الائیڈ بینک لمیٹڈ",
    "category": "amenity",
    "subcategory": "bank",
    "latitude": 31.426977,
    "longitude": 73.1227585,
    "id": 5152203824
  },
  {
    "name": "ایم سی بی بینک",
    "category": "amenity",
    "subcategory": "bank",
    "latitude": 31.4203864,
    "longitude": 73.1165766,
    "id": 5152203825
  },
  {
    "name": "Clinic Dr. Obaid Anwar",
    "category": "amenity",
    "subcategory": "clinic",
    "latitude": 31.4122532,
    "longitude": 73.1040687,
    "id": 5152203826
  },
  {
    "name": "Bata",
    "category": "shop",
    "subcategory": "shoes",
    "latitude": 31.4066292,
    "longitude": 73.1126265,
    "id": 5152203827
  },
  {
    "name": "Bank of Punjab",
    "category": "amenity",
    "subcategory": "bank",
    "latitude": 31.4151019,
    "longitude": 73.105628,
    "id": 5152213422
  },
  {
    "name": "ہارڈیز",
    "category": "amenity",
    "subcategory": "fast_food",
    "latitude": 31.4021776,
    "longitude": 73.1055659,
    "id": 5152213423
  },
  {
    "name": "کینٹکی فرائیڈ چکن",
    "category": "amenity",
    "subcategory": "fast_food",
    "latitude": 31.4065801,
    "longitude": 73.112534,
    "id": 5152213424
  },
  {
    "name": "اسٹینڈرڈ چارٹرڈ",
    "category": "amenity",
    "subcategory": "bank",
    "latitude": 31.4155261,
    "longitude": 73.1114431,
    "id": 5152214022
  },
  {
    "name": "Zong",
    "category": "office",
    "subcategory": "telecommunication",
    "latitude": 31.4156592,
    "longitude": 73.1115898,
    "id": 5152214023
  },
  {
    "name": "Chenab Bar B Q & Restaurant",
    "category": "amenity",
    "subcategory": "restaurant",
    "latitude": 31.4270698,
    "longitude": 73.1234601,
    "id": 5152214024
  },
  {
    "name": "Sitara Studio",
    "category": "shop",
    "subcategory": "clothes",
    "latitude": 31.4279171,
    "longitude": 73.1237024,
    "id": 5152214025
  },
  {
    "name": "Oxford Academy & School",
    "category": "amenity",
    "subcategory": "school",
    "latitude": 31.4268949,
    "longitude": 73.123369,
    "id": 5152214026
  },
  {
    "name": "Khayyam Marriage Hall",
    "category": "amenity",
    "subcategory": "restaurant",
    "latitude": 31.41497,
    "longitude": 73.1101627,
    "id": 5152214027
  },
  {
    "name": "Jamia Masjid Kohinoor",
    "category": "amenity",
    "subcategory": "place_of_worship",
    "latitude": 31.412358,
    "longitude": 73.1170335,
    "id": 5152236821
  },
  {
    "name": "Al-Fatah",
    "category": "shop",
    "subcategory": "supermarket",
    "latitude": 31.4110065,
    "longitude": 73.1166497,
    "id": 5155169127
  },
  {
    "name": "Jamia Islamia Imdaadia",
    "category": "amenity",
    "subcategory": "place_of_worship",
    "latitude": 31.3930954,
    "longitude": 73.109886,
    "id": 5155169128
  },
  {
    "name": "RCG",
    "category": "shop",
    "subcategory": "clothes",
    "latitude": 31.4106199,
    "longitude": 73.1171811,
    "id": 5155169228
  },
  {
    "name": "برگر کنگ",
    "category": "amenity",
    "subcategory": "fast_food",
    "latitude": 31.410402,
    "longitude": 73.1174478,
    "id": 5155169229
  },
  {
    "name": "Gourmet",
    "category": "shop",
    "subcategory": "bakery",
    "latitude": 31.411938,
    "longitude": 73.1045519,
    "id": 5163319222
  },
  {
    "name": "Almirah",
    "category": "shop",
    "subcategory": "clothes",
    "latitude": 31.410396,
    "longitude": 73.1080817,
    "id": 5169625523
  },
  {
    "name": "Bata",
    "category": "shop",
    "subcategory": "shoes",
    "latitude": 31.4071135,
    "longitude": 73.0992818,
    "id": 5169625524
  },
  {
    "name": "Allied Hospital",
    "category": "amenity",
    "subcategory": "hospital",
    "latitude": 31.4492173,
    "longitude": 73.081478,
    "id": 5169625525
  },
  {
    "name": "Gourmet",
    "category": "shop",
    "subcategory": "bakery",
    "latitude": 31.4506882,
    "longitude": 73.0843978,
    "id": 5169625526
  },
  {
    "name": "Gourmet",
    "category": "shop",
    "subcategory": "bakery",
    "latitude": 31.4179315,
    "longitude": 73.1145777,
    "id": 5169625528
  },
  {
    "name": "EMart",
    "category": "shop",
    "subcategory": "department_store",
    "latitude": 31.4196714,
    "longitude": 73.1152845,
    "id": 5169625529
  },
  {
    "name": "Halwai's",
    "category": "shop",
    "subcategory": "bakery",
    "latitude": 31.427298,
    "longitude": 73.1237693,
    "id": 5169625530
  },
  {
    "name": "S Abdullah Home",
    "category": "shop",
    "subcategory": "furniture",
    "latitude": 31.4154361,
    "longitude": 73.1108483,
    "id": 5169625533
  },
  {
    "name": "Hanger",
    "category": "shop",
    "subcategory": "clothes",
    "latitude": 31.4152457,
    "longitude": 73.1106894,
    "id": 5169625534
  },
  {
    "name": "عیسائی قبرستان",
    "category": "historic",
    "subcategory": "memorial",
    "latitude": 31.4229795,
    "longitude": 73.1193304,
    "id": 5169625535
  },
  {
    "name": "Junaid Jamshed",
    "category": "shop",
    "subcategory": "clothes",
    "latitude": 31.4103618,
    "longitude": 73.1081324,
    "id": 5169625632
  },
  {
    "name": "الائیڈ بینک لمیٹڈ",
    "category": "amenity",
    "subcategory": "bank",
    "latitude": 31.4511969,
    "longitude": 73.0849444,
    "id": 5169625633
  },
  {
    "name": "Zarai Tarakiati Bank",
    "category": "amenity",
    "subcategory": "bank",
    "latitude": 31.4502384,
    "longitude": 73.0839557,
    "id": 5169625634
  },
  {
    "name": "Regional Passport Office Faisalabad",
    "category": "office",
    "subcategory": "government",
    "latitude": 31.4492728,
    "longitude": 73.0829841,
    "id": 5169625635
  },
  {
    "name": "Regional Tax Office Faisalabad",
    "category": "office",
    "subcategory": "government",
    "latitude": 31.4476831,
    "longitude": 73.081332,
    "id": 5169625636
  },
  {
    "name": "ChenOne",
    "category": "shop",
    "subcategory": "clothes",
    "latitude": 31.4117026,
    "longitude": 73.1057783,
    "id": 5169634822
  },
  {
    "name": "Murad Fabrics",
    "category": "shop",
    "subcategory": "clothes",
    "latitude": 31.4118231,
    "longitude": 73.1059615,
    "id": 5169634823
  },
  {
    "name": "Punjab Medical College Faisalabad",
    "category": "amenity",
    "subcategory": "college",
    "latitude": 31.4514147,
    "longitude": 73.0846903,
    "id": 5169634824
  },
  {
    "name": "Telenor Franchise",
    "category": "office",
    "subcategory": "telecommunication",
    "latitude": 31.4171767,
    "longitude": 73.1164526,
    "id": 5169634825
  },
  {
    "name": "Kale",
    "category": "shop",
    "subcategory": "furniture",
    "latitude": 31.4177654,
    "longitude": 73.1138452,
    "id": 5169634826
  },
  {
    "name": "Regional Passport Office",
    "category": "office",
    "subcategory": "government",
    "latitude": 31.449657,
    "longitude": 73.0833627,
    "id": 5169635321
  },
  {
    "name": "J K House",
    "category": "office",
    "subcategory": "company",
    "latitude": 31.4277553,
    "longitude": 73.1235782,
    "id": 5169635322
  },
  {
    "name": "Sandal Bar Hotel",
    "category": "tourism",
    "subcategory": "hotel",
    "latitude": 31.4073902,
    "longitude": 73.0996372,
    "id": 5169635325
  },
  {
    "name": "S Abdullah",
    "category": "shop",
    "subcategory": "hardware",
    "latitude": 31.4153419,
    "longitude": 73.1107398,
    "id": 5169649621
  },
  {
    "name": "Car Ornaments",
    "category": "shop",
    "subcategory": "car_parts",
    "latitude": 31.4176893,
    "longitude": 73.1137447,
    "id": 5169679421
  },
  {
    "name": "ECS",
    "category": "shop",
    "subcategory": "shoes",
    "latitude": 31.4175548,
    "longitude": 73.1135804,
    "id": 5169679422
  },
  {
    "name": "Roshni",
    "category": "shop",
    "subcategory": "hardware",
    "latitude": 31.4176416,
    "longitude": 73.1136935,
    "id": 5169679621
  },
  {
    "name": "ٹی سی ایس",
    "category": "amenity",
    "subcategory": "post_office",
    "latitude": 31.4234725,
    "longitude": 73.1191605,
    "id": 5170432021
  },
  {
    "name": "دبئی اسلامی بینک",
    "category": "amenity",
    "subcategory": "bank",
    "latitude": 31.4285782,
    "longitude": 73.1244114,
    "id": 5171392724
  },
  {
    "name": "Sajid Chicken Shop",
    "category": "shop",
    "subcategory": "butcher",
    "latitude": 31.4272643,
    "longitude": 73.1273945,
    "id": 5171394024
  },
  {
    "name": "Government MC Girls High School",
    "category": "amenity",
    "subcategory": "school",
    "latitude": 31.4236385,
    "longitude": 73.1193451,
    "id": 5171403621
  },
  {
    "name": "Dar-e-Arqam School",
    "category": "amenity",
    "subcategory": "school",
    "latitude": 31.4283338,
    "longitude": 73.1248714,
    "id": 5171403821
  },
  {
    "name": "karkhana bazar",
    "category": "tourism",
    "subcategory": "artwork",
    "latitude": 31.4100365,
    "longitude": 73.1233249,
    "id": 5175990734
  },
  {
    "name": "مسجد بلال",
    "category": "amenity",
    "subcategory": "place_of_worship",
    "latitude": 31.4320575,
    "longitude": 73.0830851,
    "id": 5193820223
  },
  {
    "name": "Khayyam Qila Banquet Hall",
    "category": "amenity",
    "subcategory": "restaurant",
    "latitude": 31.4330392,
    "longitude": 73.0838611,
    "id": 5193820224
  },
  {
    "name": "Divisional Public School & College",
    "category": "amenity",
    "subcategory": "school",
    "latitude": 31.43486,
    "longitude": 73.0818045,
    "id": 5193820225
  },
  {
    "name": "Umar Hospital",
    "category": "amenity",
    "subcategory": "hospital",
    "latitude": 31.4352488,
    "longitude": 73.0805041,
    "id": 5193820226
  },
  {
    "name": "Real Taste Bar B Q",
    "category": "amenity",
    "subcategory": "restaurant",
    "latitude": 31.4328008,
    "longitude": 73.0836521,
    "id": 5193863523
  },
  {
    "name": "Five Star Studio",
    "category": "shop",
    "subcategory": "clothes",
    "latitude": 31.4317779,
    "longitude": 73.0827995,
    "id": 5193867221
  },
  {
    "name": "Umar Masjid",
    "category": "amenity",
    "subcategory": "place_of_worship",
    "latitude": 31.4352684,
    "longitude": 73.0808071,
    "id": 5193867222
  },
  {
    "name": "Asli Gujranwala Tikka Shop",
    "category": "amenity",
    "subcategory": "restaurant",
    "latitude": 31.4272773,
    "longitude": 73.1244899,
    "id": 5194036225
  },
  {
    "name": "Sameel Enterprises",
    "category": "office",
    "subcategory": "company",
    "latitude": 31.4284577,
    "longitude": 73.1242896,
    "id": 5194083728
  },
  {
    "name": "Employee Old Age Benefit & Court",
    "category": "office",
    "subcategory": "government",
    "latitude": 31.4273113,
    "longitude": 73.123136,
    "id": 5194296822
  },
  {
    "name": "Slimmers",
    "category": "leisure",
    "subcategory": "fitness_centre",
    "latitude": 31.4268375,
    "longitude": 73.1233081,
    "id": 5194296823
  },
  {
    "name": "Arfania Dilpasand Qulfa",
    "category": "amenity",
    "subcategory": "fast_food",
    "latitude": 31.4260789,
    "longitude": 73.1218719,
    "id": 5194296824
  },
  {
    "name": "Omecta Solar",
    "category": "office",
    "subcategory": "company",
    "latitude": 31.4259706,
    "longitude": 73.1224092,
    "id": 5194296825
  },
  {
    "name": "Hameed Gym",
    "category": "leisure",
    "subcategory": "fitness_centre",
    "latitude": 31.4252017,
    "longitude": 73.1216168,
    "id": 5194296826
  },
  {
    "name": "سندر ایل ای ڈی ایل سی ڈی سینٹر",
    "category": "shop",
    "subcategory": "electronics",
    "latitude": 31.4235193,
    "longitude": 73.1192488,
    "id": 5194296827
  },
  {
    "name": "مجاہد فارمیسی",
    "category": "amenity",
    "subcategory": "pharmacy",
    "latitude": 31.4232416,
    "longitude": 73.1189725,
    "id": 5194296828
  },
  {
    "name": "فیصل بینک",
    "category": "amenity",
    "subcategory": "bank",
    "latitude": 31.4268731,
    "longitude": 73.1233351,
    "id": 5194298121
  },
  {
    "name": "Hafiz Restaurant & Chicken Sajee",
    "category": "amenity",
    "subcategory": "restaurant",
    "latitude": 31.4259406,
    "longitude": 73.1217469,
    "id": 5194298122
  },
  {
    "name": "Khyber Shinwari",
    "category": "amenity",
    "subcategory": "restaurant",
    "latitude": 31.4227629,
    "longitude": 73.1191969,
    "id": 5194298123
  },
  {
    "name": "دہشت گردی کا علاقہ",
    "category": "shop",
    "subcategory": "video_games",
    "latitude": 31.4231715,
    "longitude": 73.1188963,
    "id": 5194298124
  },
  {
    "name": "Bank AlFalah Limited",
    "category": "amenity",
    "subcategory": "bank",
    "latitude": 31.4228435,
    "longitude": 73.118558,
    "id": 5194298125
  },
  {
    "name": "Faisalabad Grammar School",
    "category": "amenity",
    "subcategory": "school",
    "latitude": 31.4268374,
    "longitude": 73.1226585,
    "id": 5194298321
  },
  {
    "name": "Meezan Bank Ltd",
    "category": "amenity",
    "subcategory": "bank",
    "latitude": 31.4227647,
    "longitude": 73.1184666,
    "id": 5194392527
  },
  {
    "name": "Jazz Franchise",
    "category": "office",
    "subcategory": "telecommunication",
    "latitude": 31.4219092,
    "longitude": 73.1181307,
    "id": 5194545527
  },
  {
    "name": "Huzaifa Kasoori Fish",
    "category": "amenity",
    "subcategory": "fast_food",
    "latitude": 31.4224202,
    "longitude": 73.1174127,
    "id": 5200015421
  },
  {
    "name": "Super Ideal Sweets & Bakers",
    "category": "shop",
    "subcategory": "bakery",
    "latitude": 31.4216517,
    "longitude": 73.1173477,
    "id": 5200015422
  },
  {
    "name": "Khayyam",
    "category": "amenity",
    "subcategory": "restaurant",
    "latitude": 31.421927,
    "longitude": 73.1176373,
    "id": 5200015521
  },
  {
    "name": "Silk Bank",
    "category": "amenity",
    "subcategory": "bank",
    "latitude": 31.4216754,
    "longitude": 73.1178794,
    "id": 5200015621
  },
  {
    "name": "یونائیٹڈ بینک لمیٹڈ",
    "category": "amenity",
    "subcategory": "bank",
    "latitude": 31.42067,
    "longitude": 73.1171946,
    "id": 5200099530
  },
  {
    "name": "نیشنل بینک آف پاکستان",
    "category": "amenity",
    "subcategory": "bank",
    "latitude": 31.4203707,
    "longitude": 73.1169141,
    "id": 5200099531
  },
  {
    "name": "Forks N Knives Crisp & Grill",
    "category": "amenity",
    "subcategory": "fast_food",
    "latitude": 31.4207909,
    "longitude": 73.1164327,
    "id": 5200099532
  },
  {
    "name": "Bata",
    "category": "shop",
    "subcategory": "shoes",
    "latitude": 31.4096332,
    "longitude": 73.0963629,
    "id": 5200099533
  },
  {
    "name": "Care Pharmacy",
    "category": "amenity",
    "subcategory": "pharmacy",
    "latitude": 31.4213021,
    "longitude": 73.1174926,
    "id": 5200099928
  },
  {
    "name": "Hush Puppies",
    "category": "shop",
    "subcategory": "shoes",
    "latitude": 31.421362,
    "longitude": 73.1170589,
    "id": 5200099929
  },
  {
    "name": "Fry Chicks",
    "category": "amenity",
    "subcategory": "fast_food",
    "latitude": 31.4205284,
    "longitude": 73.1161799,
    "id": 5200099931
  },
  {
    "name": "Zain Collection",
    "category": "shop",
    "subcategory": "clothes",
    "latitude": 31.4086504,
    "longitude": 73.0976654,
    "id": 5200099932
  },
  {
    "name": "Rubab's Collection",
    "category": "shop",
    "subcategory": "clothes",
    "latitude": 31.4087469,
    "longitude": 73.0975454,
    "id": 5200099933
  },
  {
    "name": "Usama Younas Jewellers",
    "category": "shop",
    "subcategory": "jewelry",
    "latitude": 31.4087061,
    "longitude": 73.0975952,
    "id": 5200100138
  },
  {
    "name": "Hafiz Fabrics",
    "category": "shop",
    "subcategory": "clothes",
    "latitude": 31.4093632,
    "longitude": 73.0963825,
    "id": 5200100139
  },
  {
    "name": "Chase Up",
    "category": "shop",
    "subcategory": "department_store",
    "latitude": 31.4072626,
    "longitude": 73.0991433,
    "id": 5200100140
  },
  {
    "name": "Mian Group of Chakwal",
    "category": "shop",
    "subcategory": "electronics",
    "latitude": 31.407074,
    "longitude": 73.0993896,
    "id": 5200100141
  },
  {
    "name": "سونیری بینک",
    "category": "amenity",
    "subcategory": "bank",
    "latitude": 31.4210594,
    "longitude": 73.1172442,
    "id": 5200100230
  },
  {
    "name": "Chaghi 25",
    "category": "amenity",
    "subcategory": "fast_food",
    "latitude": 31.4094141,
    "longitude": 73.0966411,
    "id": 5200100231
  },
  {
    "name": "Jamia Masjid Muhammadi",
    "category": "amenity",
    "subcategory": "place_of_worship",
    "latitude": 31.4092677,
    "longitude": 73.09683,
    "id": 5200100232
  },
  {
    "name": "University of Martial Arts",
    "category": "leisure",
    "subcategory": "fitness_centre",
    "latitude": 31.4214174,
    "longitude": 73.1177509,
    "id": 5200100327
  },
  {
    "name": "Divisional Model College",
    "category": "amenity",
    "subcategory": "school",
    "latitude": 31.4348112,
    "longitude": 73.0817634,
    "id": 5200100329
  },
  {
    "name": "Bilal Garments",
    "category": "shop",
    "subcategory": "clothes",
    "latitude": 31.4085114,
    "longitude": 73.0975196,
    "id": 5200100330
  },
  {
    "name": "Dar Pharmacy",
    "category": "amenity",
    "subcategory": "pharmacy",
    "latitude": 31.4086109,
    "longitude": 73.0977122,
    "id": 5200100331
  },
  {
    "name": "Usman Cloth House",
    "category": "shop",
    "subcategory": "clothes",
    "latitude": 31.4087924,
    "longitude": 73.0975016,
    "id": 5200100332
  },
  {
    "name": "Ahmad Fabrics",
    "category": "shop",
    "subcategory": "clothes",
    "latitude": 31.4085773,
    "longitude": 73.097737,
    "id": 5200100333
  },
  {
    "name": "Bhoola Fabrics",
    "category": "shop",
    "subcategory": "clothes",
    "latitude": 31.4093448,
    "longitude": 73.0964021,
    "id": 5200100334
  },
  {
    "name": "Nishat Linen",
    "category": "shop",
    "subcategory": "clothes",
    "latitude": 31.4108291,
    "longitude": 73.1027285,
    "id": 5207962623
  },
  {
    "name": "Bonanza Satrangi",
    "category": "shop",
    "subcategory": "clothes",
    "latitude": 31.4108586,
    "longitude": 73.1027742,
    "id": 5208202322
  },
  {
    "name": "Samsung",
    "category": "shop",
    "subcategory": "electronics",
    "latitude": 31.4107537,
    "longitude": 73.1026617,
    "id": 5208202323
  },
  {
    "name": "Figure",
    "category": "shop",
    "subcategory": "clothes",
    "latitude": 31.4110668,
    "longitude": 73.1029631,
    "id": 5208202324
  },
  {
    "name": "Shoe Planet",
    "category": "shop",
    "subcategory": "shoes",
    "latitude": 31.4106705,
    "longitude": 73.1028723,
    "id": 5208202325
  },
  {
    "name": "Equator",
    "category": "shop",
    "subcategory": "clothes",
    "latitude": 31.4105791,
    "longitude": 73.1024834,
    "id": 5208202326
  },
  {
    "name": "AlKaram Studio",
    "category": "shop",
    "subcategory": "clothes",
    "latitude": 31.4117406,
    "longitude": 73.1156601,
    "id": 5208202327
  },
  {
    "name": "Global Medical Complex",
    "category": "amenity",
    "subcategory": "hospital",
    "latitude": 31.4190989,
    "longitude": 73.1146579,
    "id": 5208202328
  },
  {
    "name": "Afzal Electronics",
    "category": "shop",
    "subcategory": "electronics",
    "latitude": 31.4068826,
    "longitude": 73.0996311,
    "id": 5208240221
  },
  {
    "name": "Khaadi",
    "category": "shop",
    "subcategory": "clothes",
    "latitude": 31.4114616,
    "longitude": 73.1159863,
    "id": 5208240222
  },
  {
    "name": "Ethnic",
    "category": "shop",
    "subcategory": "clothes",
    "latitude": 31.4114368,
    "longitude": 73.1159299,
    "id": 5208240223
  },
  {
    "name": "Kayseria",
    "category": "shop",
    "subcategory": "clothes",
    "latitude": 31.4113959,
    "longitude": 73.1160503,
    "id": 5208240224
  },
  {
    "name": "Tile Select",
    "category": "shop",
    "subcategory": "hardware",
    "latitude": 31.4192085,
    "longitude": 73.1147796,
    "id": 5208240225
  },
  {
    "name": "Asian Tiles",
    "category": "shop",
    "subcategory": "hardware",
    "latitude": 31.4179897,
    "longitude": 73.1135128,
    "id": 5208240226
  },
  {
    "name": "Sana Safinaz",
    "category": "shop",
    "subcategory": "clothes",
    "latitude": 31.4107937,
    "longitude": 73.102689,
    "id": 5208240821
  },
  {
    "name": "Andy Birds",
    "category": "shop",
    "subcategory": "clothes",
    "latitude": 31.4107116,
    "longitude": 73.1026123,
    "id": 5208240822
  },
  {
    "name": "Casual Collection",
    "category": "shop",
    "subcategory": "clothes",
    "latitude": 31.4106369,
    "longitude": 73.1025511,
    "id": 5208240823
  },
  {
    "name": "Ittehad",
    "category": "shop",
    "subcategory": "clothes",
    "latitude": 31.4117207,
    "longitude": 73.1157033,
    "id": 5208240824
  },
  {
    "name": "Bata",
    "category": "shop",
    "subcategory": "shoes",
    "latitude": 31.4116428,
    "longitude": 73.1158167,
    "id": 5208240825
  },
  {
    "name": "Leisure Club",
    "category": "shop",
    "subcategory": "clothes",
    "latitude": 31.4113387,
    "longitude": 73.116126,
    "id": 5208240826
  },
  {
    "name": "گلوریا جینز",
    "category": "amenity",
    "subcategory": "cafe",
    "latitude": 31.4113146,
    "longitude": 73.116045,
    "id": 5208240827
  },
  {
    "name": "Ideas by Gul Ahmed",
    "category": "shop",
    "subcategory": "department_store",
    "latitude": 31.4119208,
    "longitude": 73.115392,
    "id": 5208240828
  },
  {
    "name": "پیزا ہٹ",
    "category": "amenity",
    "subcategory": "fast_food",
    "latitude": 31.4102152,
    "longitude": 73.11762,
    "id": 5208240829
  },
  {
    "name": "Universal and Electronics",
    "category": "shop",
    "subcategory": "electronics",
    "latitude": 31.4196387,
    "longitude": 73.1152096,
    "id": 5208240830
  },
  {
    "name": "Tile Bazar",
    "category": "shop",
    "subcategory": "hardware",
    "latitude": 31.4192564,
    "longitude": 73.1148291,
    "id": 5208240831
  },
  {
    "name": "Berger Office Faisalabad",
    "category": "office",
    "subcategory": "company",
    "latitude": 31.4189514,
    "longitude": 73.1142662,
    "id": 5208240832
  },
  {
    "name": "Libas",
    "category": "shop",
    "subcategory": "clothes",
    "latitude": 31.4184768,
    "longitude": 73.1140174,
    "id": 5208240833
  },
  {
    "name": "Galaxy Tiles & Sanitary Ware",
    "category": "shop",
    "subcategory": "hardware",
    "latitude": 31.4177237,
    "longitude": 73.1132364,
    "id": 5208240834
  },
  {
    "name": "The Bank of Khyber",
    "category": "amenity",
    "subcategory": "bank",
    "latitude": 31.4164091,
    "longitude": 73.1123481,
    "id": 5208500523
  },
  {
    "name": "Nawa-e-Waqt",
    "category": "office",
    "subcategory": "company",
    "latitude": 31.4158315,
    "longitude": 73.1112859,
    "id": 5208500524
  },
  {
    "name": "K & N's",
    "category": "shop",
    "subcategory": "convenience",
    "latitude": 31.4157664,
    "longitude": 73.1112269,
    "id": 5208500525
  },
  {
    "name": "Silver Spoon Restaurant",
    "category": "amenity",
    "subcategory": "restaurant",
    "latitude": 31.414863,
    "longitude": 73.1084928,
    "id": 5208500526
  },
  {
    "name": "Hadiqa Kiani Salon",
    "category": "shop",
    "subcategory": "cosmetics",
    "latitude": 31.4147451,
    "longitude": 73.1079706,
    "id": 5208500527
  },
  {
    "name": "Chaps",
    "category": "shop",
    "subcategory": "hairdresser",
    "latitude": 31.4155113,
    "longitude": 73.1065012,
    "id": 5208500528
  },
  {
    "name": "Rashid Tex Mart",
    "category": "shop",
    "subcategory": "clothes",
    "latitude": 31.4154731,
    "longitude": 73.106283,
    "id": 5208500529
  },
  {
    "name": "DWP Group Office",
    "category": "office",
    "subcategory": "company",
    "latitude": 31.4152126,
    "longitude": 73.1057686,
    "id": 5208500530
  },
  {
    "name": "Kaplan",
    "category": "amenity",
    "subcategory": "school",
    "latitude": 31.4128736,
    "longitude": 73.1046872,
    "id": 5208500531
  },
  {
    "name": "Charcoal",
    "category": "shop",
    "subcategory": "clothes",
    "latitude": 31.4119049,
    "longitude": 73.1043794,
    "id": 5208500532
  },
  {
    "name": "Habib Metropolitan Bank",
    "category": "amenity",
    "subcategory": "bank",
    "latitude": 31.4174788,
    "longitude": 73.1134897,
    "id": 5208501025
  },
  {
    "name": "Ghousia Juice Shop",
    "category": "amenity",
    "subcategory": "cafe",
    "latitude": 31.4167392,
    "longitude": 73.1122309,
    "id": 5208501026
  },
  {
    "name": "Modern Dental Surgery & Fixed Braces Centre",
    "category": "amenity",
    "subcategory": "dentist",
    "latitude": 31.4161319,
    "longitude": 73.1120641,
    "id": 5208501027
  },
  {
    "name": "سمٹ بینک",
    "category": "amenity",
    "subcategory": "bank",
    "latitude": 31.4158669,
    "longitude": 73.111823,
    "id": 5208501028
  },
  {
    "name": "Al-Raheem Traders",
    "category": "shop",
    "subcategory": "hardware",
    "latitude": 31.4158796,
    "longitude": 73.1113387,
    "id": 5208501029
  },
  {
    "name": "Chenab College of Advanced Sciences",
    "category": "amenity",
    "subcategory": "college",
    "latitude": 31.4155391,
    "longitude": 73.1091044,
    "id": 5208501030
  },
  {
    "name": "Office Union Council # 222",
    "category": "office",
    "subcategory": "government",
    "latitude": 31.4151469,
    "longitude": 73.1072965,
    "id": 5208501031
  },
  {
    "name": "Charlie Hair Salon",
    "category": "shop",
    "subcategory": "hairdresser",
    "latitude": 31.415133,
    "longitude": 73.1073713,
    "id": 5208501032
  },
  {
    "name": "Chaudary Medical Store",
    "category": "amenity",
    "subcategory": "pharmacy",
    "latitude": 31.4150262,
    "longitude": 73.1072615,
    "id": 5208501033
  },
  {
    "name": "Quaid-e-Azam Cricket Club",
    "category": "leisure",
    "subcategory": "fitness_centre",
    "latitude": 31.4150243,
    "longitude": 73.1059055,
    "id": 5208501034
  },
  {
    "name": "Asif Burger Point",
    "category": "amenity",
    "subcategory": "fast_food",
    "latitude": 31.4147063,
    "longitude": 73.1054751,
    "id": 5208501035
  },
  {
    "name": "Fiaz General Store",
    "category": "shop",
    "subcategory": "convenience",
    "latitude": 31.4137266,
    "longitude": 73.106058,
    "id": 5208501036
  },
  {
    "name": "What's Up Cafe",
    "category": "amenity",
    "subcategory": "cafe",
    "latitude": 31.4131916,
    "longitude": 73.1058948,
    "id": 5208501037
  },
  {
    "name": "Prolific Academic Institute",
    "category": "amenity",
    "subcategory": "college",
    "latitude": 31.4128953,
    "longitude": 73.1053087,
    "id": 5208501038
  },
  {
    "name": "Siddiqia Masjid",
    "category": "amenity",
    "subcategory": "place_of_worship",
    "latitude": 31.4129322,
    "longitude": 73.1047091,
    "id": 5208501039
  },
  {
    "name": "WASA",
    "category": "office",
    "subcategory": "government",
    "latitude": 31.4119486,
    "longitude": 73.1046503,
    "id": 5208501040
  },
  {
    "name": "ایم سی بی بینک",
    "category": "amenity",
    "subcategory": "bank",
    "latitude": 31.411917,
    "longitude": 73.1054367,
    "id": 5208501041
  },
  {
    "name": "PC Mart",
    "category": "shop",
    "subcategory": "computer",
    "latitude": 31.4151368,
    "longitude": 73.1011586,
    "id": 5208501042
  },
  {
    "name": "Steak & Shake",
    "category": "amenity",
    "subcategory": "fast_food",
    "latitude": 31.414991,
    "longitude": 73.101342,
    "id": 5208501043
  },
  {
    "name": "Abdullah Cold Corner",
    "category": "shop",
    "subcategory": "convenience",
    "latitude": 31.4138834,
    "longitude": 73.1026432,
    "id": 5208501044
  },
  {
    "name": "Chiniot Foods Pakwan",
    "category": "amenity",
    "subcategory": "fast_food",
    "latitude": 31.4133798,
    "longitude": 73.1034762,
    "id": 5208501045
  },
  {
    "name": "ISM College",
    "category": "amenity",
    "subcategory": "college",
    "latitude": 31.4154916,
    "longitude": 73.1067874,
    "id": 5208526422
  },
  {
    "name": "Salcon Tech",
    "category": "office",
    "subcategory": "company",
    "latitude": 31.4155029,
    "longitude": 73.1066655,
    "id": 5208526423
  },
  {
    "name": "New Best Store",
    "category": "shop",
    "subcategory": "convenience",
    "latitude": 31.414537,
    "longitude": 73.1054648,
    "id": 5208526424
  },
  {
    "name": "Ismails",
    "category": "shop",
    "subcategory": "clothes",
    "latitude": 31.4118485,
    "longitude": 73.1041533,
    "id": 5208526425
  },
  {
    "name": "Jamia Masjid Khatam-ul-Anbiya",
    "category": "amenity",
    "subcategory": "place_of_worship",
    "latitude": 31.4290858,
    "longitude": 73.129341,
    "id": 5208526426
  },
  {
    "name": "National Savings Directorate",
    "category": "office",
    "subcategory": "government",
    "latitude": 31.4148246,
    "longitude": 73.1014378,
    "id": 5208526427
  },
  {
    "name": "عسکری بینک",
    "category": "amenity",
    "subcategory": "bank",
    "latitude": 31.4170317,
    "longitude": 73.1129943,
    "id": 5208528121
  },
  {
    "name": "Power Chemical Industries Pvt Ltd",
    "category": "office",
    "subcategory": "company",
    "latitude": 31.4133893,
    "longitude": 73.1033177,
    "id": 5208528122
  },
  {
    "name": "Saylani Trust",
    "category": "office",
    "subcategory": "ngo",
    "latitude": 31.4166496,
    "longitude": 73.1121326,
    "id": 5208528221
  },
  {
    "name": "Hush Cat",
    "category": "shop",
    "subcategory": "shoes",
    "latitude": 31.4212111,
    "longitude": 73.1168976,
    "id": 5216172722
  },
  {
    "name": "Wishes",
    "category": "shop",
    "subcategory": "furniture",
    "latitude": 31.4209919,
    "longitude": 73.1166393,
    "id": 5216186921
  },
  {
    "name": "SMC Group",
    "category": "shop",
    "subcategory": "hardware",
    "latitude": 31.4211231,
    "longitude": 73.1167984,
    "id": 5216194221
  },
  {
    "name": "Bata",
    "category": "shop",
    "subcategory": "shoes",
    "latitude": 31.4206666,
    "longitude": 73.1162948,
    "id": 5236020322
  },
  {
    "name": "Shaukat Khanum Laboratory",
    "category": "amenity",
    "subcategory": "pharmacy",
    "latitude": 31.4214123,
    "longitude": 73.1175977,
    "id": 5236020323
  },
  {
    "name": "Stylo",
    "category": "shop",
    "subcategory": "shoes",
    "latitude": 31.4118767,
    "longitude": 73.1168308,
    "id": 5236020324
  },
  {
    "name": "Al-Maida Pizza Garden",
    "category": "amenity",
    "subcategory": "fast_food",
    "latitude": 31.4124265,
    "longitude": 73.1174634,
    "id": 5236020325
  },
  {
    "name": "Bar B Q Tonight",
    "category": "amenity",
    "subcategory": "restaurant",
    "latitude": 31.4129253,
    "longitude": 73.1164997,
    "id": 5236020326
  },
  {
    "name": "Jamia Masjid DPS",
    "category": "amenity",
    "subcategory": "place_of_worship",
    "latitude": 31.4380767,
    "longitude": 73.0830521,
    "id": 5236020327
  },
  {
    "name": "Junior Section DPS",
    "category": "amenity",
    "subcategory": "school",
    "latitude": 31.4379508,
    "longitude": 73.0843711,
    "id": 5236020328
  },
  {
    "name": "Girls Section DPS",
    "category": "amenity",
    "subcategory": "school",
    "latitude": 31.4376024,
    "longitude": 73.0847588,
    "id": 5236020329
  },
  {
    "name": "سب وے",
    "category": "amenity",
    "subcategory": "fast_food",
    "latitude": 31.4123309,
    "longitude": 73.1172829,
    "id": 5236032121
  },
  {
    "name": "Nishat Linen",
    "category": "shop",
    "subcategory": "clothes",
    "latitude": 31.4122974,
    "longitude": 73.1172468,
    "id": 5236032122
  },
  {
    "name": "Insignia",
    "category": "shop",
    "subcategory": "shoes",
    "latitude": 31.4121418,
    "longitude": 73.1171026,
    "id": 5236032123
  },
  {
    "name": "Cafeteria DPS",
    "category": "amenity",
    "subcategory": "cafe",
    "latitude": 31.4376264,
    "longitude": 73.0832161,
    "id": 5236032124
  },
  {
    "name": "Golden Flame Restaurant",
    "category": "amenity",
    "subcategory": "restaurant",
    "latitude": 31.4127241,
    "longitude": 73.1170148,
    "id": 5236032221
  },
  {
    "name": "Oxford University Press",
    "category": "office",
    "subcategory": "company",
    "latitude": 31.4126456,
    "longitude": 73.1168744,
    "id": 5236032222
  },
  {
    "name": "Boys Section DPS",
    "category": "amenity",
    "subcategory": "school",
    "latitude": 31.4376044,
    "longitude": 73.082716,
    "id": 5236032421
  },
  {
    "name": "Silver Spoon Continental Restaurant",
    "category": "amenity",
    "subcategory": "restaurant",
    "latitude": 31.4130445,
    "longitude": 73.1166229,
    "id": 5251964928
  },
  {
    "name": "Hostel DPS",
    "category": "amenity",
    "subcategory": "school",
    "latitude": 31.4381189,
    "longitude": 73.0836897,
    "id": 5251964930
  },
  {
    "name": "Home Mart",
    "category": "shop",
    "subcategory": "convenience",
    "latitude": 31.4250747,
    "longitude": 73.1475198,
    "id": 5251964931
  },
  {
    "name": "4 Wheel Motors",
    "category": "shop",
    "subcategory": "car",
    "latitude": 31.417072,
    "longitude": 73.1163736,
    "id": 5251997324
  },
  {
    "name": "Divisional Public School & College",
    "category": "amenity",
    "subcategory": "school",
    "latitude": 31.4349147,
    "longitude": 73.081846,
    "id": 5251997325
  },
  {
    "name": "Jamia Masjid Bilal",
    "category": "amenity",
    "subcategory": "place_of_worship",
    "latitude": 31.4252378,
    "longitude": 73.1475701,
    "id": 5251997326
  },
  {
    "name": "Hot Pizza Hut",
    "category": "amenity",
    "subcategory": "fast_food",
    "latitude": 31.448537,
    "longitude": 73.09747,
    "id": 5254067389
  },
  {
    "name": "TCS",
    "category": "amenity",
    "subcategory": "post_office",
    "latitude": 31.4478298,
    "longitude": 73.0967619,
    "id": 5254067390
  },
  {
    "name": "پیزا ہٹ",
    "category": "amenity",
    "subcategory": "fast_food",
    "latitude": 31.432396,
    "longitude": 73.0808029,
    "id": 5254067391
  },
  {
    "name": "Muhammadi Nahari House",
    "category": "amenity",
    "subcategory": "restaurant",
    "latitude": 31.4324681,
    "longitude": 73.0807063,
    "id": 5254067392
  },
  {
    "name": "بينک الحبيب",
    "category": "amenity",
    "subcategory": "bank",
    "latitude": 31.4320286,
    "longitude": 73.0807955,
    "id": 5254067397
  },
  {
    "name": "فیصل بینک",
    "category": "amenity",
    "subcategory": "bank",
    "latitude": 31.4319347,
    "longitude": 73.0805661,
    "id": 5254067398
  },
  {
    "name": "Sonari Bank",
    "category": "amenity",
    "subcategory": "bank",
    "latitude": 31.4316322,
    "longitude": 73.0812056,
    "id": 5254067399
  },
  {
    "name": "Qatar Airways",
    "category": "shop",
    "subcategory": "travel_agency",
    "latitude": 31.4311608,
    "longitude": 73.0817527,
    "id": 5254067400
  },
  {
    "name": "Sitara Tower",
    "category": "office",
    "subcategory": "company",
    "latitude": 31.4309891,
    "longitude": 73.0815918,
    "id": 5254067401
  },
  {
    "name": "الائیڈ بینک لمیٹڈ",
    "category": "amenity",
    "subcategory": "bank",
    "latitude": 31.430077,
    "longitude": 73.0806078,
    "id": 5254067402
  },
  {
    "name": "Oriental Restaurant",
    "category": "amenity",
    "subcategory": "restaurant",
    "latitude": 31.4302712,
    "longitude": 73.0808354,
    "id": 5254067403
  },
  {
    "name": "Domino's Pizza",
    "category": "amenity",
    "subcategory": "fast_food",
    "latitude": 31.4304534,
    "longitude": 73.0809371,
    "id": 5254067404
  },
  {
    "name": "Excise & Taxation Office",
    "category": "office",
    "subcategory": "government",
    "latitude": 31.4297449,
    "longitude": 73.0822722,
    "id": 5254067408
  },
  {
    "name": "Faisalabad Serena Hotel",
    "category": "tourism",
    "subcategory": "hotel",
    "latitude": 31.4288564,
    "longitude": 73.0822337,
    "id": 5254067409
  },
  {
    "name": "Xuelian Restaurant",
    "category": "amenity",
    "subcategory": "restaurant",
    "latitude": 31.4286862,
    "longitude": 73.0822711,
    "id": 5254067410
  },
  {
    "name": "parking",
    "category": "amenity",
    "subcategory": "parking",
    "latitude": 31.4283544,
    "longitude": 73.0822096,
    "id": 5254067411
  },
  {
    "name": "میزان بینک",
    "category": "amenity",
    "subcategory": "bank",
    "latitude": 31.4280309,
    "longitude": 73.0819649,
    "id": 5254067412
  },
  {
    "name": "Rakaposhi Courtyard",
    "category": "amenity",
    "subcategory": "restaurant",
    "latitude": 31.4281321,
    "longitude": 73.0818871,
    "id": 5254067413
  },
  {
    "name": "parking",
    "category": "amenity",
    "subcategory": "parking",
    "latitude": 31.4270454,
    "longitude": 73.0834679,
    "id": 5254067415
  },
  {
    "name": "Jinnah Masjid",
    "category": "amenity",
    "subcategory": "place_of_worship",
    "latitude": 31.4279034,
    "longitude": 73.0846545,
    "id": 5254067416
  },
  {
    "name": "Jinnah Park",
    "category": "leisure",
    "subcategory": "park",
    "latitude": 31.4275487,
    "longitude": 73.0848047,
    "id": 5254067417
  },
  {
    "name": "Jinnah Gardens",
    "category": "leisure",
    "subcategory": "park",
    "latitude": 31.4258273,
    "longitude": 73.0851213,
    "id": 5254067418
  },
  {
    "name": "District Council Faisalabad",
    "category": "office",
    "subcategory": "government",
    "latitude": 31.4228891,
    "longitude": 73.083581,
    "id": 5254067419
  },
  {
    "name": "F.I.C. Nursing Hostel",
    "category": "tourism",
    "subcategory": "hostel",
    "latitude": 31.42308,
    "longitude": 73.0847239,
    "id": 5254067420
  },
  {
    "name": "Doctors Hostel FIC",
    "category": "tourism",
    "subcategory": "hostel",
    "latitude": 31.4233645,
    "longitude": 73.0851508,
    "id": 5254067621
  },
  {
    "name": "CPO Office Faisalabad",
    "category": "amenity",
    "subcategory": "police",
    "latitude": 31.4235023,
    "longitude": 73.0812776,
    "id": 5254067622
  },
  {
    "name": "Leisure Club Sessions House Faisalabad",
    "category": "amenity",
    "subcategory": "courthouse",
    "latitude": 31.4225208,
    "longitude": 73.0826437,
    "id": 5254067623
  },
  {
    "name": "Executive District Officer Health",
    "category": "office",
    "subcategory": "government",
    "latitude": 31.4217326,
    "longitude": 73.0843123,
    "id": 5254067627
  },
  {
    "name": "Lyallpur Museum Faisalabad",
    "category": "historic",
    "subcategory": "yes",
    "latitude": 31.4218551,
    "longitude": 73.0836947,
    "id": 5254067628
  },
  {
    "name": "جامع مسجد",
    "category": "amenity",
    "subcategory": "place_of_worship",
    "latitude": 31.4194304,
    "longitude": 73.0872969,
    "id": 5254067629
  },
  {
    "name": "Irrigation & Power Department",
    "category": "office",
    "subcategory": "government",
    "latitude": 31.4193572,
    "longitude": 73.0861105,
    "id": 5254067630
  },
  {
    "name": "Rail Bazar Police Station",
    "category": "amenity",
    "subcategory": "police",
    "latitude": 31.4184305,
    "longitude": 73.0839391,
    "id": 5254067631
  },
  {
    "name": "Habib Qatar International Exchange Pakistan",
    "category": "amenity",
    "subcategory": "bureau_de_change",
    "latitude": 31.4167384,
    "longitude": 73.0832721,
    "id": 5254067632
  },
  {
    "name": "Bank of Panjab",
    "category": "amenity",
    "subcategory": "bank",
    "latitude": 31.4165275,
    "longitude": 73.0886163,
    "id": 5254067633
  },
  {
    "name": "Nagina Cinema",
    "category": "amenity",
    "subcategory": "cinema",
    "latitude": 31.4175783,
    "longitude": 73.0895205,
    "id": 5254067641
  },
  {
    "name": "Taj Mahal Multiplex",
    "category": "amenity",
    "subcategory": "cinema",
    "latitude": 31.4170915,
    "longitude": 73.0896659,
    "id": 5254067642
  },
  {
    "name": "LG Service Centre",
    "category": "office",
    "subcategory": "company",
    "latitude": 31.4167107,
    "longitude": 73.089548,
    "id": 5254067643
  },
  {
    "name": "Al-Buraq Hotel & Restaurant",
    "category": "amenity",
    "subcategory": "restaurant",
    "latitude": 31.4167112,
    "longitude": 73.0886306,
    "id": 5254067644
  },
  {
    "name": "قیصری گیٹ",
    "category": "historic",
    "subcategory": "memorial",
    "latitude": 31.4189676,
    "longitude": 73.0839963,
    "id": 5254067645
  },
  {
    "name": "Punjab Provincial Cooperative Bank Limited",
    "category": "amenity",
    "subcategory": "bank",
    "latitude": 31.4190912,
    "longitude": 73.0839145,
    "id": 5254067646
  },
  {
    "name": "Hotel One by Pearl Continental",
    "category": "tourism",
    "subcategory": "hotel",
    "latitude": 31.4073368,
    "longitude": 73.1153593,
    "id": 5255258596
  },
  {
    "name": "Deegoo Hotel and Restaurant",
    "category": "tourism",
    "subcategory": "hotel",
    "latitude": 31.4087694,
    "longitude": 73.1090084,
    "id": 5255258597
  },
  {
    "name": "China Hotel",
    "category": "tourism",
    "subcategory": "hotel",
    "latitude": 31.4087825,
    "longitude": 73.108356,
    "id": 5255258598
  },
  {
    "name": "Habib Bank",
    "category": "amenity",
    "subcategory": "bank",
    "latitude": 31.4089057,
    "longitude": 73.1090675,
    "id": 5255258599
  },
  {
    "name": "Cock'N'Bull",
    "category": "amenity",
    "subcategory": "restaurant",
    "latitude": 31.4090896,
    "longitude": 73.1092057,
    "id": 5255258600
  },
  {
    "name": "Radio Pakistan",
    "category": "amenity",
    "subcategory": "studio",
    "latitude": 31.4081553,
    "longitude": 73.1092607,
    "id": 5255258601
  },
  {
    "name": "Hotel East Inn",
    "category": "tourism",
    "subcategory": "hotel",
    "latitude": 31.446233,
    "longitude": 73.0890973,
    "id": 5255258613
  },
  {
    "name": "Telenor Franchise",
    "category": "office",
    "subcategory": "telecommunication",
    "latitude": 31.4460966,
    "longitude": 73.08941,
    "id": 5255258614
  },
  {
    "name": "Saahil Hospital",
    "category": "amenity",
    "subcategory": "hospital",
    "latitude": 31.4461876,
    "longitude": 73.0890791,
    "id": 5255258615
  },
  {
    "name": "Bata Shoes",
    "category": "shop",
    "subcategory": "yes",
    "latitude": 31.4460667,
    "longitude": 73.088943,
    "id": 5255258616
  },
  {
    "name": "Saahil Energy Pvt Ltd",
    "category": "office",
    "subcategory": "company",
    "latitude": 31.446001,
    "longitude": 73.0891555,
    "id": 5255258617
  },
  {
    "name": "PTCL Broadband Office",
    "category": "office",
    "subcategory": "telecommunication",
    "latitude": 31.4456643,
    "longitude": 73.0890457,
    "id": 5255258618
  },
  {
    "name": "ٹوٹل",
    "category": "amenity",
    "subcategory": "fuel",
    "latitude": 31.4456858,
    "longitude": 73.0881012,
    "id": 5255258619
  },
  {
    "name": "Govt. Crescent Model High School Faisalabad",
    "category": "amenity",
    "subcategory": "school",
    "latitude": 31.4501236,
    "longitude": 73.0910216,
    "id": 5255258620
  },
  {
    "name": "Rizq Hotel",
    "category": "tourism",
    "subcategory": "hotel",
    "latitude": 31.416697,
    "longitude": 73.0941176,
    "id": 5255259221
  },
  {
    "name": "Hazara Hotel",
    "category": "amenity",
    "subcategory": "restaurant",
    "latitude": 31.4166224,
    "longitude": 73.0940381,
    "id": 5255259222
  },
  {
    "name": "Zafar Hotel",
    "category": "amenity",
    "subcategory": "restaurant",
    "latitude": 31.4165198,
    "longitude": 73.0939396,
    "id": 5255259223
  },
  {
    "name": "Rescue 1122",
    "category": "office",
    "subcategory": "government",
    "latitude": 31.4159793,
    "longitude": 73.0915592,
    "id": 5255259224
  },
  {
    "name": "Jama Masjid Akbar",
    "category": "amenity",
    "subcategory": "place_of_worship",
    "latitude": 31.4163047,
    "longitude": 73.0914829,
    "id": 5255259225
  },
  {
    "name": "Gujjar Hotel",
    "category": "amenity",
    "subcategory": "restaurant",
    "latitude": 31.4150733,
    "longitude": 73.0923658,
    "id": 5255259226
  },
  {
    "name": "الائیڈ بینک لمیٹڈ",
    "category": "amenity",
    "subcategory": "bank",
    "latitude": 31.4199714,
    "longitude": 73.080676,
    "id": 5255259246
  },
  {
    "name": "Dollareast Exchange",
    "category": "amenity",
    "subcategory": "bureau_de_change",
    "latitude": 31.4198107,
    "longitude": 73.0804113,
    "id": 5255320030
  },
  {
    "name": "Selecto Mobile",
    "category": "shop",
    "subcategory": "mobile_phone",
    "latitude": 31.4202579,
    "longitude": 73.0808518,
    "id": 5255320032
  },
  {
    "name": "Jubilee Centre",
    "category": "shop",
    "subcategory": "mall",
    "latitude": 31.4199079,
    "longitude": 73.0813078,
    "id": 5255320033
  },
  {
    "name": "تحصیل ولی مسجد",
    "category": "amenity",
    "subcategory": "place_of_worship",
    "latitude": 31.4200889,
    "longitude": 73.0825485,
    "id": 5255320034
  },
  {
    "name": "Sadeeq Plaza",
    "category": "shop",
    "subcategory": "mall",
    "latitude": 31.4205998,
    "longitude": 73.0819426,
    "id": 5255320035
  },
  {
    "name": "تحصیل مسجد",
    "category": "amenity",
    "subcategory": "place_of_worship",
    "latitude": 31.4212643,
    "longitude": 73.0827557,
    "id": 5255320036
  },
  {
    "name": "میزان بینک",
    "category": "amenity",
    "subcategory": "bank",
    "latitude": 31.4195888,
    "longitude": 73.0840941,
    "id": 5255320037
  },
  {
    "name": "Al Fatah Ground",
    "category": "leisure",
    "subcategory": "playground",
    "latitude": 31.4075478,
    "longitude": 73.1005099,
    "id": 5255320044
  },
  {
    "name": "Al Fatah Sports Complex",
    "category": "leisure",
    "subcategory": "sports_centre",
    "latitude": 31.4083751,
    "longitude": 73.1014159,
    "id": 5255320045
  },
  {
    "name": "Outfitters",
    "category": "shop",
    "subcategory": "clothes",
    "latitude": 31.4095894,
    "longitude": 73.1013805,
    "id": 5255390604
  },
  {
    "name": "Minnie Minors",
    "category": "shop",
    "subcategory": "clothes",
    "latitude": 31.4097978,
    "longitude": 73.1015823,
    "id": 5255390605
  },
  {
    "name": "Breakout",
    "category": "shop",
    "subcategory": "clothes",
    "latitude": 31.4100938,
    "longitude": 73.101922,
    "id": 5255390606
  },
  {
    "name": "The City School Peoples Colony Branch",
    "category": "amenity",
    "subcategory": "school",
    "latitude": 31.4110131,
    "longitude": 73.1032951,
    "id": 5255390607
  },
  {
    "name": "Forecast Factory Outlet",
    "category": "shop",
    "subcategory": "clothes",
    "latitude": 31.4111344,
    "longitude": 73.1033997,
    "id": 5255390608
  },
  {
    "name": "Hallmark College of Excellence",
    "category": "office",
    "subcategory": "educational_institution",
    "latitude": 31.4112329,
    "longitude": 73.1031395,
    "id": 5255390609
  },
  {
    "name": "Bissino",
    "category": "shop",
    "subcategory": "clothes",
    "latitude": 31.4116384,
    "longitude": 73.1036498,
    "id": 5255390610
  },
  {
    "name": "Edenrobe",
    "category": "shop",
    "subcategory": "clothes",
    "latitude": 31.4110944,
    "longitude": 73.1036039,
    "id": 5255390611
  },
  {
    "name": "Khushabi Tikka",
    "category": "amenity",
    "subcategory": "restaurant",
    "latitude": 31.4117481,
    "longitude": 73.1044998,
    "id": 5255390612
  },
  {
    "name": "Paradise Atrium Site",
    "category": "shop",
    "subcategory": "mall",
    "latitude": 31.411729,
    "longitude": 73.105188,
    "id": 5255390613
  },
  {
    "name": "Prince Hotel",
    "category": "tourism",
    "subcategory": "hotel",
    "latitude": 31.4256465,
    "longitude": 73.0916585,
    "id": 5255390614
  },
  {
    "name": "Arshad Plaza",
    "category": "shop",
    "subcategory": "mall",
    "latitude": 31.4253754,
    "longitude": 73.0914374,
    "id": 5255390617
  },
  {
    "name": "Mian Muhammad Trust Hospital",
    "category": "amenity",
    "subcategory": "hospital",
    "latitude": 31.4253379,
    "longitude": 73.0922967,
    "id": 5255390618
  },
  {
    "name": "Hotel Grand",
    "category": "tourism",
    "subcategory": "hotel",
    "latitude": 31.4177993,
    "longitude": 73.1165139,
    "id": 5255390619
  },
  {
    "name": "Sony Service Centre",
    "category": "office",
    "subcategory": "company",
    "latitude": 31.4176906,
    "longitude": 73.1166708,
    "id": 5255390620
  },
  {
    "name": "NADRA Office",
    "category": "office",
    "subcategory": "government",
    "latitude": 31.4175437,
    "longitude": 73.1168273,
    "id": 5255391821
  },
  {
    "name": "Kohinoor Flats Park",
    "category": "leisure",
    "subcategory": "park",
    "latitude": 31.4145932,
    "longitude": 73.111766,
    "id": 5255391823
  },
  {
    "name": "بینک الفلاح",
    "category": "amenity",
    "subcategory": "bank",
    "latitude": 31.4139839,
    "longitude": 73.1132883,
    "id": 5255391824
  },
  {
    "name": "Kohinoor Chowk",
    "category": "highway",
    "subcategory": "bus_stop",
    "latitude": 31.4129103,
    "longitude": 73.1137872,
    "id": 5255391825
  },
  {
    "name": "NADRA Executive Centre",
    "category": "office",
    "subcategory": "government",
    "latitude": 31.4129519,
    "longitude": 73.1151113,
    "id": 5255391826
  },
  {
    "name": "Nectar",
    "category": "amenity",
    "subcategory": "cafe",
    "latitude": 31.4128649,
    "longitude": 73.1149074,
    "id": 5255391827
  },
  {
    "name": "Zubaidas Mall",
    "category": "shop",
    "subcategory": "clothes",
    "latitude": 31.4131236,
    "longitude": 73.1152722,
    "id": 5255391828
  },
  {
    "name": "Raj One Hotel",
    "category": "tourism",
    "subcategory": "hotel",
    "latitude": 31.4202001,
    "longitude": 73.1165849,
    "id": 5255617527
  },
  {
    "name": "Punjab Social Security Hospital",
    "category": "amenity",
    "subcategory": "hospital",
    "latitude": 31.41954,
    "longitude": 73.1158963,
    "id": 5255617528
  },
  {
    "name": "Chenab Market",
    "category": "amenity",
    "subcategory": "marketplace",
    "latitude": 31.4201692,
    "longitude": 73.1174485,
    "id": 5255617529
  },
  {
    "name": "iTech Computer College",
    "category": "office",
    "subcategory": "educational_institution",
    "latitude": 31.4199242,
    "longitude": 73.1169388,
    "id": 5255617530
  },
  {
    "name": "Career Institute",
    "category": "office",
    "subcategory": "educational_institution",
    "latitude": 31.419732,
    "longitude": 73.1177891,
    "id": 5255617531
  },
  {
    "name": "Jalandher Fish Shop & Bar BQ",
    "category": "amenity",
    "subcategory": "restaurant",
    "latitude": 31.4199057,
    "longitude": 73.1154934,
    "id": 5255617532
  },
  {
    "name": "Expertcode Training Institute",
    "category": "office",
    "subcategory": "educational_institution",
    "latitude": 31.4197375,
    "longitude": 73.1152869,
    "id": 5255617533
  },
  {
    "name": "Best Western Faisalabad Hotel",
    "category": "tourism",
    "subcategory": "hotel",
    "latitude": 31.4223048,
    "longitude": 73.0897854,
    "id": 5255617534
  },
  {
    "name": "ایم سی بی بینک",
    "category": "amenity",
    "subcategory": "bank",
    "latitude": 31.4218837,
    "longitude": 73.0901935,
    "id": 5255617535
  },
  {
    "name": "Habib Bank",
    "category": "amenity",
    "subcategory": "bank",
    "latitude": 31.4215111,
    "longitude": 73.089869,
    "id": 5255617536
  },
  {
    "name": "Faisalabad Regency Travels",
    "category": "shop",
    "subcategory": "travel_agency",
    "latitude": 31.4216407,
    "longitude": 73.089827,
    "id": 5255617537
  },
  {
    "name": "Christian Garden",
    "category": "amenity",
    "subcategory": "place_of_worship",
    "latitude": 31.4227465,
    "longitude": 73.0893366,
    "id": 5255617538
  },
  {
    "name": "Lord's Inn",
    "category": "tourism",
    "subcategory": "hotel",
    "latitude": 31.416467,
    "longitude": 73.1086475,
    "id": 5255617539
  },
  {
    "name": "Jahangir Motor Garage",
    "category": "shop",
    "subcategory": "car_repair",
    "latitude": 31.4161625,
    "longitude": 73.1090404,
    "id": 5255617540
  },
  {
    "name": "Rana Velvet",
    "category": "shop",
    "subcategory": "curtain",
    "latitude": 31.4164721,
    "longitude": 73.1092504,
    "id": 5255617541
  },
  {
    "name": "Baby Land",
    "category": "shop",
    "subcategory": "toys",
    "latitude": 31.416167,
    "longitude": 73.1095721,
    "id": 5255617542
  },
  {
    "name": "Ganji Ground",
    "category": "leisure",
    "subcategory": "park",
    "latitude": 31.4132784,
    "longitude": 73.109502,
    "id": 5255617543
  },
  {
    "name": "Makki Hospital",
    "category": "amenity",
    "subcategory": "hospital",
    "latitude": 31.4113163,
    "longitude": 73.1118116,
    "id": 5255617544
  },
  {
    "name": "Aziz Clinic",
    "category": "amenity",
    "subcategory": "clinic",
    "latitude": 31.415292,
    "longitude": 73.1087899,
    "id": 5255617545
  },
  {
    "name": "Office Of Union Council No 222",
    "category": "office",
    "subcategory": "government",
    "latitude": 31.4152366,
    "longitude": 73.1070901,
    "id": 5255617546
  },
  {
    "name": "Rabi Centre",
    "category": "shop",
    "subcategory": "mall",
    "latitude": 31.4050393,
    "longitude": 73.1076608,
    "id": 5255617547
  },
  {
    "name": "Galaxy Mall",
    "category": "shop",
    "subcategory": "mall",
    "latitude": 31.4049332,
    "longitude": 73.1082927,
    "id": 5255617548
  },
  {
    "name": "Stylo Shoes",
    "category": "shop",
    "subcategory": "shoes",
    "latitude": 31.404892,
    "longitude": 73.1082028,
    "id": 5255617549
  },
  {
    "name": "Harianwala Chowk",
    "category": "highway",
    "subcategory": "bus_stop",
    "latitude": 31.4046471,
    "longitude": 73.1075819,
    "id": 5255617550
  },
  {
    "name": "Judi Masjid",
    "category": "amenity",
    "subcategory": "place_of_worship",
    "latitude": 31.4050536,
    "longitude": 73.1072039,
    "id": 5255617551
  },
  {
    "name": "The One Hotel",
    "category": "tourism",
    "subcategory": "hotel",
    "latitude": 31.4051029,
    "longitude": 73.1074909,
    "id": 5255617552
  },
  {
    "name": "Bambino Shopping Store",
    "category": "shop",
    "subcategory": "supermarket",
    "latitude": 31.4054676,
    "longitude": 73.1089157,
    "id": 5255617553
  },
  {
    "name": "ایم سی بی بینک",
    "category": "amenity",
    "subcategory": "bank",
    "latitude": 31.4060057,
    "longitude": 73.109342,
    "id": 5255617554
  },
  {
    "name": "City Mega Mart",
    "category": "shop",
    "subcategory": "mall",
    "latitude": 31.4070327,
    "longitude": 73.1089761,
    "id": 5255617555
  },
  {
    "name": "Chicken Restaurant",
    "category": "amenity",
    "subcategory": "restaurant",
    "latitude": 31.4076529,
    "longitude": 73.1087269,
    "id": 5255617556
  },
  {
    "name": "جے ایس بینک",
    "category": "amenity",
    "subcategory": "bank",
    "latitude": 31.4081252,
    "longitude": 73.0979555,
    "id": 5255873670
  },
  {
    "name": "Maqsooda Zia Hospital",
    "category": "amenity",
    "subcategory": "hospital",
    "latitude": 31.4088921,
    "longitude": 73.0973496,
    "id": 5255873671
  },
  {
    "name": "Ismail Plaza",
    "category": "shop",
    "subcategory": "mall",
    "latitude": 31.4086574,
    "longitude": 73.0973,
    "id": 5255873672
  },
  {
    "name": "Al Halal Travels",
    "category": "amenity",
    "subcategory": "bus_station",
    "latitude": 31.4475206,
    "longitude": 73.086922,
    "id": 5255971121
  },
  {
    "name": "ایم سی بی بینک",
    "category": "amenity",
    "subcategory": "bank",
    "latitude": 31.4511627,
    "longitude": 73.1516771,
    "id": 5259239722
  },
  {
    "name": "Marhaba Mart",
    "category": "shop",
    "subcategory": "supermarket",
    "latitude": 31.4516922,
    "longitude": 73.1531321,
    "id": 5259239723
  },
  {
    "name": "Marhaba Mahal",
    "category": "amenity",
    "subcategory": "restaurant",
    "latitude": 31.4520001,
    "longitude": 73.1538541,
    "id": 5259239724
  },
  {
    "name": "Silver Spoon Marquee",
    "category": "amenity",
    "subcategory": "restaurant",
    "latitude": 31.4504251,
    "longitude": 73.1498093,
    "id": 5259239725
  },
  {
    "name": "Lahore Grammar School",
    "category": "amenity",
    "subcategory": "school",
    "latitude": 31.45016,
    "longitude": 73.1493365,
    "id": 5259239726
  },
  {
    "name": "Hotel One Faisalabad",
    "category": "tourism",
    "subcategory": "hotel",
    "latitude": 31.4077535,
    "longitude": 73.1134978,
    "id": 5259596721
  },
  {
    "name": "Paradise Tower",
    "category": "shop",
    "subcategory": "mall",
    "latitude": 31.4071476,
    "longitude": 73.1124329,
    "id": 5259596722
  },
  {
    "name": "Shiblee College of Commerce & Science",
    "category": "amenity",
    "subcategory": "college",
    "latitude": 31.4076693,
    "longitude": 73.1116774,
    "id": 5259596725
  },
  {
    "name": "بینک الفلاح",
    "category": "amenity",
    "subcategory": "bank",
    "latitude": 31.4083528,
    "longitude": 73.1107611,
    "id": 5259596726
  },
  {
    "name": "Shaukat Khanum Laboratory Collection Centre",
    "category": "amenity",
    "subcategory": "clinic",
    "latitude": 31.4084638,
    "longitude": 73.110627,
    "id": 5259596727
  },
  {
    "name": "Alle'nora Beauty Parlour",
    "category": "shop",
    "subcategory": "beauty",
    "latitude": 31.4100256,
    "longitude": 73.1086097,
    "id": 5259596728
  },
  {
    "name": "City Mall",
    "category": "shop",
    "subcategory": "mall",
    "latitude": 31.4103513,
    "longitude": 73.107703,
    "id": 5259596729
  },
  {
    "name": "Post Office",
    "category": "amenity",
    "subcategory": "post_office",
    "latitude": 31.4102655,
    "longitude": 73.1078572,
    "id": 5259596730
  },
  {
    "name": "Regent Mall & Hotel",
    "category": "shop",
    "subcategory": "mall",
    "latitude": 31.4106043,
    "longitude": 73.107416,
    "id": 5259596731
  },
  {
    "name": "Clinix Pharmacy",
    "category": "amenity",
    "subcategory": "clinic",
    "latitude": 31.4457232,
    "longitude": 73.0805446,
    "id": 5259596739
  },
  {
    "name": "Siddique Orthopaedic & Rehabilitation Complex",
    "category": "amenity",
    "subcategory": "hospital",
    "latitude": 31.4463383,
    "longitude": 73.0802892,
    "id": 5259596741
  },
  {
    "name": "Doctor's Hostel",
    "category": "tourism",
    "subcategory": "hostel",
    "latitude": 31.4475936,
    "longitude": 73.0803533,
    "id": 5259596743
  },
  {
    "name": "Punjab Institute of Nuclear Medicine",
    "category": "amenity",
    "subcategory": "hospital",
    "latitude": 31.4500299,
    "longitude": 73.0831993,
    "id": 5259596744
  },
  {
    "name": "College of Physicians & Surgeons Pakistan",
    "category": "amenity",
    "subcategory": "school",
    "latitude": 31.4504993,
    "longitude": 73.0836697,
    "id": 5259596745
  },
  {
    "name": "Stone Over Pizza Valley",
    "category": "amenity",
    "subcategory": "restaurant",
    "latitude": 31.4504913,
    "longitude": 73.0842348,
    "id": 5259596746
  },
  {
    "name": "میزان بینک",
    "category": "amenity",
    "subcategory": "bank",
    "latitude": 31.4504395,
    "longitude": 73.0841741,
    "id": 5259596747
  },
  {
    "name": "Water & Sanitation Agency",
    "category": "office",
    "subcategory": "government",
    "latitude": 31.4492637,
    "longitude": 73.0840217,
    "id": 5259596748
  },
  {
    "name": "Public Car Park",
    "category": "amenity",
    "subcategory": "parking",
    "latitude": 31.4484677,
    "longitude": 73.0814474,
    "id": 5259596749
  },
  {
    "name": "Gangoo Restaurant & Cafe",
    "category": "amenity",
    "subcategory": "restaurant",
    "latitude": 31.4500514,
    "longitude": 73.0861073,
    "id": 5259596750
  },
  {
    "name": "Tariq Murgh Pulao",
    "category": "amenity",
    "subcategory": "restaurant",
    "latitude": 31.4503441,
    "longitude": 73.0860053,
    "id": 5259596751
  },
  {
    "name": "Maqsooda Zia Executive Clinics Hospital",
    "category": "amenity",
    "subcategory": "hospital",
    "latitude": 31.4501677,
    "longitude": 73.0859736,
    "id": 5259596752
  },
  {
    "name": "Afzal Electronics",
    "category": "shop",
    "subcategory": "electronics",
    "latitude": 31.4514439,
    "longitude": 73.0854523,
    "id": 5259596753
  },
  {
    "name": "P.M.C Auditorium",
    "category": "amenity",
    "subcategory": "community_centre",
    "latitude": 31.4519606,
    "longitude": 73.0850715,
    "id": 5259596754
  },
  {
    "name": "Crestex Ltd",
    "category": "office",
    "subcategory": "company",
    "latitude": 31.4519279,
    "longitude": 73.0862225,
    "id": 5259596755
  },
  {
    "name": "Fire Brigade Faisalabad",
    "category": "amenity",
    "subcategory": "fire_station",
    "latitude": 31.4460561,
    "longitude": 73.0904406,
    "id": 5259596756
  },
  {
    "name": "Hotel The Colonels Inn",
    "category": "tourism",
    "subcategory": "hotel",
    "latitude": 31.4053239,
    "longitude": 73.1119842,
    "id": 5259931198
  },
  {
    "name": "Cafe Tandoors",
    "category": "amenity",
    "subcategory": "restaurant",
    "latitude": 31.405492,
    "longitude": 73.1122012,
    "id": 5259931199
  },
  {
    "name": "The City Grammar School",
    "category": "amenity",
    "subcategory": "school",
    "latitude": 31.405205,
    "longitude": 73.1116408,
    "id": 5259931200
  },
  {
    "name": "D Ground Market",
    "category": "amenity",
    "subcategory": "marketplace",
    "latitude": 31.4061061,
    "longitude": 73.1118378,
    "id": 5259931201
  },
  {
    "name": "Urban Sole",
    "category": "shop",
    "subcategory": "shoes",
    "latitude": 31.4060329,
    "longitude": 73.111709,
    "id": 5259931202
  },
  {
    "name": "Rawayat",
    "category": "amenity",
    "subcategory": "restaurant",
    "latitude": 31.405947,
    "longitude": 73.1118337,
    "id": 5259931203
  },
  {
    "name": "میزان بینک",
    "category": "amenity",
    "subcategory": "bank",
    "latitude": 31.4060034,
    "longitude": 73.1112252,
    "id": 5259931204
  },
  {
    "name": "Dee Fashion Hair Salon",
    "category": "shop",
    "subcategory": "beauty",
    "latitude": 31.4065915,
    "longitude": 73.1092575,
    "id": 5259931205
  },
  {
    "name": "Shifa Internation Hospital",
    "category": "amenity",
    "subcategory": "hospital",
    "latitude": 31.4042909,
    "longitude": 73.1155608,
    "id": 5259931206
  },
  {
    "name": "Kips College D Dround",
    "category": "office",
    "subcategory": "educational_institution",
    "latitude": 31.4048797,
    "longitude": 73.1148818,
    "id": 5259931208
  },
  {
    "name": "Adore Beauty Clinic",
    "category": "shop",
    "subcategory": "beauty",
    "latitude": 31.4044113,
    "longitude": 73.1139268,
    "id": 5259931209
  },
  {
    "name": "Toddlers School System",
    "category": "amenity",
    "subcategory": "school",
    "latitude": 31.4046086,
    "longitude": 73.113719,
    "id": 5259931210
  },
  {
    "name": "The Tips",
    "category": "office",
    "subcategory": "educational_institution",
    "latitude": 31.4051009,
    "longitude": 73.1146623,
    "id": 5259931211
  },
  {
    "name": "Dar-e-Arqam School",
    "category": "amenity",
    "subcategory": "school",
    "latitude": 31.4044153,
    "longitude": 73.1161357,
    "id": 5259931212
  },
  {
    "name": "Hameed Chowk",
    "category": "highway",
    "subcategory": "bus_stop",
    "latitude": 31.4036321,
    "longitude": 73.1167389,
    "id": 5259931213
  },
  {
    "name": "Income Tax Office",
    "category": "office",
    "subcategory": "government",
    "latitude": 31.4015756,
    "longitude": 73.1154694,
    "id": 5259931216
  },
  {
    "name": "Mini City Mega Mart",
    "category": "shop",
    "subcategory": "supermarket",
    "latitude": 31.4014171,
    "longitude": 73.1145406,
    "id": 5259931217
  },
  {
    "name": "National Cupping Association Of Pakistan",
    "category": "amenity",
    "subcategory": "clinic",
    "latitude": 31.4012603,
    "longitude": 73.1144427,
    "id": 5259931218
  },
  {
    "name": "Dr.Shagufta Zaheer Maternity Clinic",
    "category": "amenity",
    "subcategory": "hospital",
    "latitude": 31.4026052,
    "longitude": 73.1123236,
    "id": 5259931219
  },
  {
    "name": "Masjid Khizra",
    "category": "amenity",
    "subcategory": "place_of_worship",
    "latitude": 31.402113,
    "longitude": 73.1111928,
    "id": 5259931220
  },
  {
    "name": "Uswa Public High School",
    "category": "amenity",
    "subcategory": "school",
    "latitude": 31.4017174,
    "longitude": 73.1148998,
    "id": 5259932321
  },
  {
    "name": "Skin Laser",
    "category": "amenity",
    "subcategory": "clinic",
    "latitude": 31.4037066,
    "longitude": 73.1119228,
    "id": 5259932322
  },
  {
    "name": "Bustan e Zahra Imam Bargah",
    "category": "amenity",
    "subcategory": "place_of_worship",
    "latitude": 31.4037713,
    "longitude": 73.1088656,
    "id": 5259932324
  },
  {
    "name": "Preston University Faisalabad",
    "category": "amenity",
    "subcategory": "university",
    "latitude": 31.4040492,
    "longitude": 73.1093797,
    "id": 5259932325
  },
  {
    "name": "Kohistan Market",
    "category": "amenity",
    "subcategory": "marketplace",
    "latitude": 31.402449,
    "longitude": 73.1058349,
    "id": 5259932326
  },
  {
    "name": "The Royal Banquet",
    "category": "amenity",
    "subcategory": "community_centre",
    "latitude": 31.4022709,
    "longitude": 73.1047424,
    "id": 5259932328
  },
  {
    "name": "Saad Surgimed Hospital",
    "category": "amenity",
    "subcategory": "hospital",
    "latitude": 31.4030194,
    "longitude": 73.1041586,
    "id": 5259932329
  },
  {
    "name": "Fatima Girls Hostel",
    "category": "tourism",
    "subcategory": "hostel",
    "latitude": 31.3999007,
    "longitude": 73.1022766,
    "id": 5259932330
  },
  {
    "name": "Ghazali Park",
    "category": "leisure",
    "subcategory": "park",
    "latitude": 31.4005223,
    "longitude": 73.1017186,
    "id": 5259932331
  },
  {
    "name": "Aqsa Park",
    "category": "leisure",
    "subcategory": "park",
    "latitude": 31.3993825,
    "longitude": 73.1006964,
    "id": 5259932332
  },
  {
    "name": "Islam Park",
    "category": "leisure",
    "subcategory": "park",
    "latitude": 31.3986214,
    "longitude": 73.0992254,
    "id": 5259932333
  },
  {
    "name": "Mahfooz Park",
    "category": "leisure",
    "subcategory": "park",
    "latitude": 31.3961551,
    "longitude": 73.0999811,
    "id": 5259932334
  },
  {
    "name": "Jamia Masjid Sabria",
    "category": "amenity",
    "subcategory": "place_of_worship",
    "latitude": 31.3958967,
    "longitude": 73.1010925,
    "id": 5259932335
  },
  {
    "name": "Akhter Medical Center",
    "category": "amenity",
    "subcategory": "clinic",
    "latitude": 31.3960444,
    "longitude": 73.1022934,
    "id": 5259932336
  },
  {
    "name": "Raja Chowk",
    "category": "highway",
    "subcategory": "bus_stop",
    "latitude": 31.3896652,
    "longitude": 73.095846,
    "id": 5259951479
  },
  {
    "name": "Rehmat Petroleum",
    "category": "amenity",
    "subcategory": "fuel",
    "latitude": 31.3890768,
    "longitude": 73.0953045,
    "id": 5259951480
  },
  {
    "name": "Bohr Wala Chowk",
    "category": "highway",
    "subcategory": "bus_stop",
    "latitude": 31.3867489,
    "longitude": 73.099785,
    "id": 5259951481
  },
  {
    "name": "Sangam Hotel",
    "category": "tourism",
    "subcategory": "hotel",
    "latitude": 31.4302768,
    "longitude": 73.0939467,
    "id": 5260083594
  },
  {
    "name": "پاکستان اسٹیٹ آئل",
    "category": "amenity",
    "subcategory": "fuel",
    "latitude": 31.4301776,
    "longitude": 73.0942268,
    "id": 5260083595
  },
  {
    "name": "Asad Music Center",
    "category": "shop",
    "subcategory": "music",
    "latitude": 31.4297862,
    "longitude": 73.0941733,
    "id": 5260083596
  },
  {
    "name": "Shadman Hotel",
    "category": "tourism",
    "subcategory": "hotel",
    "latitude": 31.4313569,
    "longitude": 73.0943084,
    "id": 5260083597
  },
  {
    "name": "Omer Hospital",
    "category": "amenity",
    "subcategory": "hospital",
    "latitude": 31.4339972,
    "longitude": 73.0927874,
    "id": 5260083598
  },
  {
    "name": "Islamia College Park",
    "category": "leisure",
    "subcategory": "park",
    "latitude": 31.4335919,
    "longitude": 73.0933927,
    "id": 5260083599
  },
  {
    "name": "Government Postgraduate Islamia College for Boys Faisalabad",
    "category": "amenity",
    "subcategory": "college",
    "latitude": 31.4324115,
    "longitude": 73.0939688,
    "id": 5260083600
  },
  {
    "name": "EXECUTIVE LODGES",
    "category": "tourism",
    "subcategory": "hotel",
    "latitude": 31.4311049,
    "longitude": 73.0936158,
    "id": 5260083601
  },
  {
    "name": "ایم سی بی بینک",
    "category": "amenity",
    "subcategory": "bank",
    "latitude": 31.43082,
    "longitude": 73.0937513,
    "id": 5260083602
  },
  {
    "name": "Marhaba Mahal Authentic Desi Cuisine",
    "category": "amenity",
    "subcategory": "restaurant",
    "latitude": 31.4520734,
    "longitude": 73.1543174,
    "id": 5261996937
  },
  {
    "name": "Babu CNG",
    "category": "amenity",
    "subcategory": "fuel",
    "latitude": 31.4517514,
    "longitude": 73.1532646,
    "id": 5261997028
  },
  {
    "name": "ٹوٹل",
    "category": "amenity",
    "subcategory": "fuel",
    "latitude": 31.4516614,
    "longitude": 73.1529773,
    "id": 5261997235
  },
  {
    "name": "Dar ul Madina -Islamic School System Dawat e Islami",
    "category": "amenity",
    "subcategory": "school",
    "latitude": 31.4183505,
    "longitude": 73.111345,
    "id": 5263409073
  },
  {
    "name": "Babar House",
    "category": "tourism",
    "subcategory": "hotel",
    "latitude": 31.4184855,
    "longitude": 73.1116776,
    "id": 5263409074
  },
  {
    "name": "Lyallpur Restaurant",
    "category": "amenity",
    "subcategory": "restaurant",
    "latitude": 31.4289511,
    "longitude": 73.0823152,
    "id": 5263409075
  },
  {
    "name": "Mullah Hotel",
    "category": "tourism",
    "subcategory": "hotel",
    "latitude": 31.4172797,
    "longitude": 73.0809334,
    "id": 5263409076
  },