[
  {
    "name": "CMH",
    "category": "amenity",
    "subcategory": "hospital",
    "latitude": 34.372766,
    "longitude": 73.4661219,
    "id": 2433649244
  },
  {
    "name": "Supreme Court",
    "category": "amenity",
    "subcategory": "courthouse",
    "latitude": 34.3465657,
    "longitude": 73.4636933,
    "id": 3094958559
  },
  {
    "name": "AJK Computer & Printer",
    "category": "shop",
    "subcategory": "computer",
    "latitude": 34.3441062,
    "longitude": 73.4606089,
    "id": 4123068492
  },
  {
    "name": "Syed Saheli Sarkar Darbar's Mosque",
    "category": "amenity",
    "subcategory": "place_of_worship",
    "latitude": 34.3580621,
    "longitude": 73.4734692,
    "id": 4139985389
  },
  {
    "name": "lahore guest house",
    "category": "amenity",
    "subcategory": "restaurant",
    "latitude": 34.3772286,
    "longitude": 73.4643057,
    "id": 4205281689
  },
  {
    "name": "مسجد بلال",
    "category": "amenity",
    "subcategory": "place_of_worship",
    "latitude": 34.3435801,
    "longitude": 73.4658246,
    "id": 4232257372
  },
  {
    "name": "Saeban Guest House",
    "category": "tourism",
    "subcategory": "guest_house",
    "latitude": 34.3441784,
    "longitude": 73.4604612,
    "id": 4269761200
  },
  {
    "name": "Ali Akbar Awan School Upper chatter, Muzaffarabad",
    "category": "amenity",
    "subcategory": "school",
    "latitude": 34.3463113,
    "longitude": 73.4677468,
    "id": 4269770700
  },
  {
    "name": "SHAH BROTHERS",
    "category": "shop",
    "subcategory": "department_store",
    "latitude": 34.3551794,
    "longitude": 73.475609,
    "id": 4360156893
  },
  {
    "name": "SCO",
    "category": "tourism",
    "subcategory": "guest_house",
    "latitude": 34.3455912,
    "longitude": 73.4665695,
    "id": 4426033397
  },
  {
    "name": "Jazi house",
    "category": "tourism",
    "subcategory": "attraction",
    "latitude": 34.3525631,
    "longitude": 73.4800051,
    "id": 4990833938
  },
  {
    "name": "MES Guesthouse",
    "category": "tourism",
    "subcategory": "guest_house",
    "latitude": 34.3504083,
    "longitude": 73.4677441,
    "id": 5063363721
  },
  {
    "name": "Zulfi shop",
    "category": "shop",
    "subcategory": "beverages",
    "latitude": 34.3518385,
    "longitude": 73.4804434,
    "id": 5153955822
  },
  {
    "name": "Butt General Store",
    "category": "shop",
    "subcategory": "general",
    "latitude": 34.3491944,
    "longitude": 73.4605047,
    "id": 8579166065
  },
  {
    "name": "Sathra Park",
    "category": "leisure",
    "subcategory": "park",
    "latitude": 34.3641957,
    "longitude": 73.4739303,
    "id": 10606381737
  },
  {
    "name": "Jamia Masjid Ayesha Sadiqa",
    "category": "amenity",
    "subcategory": "place_of_worship",
    "latitude": 34.366896,
    "longitude": 73.4757675,
    "id": 10606434815
  },
  {
    "name": "High Court AJ & K",
    "category": "amenity",
    "subcategory": "courthouse",
    "latitude": 34.3457463,
    "longitude": 73.4639855,
    "id": 10606520409
  },
  {
    "name": "Army Public School",
    "category": "amenity",
    "subcategory": "school",
    "latitude": 34.363666,
    "longitude": 73.4674586,
    "id": 10606648512
  },
  {
    "name": "Aakas Hotel Restaurant",
    "category": "tourism",
    "subcategory": "hotel",
    "latitude": 34.3804394,
    "longitude": 73.4639204,
    "id": 10815437779
  },
  {
    "name": "نیلم ویو لان",
    "category": "tourism",
    "subcategory": "hotel",
    "latitude": 34.3829326,
    "longitude": 73.4635428,
    "id": 11283024375
  },
  {
    "name": "Bilal Mosque",
    "category": "amenity",
    "subcategory": "place_of_worship",
    "latitude": 34.3858256,
    "longitude": 73.4569143,
    "id": 11991971320
  },
  {
    "name": "Awami General Store",
    "category": "shop",
    "subcategory": "general",
    "latitude": 34.3855578,
    "longitude": 73.4581924,
    "id": 11991974951
  },
  {
    "name": "Mosque",
    "category": "amenity",
    "subcategory": "place_of_worship",
    "latitude": 34.360217,
    "longitude": 73.4982792,
    "id": 11993226920
  },
  {
    "name": "Hafeez Shaheed Mosque",
    "category": "amenity",
    "subcategory": "place_of_worship",
    "latitude": 34.3840779,
    "longitude": 73.4580522,
    "id": 12025251126
  },
  {
    "name": "قدیمی جامعہ مسجد کھلہ",
    "category": "amenity",
    "subcategory": "place_of_worship",
    "latitude": 34.3576112,
    "longitude": 73.5046072,
    "id": 12025341983
  },
  {
    "name": "Tuck Shop",
    "category": "amenity",
    "subcategory": "fast_food",
    "latitude": 34.3634537,
    "longitude": 73.5032644,
    "id": 12057536340
  },
  {
    "name": "Al Ahmed Guest House & Food Point",
    "category": "tourism",
    "subcategory": "guest_house",
    "latitude": 34.3606519,
    "longitude": 73.4871348,
    "id": 12059504480
  },
  {
    "name": "Mosque",
    "category": "amenity",
    "subcategory": "place_of_worship",
    "latitude": 34.3617944,
    "longitude": 73.505079,
    "id": 12061244511
  },
  {
    "name": "Mosque",
    "category": "amenity",
    "subcategory": "place_of_worship",
    "latitude": 34.362677,
    "longitude": 73.4983077,
    "id": 12061246140
  },
  {
    "name": "Waheed Hardware, Paint, Ply & Sanitary Store",
    "category": "shop",
    "subcategory": "hardware",
    "latitude": 34.3850035,
    "longitude": 73.4628853,
    "id": 12083306803
  },
  {
    "name": "Kashmir Poly Technic College Muzaffarabad AJK",
    "category": "amenity",
    "subcategory": "college",
    "latitude": 34.3570092,
    "longitude": 73.4745917,
    "id": 12083386222
  },
  {
    "name": "jirga cafe and restaurant",
    "category": "amenity",
    "subcategory": "cafe",
    "latitude": 34.3511006,
    "longitude": 73.4753618,
    "id": 12902347713
  },
  {
    "name": "جانان ہوٹل",
    "category": "tourism",
    "subcategory": "hotel",
    "latitude": 34.3467711,
    "longitude": 73.4316604,
    "id": 13789174901
  },
  {
    "name": "مسجد شیسہ موڑ",
    "category": "amenity",
    "subcategory": "place_of_worship",
    "latitude": 34.3468491,
    "longitude": 73.4483602,
    "id": 13789180146
  },
  {
    "name": "حبیبی 3",
    "category": "amenity",
    "subcategory": "fast_food",
    "latitude": 34.3810159,
    "longitude": 73.4640985,
    "id": 13792853245
  },
  {
    "name": "ریاض آٹوز اینڈ انجینئرنگ ورکس",
    "category": "shop",
    "subcategory": "motorcycle_repair",
    "latitude": 34.377528,
    "longitude": 73.464053,
    "id": 13792853265
  },
  {
    "name": "حبیبی 3",
    "category": "amenity",
    "subcategory": "fast_food",
    "latitude": 34.3810159,
    "longitude": 73.4640985,
    "id": 13792875831
  },
  {
    "name": "پیزا لیب",
    "category": "amenity",
    "subcategory": "fast_food",
    "latitude": 34.3786768,
    "longitude": 73.4635196,
    "id": 13793014978
  },
  {
    "name": "راحت بیکرز",
    "category": "shop",
    "subcategory": "bakery",
    "latitude": 34.3753137,
    "longitude": 73.4647458,
    "id": 13793033881
  },
  {
    "name": "ریاض آٹوز",
    "category": "shop",
    "subcategory": "motorcycle",
    "latitude": 34.3774928,
    "longitude": 73.4640642,
    "id": 13793034724
  },
  {
    "name": "حق چار یار مسچد",
    "category": "amenity",
    "subcategory": "place_of_worship",
    "latitude": 34.3926424,
    "longitude": 73.4649225,
    "id": 13793450147
  },
  {
    "name": "قیوم جنرل سٹور",
    "category": "shop",
    "subcategory": "general",
    "latitude": 34.3917136,
    "longitude": 73.4649236,
    "id": 13793458450
  },
  {
    "name": "باسط درانی جنرل سٹور",
    "category": "shop",
    "subcategory": "general",
    "latitude": 34.390045,
    "longitude": 73.4642956,
    "id": 13793460907
  },
  {
    "name": "حبیب بنک لمیٹڈ - چہلہ برانچ",
    "category": "amenity",
    "subcategory": "bank",
    "latitude": 34.3880351,
    "longitude": 73.466197,
    "id": 13793474476
  },
  {
    "name": "جامع مسجد صدیقیہ و تجوید القرآن",
    "category": "amenity",
    "subcategory": "place_of_worship",
    "latitude": 34.3908197,
    "longitude": 73.4658898,
    "id": 13793501725
  },
  {
    "name": "میر پٹرول پمپ",
    "category": "amenity",
    "subcategory": "fuel",
    "latitude": 34.3893732,
    "longitude": 73.4674572,
    "id": 13793521396
  },
  {
    "name": "کنگڈم ہوٹل",
    "category": "tourism",
    "subcategory": "hotel",
    "latitude": 34.3776918,
    "longitude": 73.4597479,
    "id": 13793546579
  },
  {
    "name": "بچوں کا وارڈ",
    "category": "amenity",
    "subcategory": "doctors",
    "latitude": 34.3738465,
    "longitude": 73.4670065,
    "id": 13793863458
  },
  {
    "name": "Raza Book Depot",
    "category": "shop",
    "subcategory": "books",
    "latitude": 34.3893206,
    "longitude": 73.4673914,
    "id": 13932663148
  }
]