[
  {
    "name": "Dr. Mohan lal",
    "category": "amenity",
    "subcategory": "clinic",
    "latitude": 25.826767,
    "longitude": 69.3776921,
    "id": 5406053530
  },
  {
    "name": "Dr. Bharat Kumar Khatri",
    "category": "amenity",
    "subcategory": "clinic",
    "latitude": 25.8270409,
    "longitude": 69.3773961,
    "id": 5406053531
  },
  {
    "name": "Dr. Khushi Ram",
    "category": "amenity",
    "subcategory": "clinic",
    "latitude": 25.8266248,
    "longitude": 69.3779315,
    "id": 5406055640
  },
  {
    "name": "Dr. Gori Amar",
    "category": "amenity",
    "subcategory": "clinic",
    "latitude": 25.8273061,
    "longitude": 69.3786722,
    "id": 5406055641
  },
  {
    "name": "Dr. Prem Babu",
    "category": "amenity",
    "subcategory": "clinic",
    "latitude": 25.8266351,
    "longitude": 69.3779508,
    "id": 5406055642
  },
  {
    "name": "Dilip bachani",
    "category": "amenity",
    "subcategory": "clinic",
    "latitude": 25.82736,
    "longitude": 69.3794717,
    "id": 5406055829
  },
  {
    "name": "Dr. Ameen Bhayo",
    "category": "amenity",
    "subcategory": "clinic",
    "latitude": 25.827093,
    "longitude": 69.3726374,
    "id": 5481213457
  },
  {
    "name": "Kingri Hotel",
    "category": "amenity",
    "subcategory": "restaurant",
    "latitude": 25.8180444,
    "longitude": 69.3798342,
    "id": 5481213517
  },
  {
    "name": "Noorani masjid",
    "category": "amenity",
    "subcategory": "place_of_worship",
    "latitude": 25.82809,
    "longitude": 69.3793222,
    "id": 5481213817
  },
  {
    "name": "Basic Health Unit Kalu Rajar",
    "category": "amenity",
    "subcategory": "hospital",
    "latitude": 25.8258428,
    "longitude": 69.3772643,
    "id": 11707974895
  }
]