[
  {
    "name": "رانا ٹاؤن",
    "category": "place",
    "subcategory": "suburb",
    "latitude": 31.636848,
    "longitude": 74.2842026,
    "id": 304964074
  },
  {
    "name": "motorway_junction",
    "category": "highway",
    "subcategory": "motorway_junction",
    "latitude": 31.7020016,
    "longitude": 74.2728158,
    "id": 2416132128
  },
  {
    "name": "motorway_junction",
    "category": "highway",
    "subcategory": "motorway_junction",
    "latitude": 31.6939193,
    "longitude": 74.2743683,
    "id": 2416132179
  },
  {
    "name": "شاہدره باغ",
    "category": "place",
    "subcategory": "town",
    "latitude": 31.6284739,
    "longitude": 74.3050372,
    "id": 2517404564
  },
  {
    "name": "شیل",
    "category": "amenity",
    "subcategory": "fuel",
    "latitude": 31.6183917,
    "longitude": 74.2909146,
    "id": 2955181261
  },
  {
    "name": "Shahdara Lari Ada",
    "category": "amenity",
    "subcategory": "bus_station",
    "latitude": 31.6187738,
    "longitude": 74.289413,
    "id": 2955181283
  },
  {
    "name": "Hascol Fuelling Station",
    "category": "amenity",
    "subcategory": "fuel",
    "latitude": 31.6401366,
    "longitude": 74.2854064,
    "id": 3335848396
  },
  {
    "name": "پاکستان اسٹیٹ آئل",
    "category": "amenity",
    "subcategory": "fuel",
    "latitude": 31.6392551,
    "longitude": 74.2855619,
    "id": 3335850674
  },
  {
    "name": "Shahdara Police Station",
    "category": "amenity",
    "subcategory": "police",
    "latitude": 31.6206635,
    "longitude": 74.2895338,
    "id": 4339381992
  },
  {
    "name": "Bike mechanics",
    "category": "shop",
    "subcategory": "car_repair",
    "latitude": 31.6229686,
    "longitude": 74.2947653,
    "id": 4355184489
  },
  {
    "name": "bicycle",
    "category": "shop",
    "subcategory": "bicycle",
    "latitude": 31.6213435,
    "longitude": 74.2827336,
    "id": 4416272706
  },
  {
    "name": "chili food point",
    "category": "amenity",
    "subcategory": "fast_food",
    "latitude": 31.619892,
    "longitude": 74.2821244,
    "id": 4416291792
  },
  {
    "name": "moon medical store",
    "category": "amenity",
    "subcategory": "clinic",
    "latitude": 31.6220865,
    "longitude": 74.2816312,
    "id": 4416293591
  },
  {
    "name": "Ali Hospital",
    "category": "amenity",
    "subcategory": "hospital",
    "latitude": 31.6243412,
    "longitude": 74.2802945,
    "id": 4421288390
  },
  {
    "name": "Nazd Masjid Khalil",
    "category": "amenity",
    "subcategory": "place_of_worship",
    "latitude": 31.6264434,
    "longitude": 74.2817746,
    "id": 4578075381
  },
  {
    "name": "motorway_junction",
    "category": "highway",
    "subcategory": "motorway_junction",
    "latitude": 31.697198,
    "longitude": 74.2688918,
    "id": 4605006482
  },
  {
    "name": "Fine Tailors",
    "category": "shop",
    "subcategory": "tailor",
    "latitude": 31.6251808,
    "longitude": 74.2884562,
    "id": 4612279735
  },
  {
    "name": "شیل",
    "category": "amenity",
    "subcategory": "fuel",
    "latitude": 31.6900294,
    "longitude": 74.2749093,
    "id": 4907504318
  },
  {
    "name": "CNG Station",
    "category": "amenity",
    "subcategory": "fuel",
    "latitude": 31.6871503,
    "longitude": 74.2755605,
    "id": 4907504319
  },
  {
    "name": "Al-Rehman Hotel",
    "category": "tourism",
    "subcategory": "hotel",
    "latitude": 31.6859271,
    "longitude": 74.275902,
    "id": 4907504320
  },
  {
    "name": "Rana Education Complex",
    "category": "office",
    "subcategory": "educational_institution",
    "latitude": 31.6857682,
    "longitude": 74.2759347,
    "id": 4907505321
  },
  {
    "name": "Green Petrol Pump",
    "category": "amenity",
    "subcategory": "fuel",
    "latitude": 31.6849336,
    "longitude": 74.2769154,
    "id": 4907505322
  },
  {
    "name": "Worker Welfare School (Boys) Rana Town",
    "category": "amenity",
    "subcategory": "school",
    "latitude": 31.680213,
    "longitude": 74.2768261,
    "id": 4907505323
  },
  {
    "name": "Sunview Hotel",
    "category": "tourism",
    "subcategory": "hotel",
    "latitude": 31.6806766,
    "longitude": 74.2774847,
    "id": 4907505324
  },
  {
    "name": "Al-Noor Hotel & Restaurant",
    "category": "amenity",
    "subcategory": "restaurant",
    "latitude": 31.6790782,
    "longitude": 74.2779645,
    "id": 4907505325
  },
  {
    "name": "Jamia Masjid Bilal Ranatown",
    "category": "amenity",
    "subcategory": "place_of_worship",
    "latitude": 31.6776648,
    "longitude": 74.2757361,
    "id": 4907505326
  },
  {
    "name": "Concordia College",
    "category": "amenity",
    "subcategory": "college",
    "latitude": 31.6677358,
    "longitude": 74.2806789,
    "id": 4907505335
  },
  {
    "name": "Sharif Oxygen Pvt",
    "category": "amenity",
    "subcategory": "pharmacy",
    "latitude": 31.6602815,
    "longitude": 74.2819822,
    "id": 4907505336
  },
  {
    "name": "Arzu Hotel & Restaurant",
    "category": "amenity",
    "subcategory": "restaurant",
    "latitude": 31.6599403,
    "longitude": 74.2812993,
    "id": 4907505337
  },
  {
    "name": "Malik CNG & Filling Station",
    "category": "amenity",
    "subcategory": "fuel",
    "latitude": 31.6559849,
    "longitude": 74.2828564,
    "id": 4907505338
  },
  {
    "name": "Servis Shoes",
    "category": "shop",
    "subcategory": "shoes",
    "latitude": 31.6560576,
    "longitude": 74.2820921,
    "id": 4907505339
  },
  {
    "name": "PSO Fuelling Station",
    "category": "amenity",
    "subcategory": "fuel",
    "latitude": 31.6549467,
    "longitude": 74.282271,
    "id": 4907505340
  },
  {
    "name": "Ferozewala Police Station",
    "category": "amenity",
    "subcategory": "police",
    "latitude": 31.6527804,
    "longitude": 74.281527,
    "id": 4907505341
  },
  {
    "name": "Gourmet Bakers & Sweets",
    "category": "shop",
    "subcategory": "bakery",
    "latitude": 31.650871,
    "longitude": 74.283911,
    "id": 4907505342
  },
  {
    "name": "Gulshan Marriage Hall",
    "category": "amenity",
    "subcategory": "townhall",
    "latitude": 31.649597,
    "longitude": 74.2840934,
    "id": 4907505343
  },
  {
    "name": "Jamia Mosque",
    "category": "amenity",
    "subcategory": "place_of_worship",
    "latitude": 31.6473767,
    "longitude": 74.2843713,
    "id": 4907505344
  },
  {
    "name": "Government Boys High School",
    "category": "amenity",
    "subcategory": "school",
    "latitude": 31.6471249,
    "longitude": 74.2838968,
    "id": 4907505345
  },
  {
    "name": "پاکستان اسٹیٹ آئل",
    "category": "amenity",
    "subcategory": "fuel",
    "latitude": 31.6467813,
    "longitude": 74.2844853,
    "id": 4907505346
  },
  {
    "name": "Jamia Mosque Imamia",
    "category": "amenity",
    "subcategory": "place_of_worship",
    "latitude": 31.6473085,
    "longitude": 74.2824765,
    "id": 4907505347
  },
  {
    "name": "post_office",
    "category": "amenity",
    "subcategory": "post_office",
    "latitude": 31.6471432,
    "longitude": 74.2820574,
    "id": 4907505348
  },
  {
    "name": "Hashmat School System",
    "category": "amenity",
    "subcategory": "school",
    "latitude": 31.6465583,
    "longitude": 74.2828184,
    "id": 4907505349
  },
  {
    "name": "Royal Marriage Hall",
    "category": "amenity",
    "subcategory": "townhall",
    "latitude": 31.6453308,
    "longitude": 74.2848519,
    "id": 4907505350
  },
  {
    "name": "الائیڈ بینک لمیٹڈ",
    "category": "amenity",
    "subcategory": "bank",
    "latitude": 31.644801,
    "longitude": 74.2851046,
    "id": 4907505351
  },
  {
    "name": "Amna Memorial Children Hospital",
    "category": "amenity",
    "subcategory": "clinic",
    "latitude": 31.6416078,
    "longitude": 74.2859132,
    "id": 4910219465
  },
  {
    "name": "Jamia Masjid Muhammadia Ghousia",
    "category": "amenity",
    "subcategory": "place_of_worship",
    "latitude": 31.6421082,
    "longitude": 74.2826188,
    "id": 4910219466
  },
  {
    "name": "Italian Pizza",
    "category": "amenity",
    "subcategory": "restaurant",
    "latitude": 31.6322591,
    "longitude": 74.2870667,
    "id": 4910219489
  },
  {
    "name": "ایم سی بی بینک",
    "category": "amenity",
    "subcategory": "bank",
    "latitude": 31.629982,
    "longitude": 74.2875338,
    "id": 4910219490
  },
  {
    "name": "Bajwa Hospital",
    "category": "amenity",
    "subcategory": "hospital",
    "latitude": 31.6303345,
    "longitude": 74.2874878,
    "id": 4910219491
  },
  {
    "name": "Dory Bakery",
    "category": "shop",
    "subcategory": "bakery",
    "latitude": 31.6306178,
    "longitude": 74.2874064,
    "id": 4910219492
  },
  {
    "name": "Hazrat Jameel Shah Bukhari R.A",
    "category": "historic",
    "subcategory": "wayside_shrine",
    "latitude": 31.629319,
    "longitude": 74.2883726,
    "id": 4910219493
  },
  {
    "name": "Iqbal Medical Store",
    "category": "amenity",
    "subcategory": "pharmacy",
    "latitude": 31.6281859,
    "longitude": 74.2879992,
    "id": 4910219494
  },
  {
    "name": "AL-NOOR COLLEGE",
    "category": "amenity",
    "subcategory": "college",
    "latitude": 31.6275697,
    "longitude": 74.2873356,
    "id": 4910219495
  },
  {
    "name": "Sachyari Shopping Center",
    "category": "shop",
    "subcategory": "mall",
    "latitude": 31.6274913,
    "longitude": 74.2874966,
    "id": 4910219496
  },
  {
    "name": "Jamy Masjid Al Minar",
    "category": "amenity",
    "subcategory": "place_of_worship",
    "latitude": 31.6275275,
    "longitude": 74.2886009,
    "id": 4910219497
  },
  {
    "name": "Pakistan Medical Store",
    "category": "amenity",
    "subcategory": "pharmacy",
    "latitude": 31.6270076,
    "longitude": 74.2882257,
    "id": 4910219498
  },
  {
    "name": "CDG Boys High School, Factory Area Shahdara",
    "category": "amenity",
    "subcategory": "school",
    "latitude": 31.626028,
    "longitude": 74.2889795,
    "id": 4910219499
  },
  {
    "name": "K B Shopping Center",
    "category": "shop",
    "subcategory": "mall",
    "latitude": 31.6262208,
    "longitude": 74.2883461,
    "id": 4910219500
  },
  {
    "name": "place_of_worship",
    "category": "amenity",
    "subcategory": "place_of_worship",
    "latitude": 31.6255927,
    "longitude": 74.2884855,
    "id": 4910219501
  },
  {
    "name": "Secretariat Punjab Social Security Hospital",
    "category": "amenity",
    "subcategory": "hospital",
    "latitude": 31.6246632,
    "longitude": 74.2886379,
    "id": 4910219502
  },
  {
    "name": "Service Shoes",
    "category": "shop",
    "subcategory": "shoes",
    "latitude": 31.6241871,
    "longitude": 74.2887689,
    "id": 4910219511
  },
  {
    "name": "Fire Brigade Shahdara",
    "category": "amenity",
    "subcategory": "fire_station",
    "latitude": 31.6240334,
    "longitude": 74.2893351,
    "id": 4910219512
  },
  {
    "name": "Too Hot Too Spicy",
    "category": "amenity",
    "subcategory": "restaurant",
    "latitude": 31.6231745,
    "longitude": 74.2889565,
    "id": 4910219513
  },
  {
    "name": "Jamia Masjid Noori",
    "category": "amenity",
    "subcategory": "place_of_worship",
    "latitude": 31.6229515,
    "longitude": 74.2890202,
    "id": 4910219514
  },
  {
    "name": "پاکستان اسٹیٹ آئل",
    "category": "amenity",
    "subcategory": "fuel",
    "latitude": 31.6228792,
    "longitude": 74.2895758,
    "id": 4910219515
  },
  {
    "name": "Post Office Shahdara Bagh",
    "category": "amenity",
    "subcategory": "post_office",
    "latitude": 31.6220383,
    "longitude": 74.2891971,
    "id": 4910219516
  },
  {
    "name": "Al Baraka Bank",
    "category": "amenity",
    "subcategory": "bank",
    "latitude": 31.6222523,
    "longitude": 74.2891688,
    "id": 4910219517
  },
  {
    "name": "Ferozwala Tehsil Courts",
    "category": "amenity",
    "subcategory": "courthouse",
    "latitude": 31.622189,
    "longitude": 74.2902093,
    "id": 4910219518
  },
  {
    "name": "Gourmet Bakers & Sweets",
    "category": "shop",
    "subcategory": "bakery",
    "latitude": 31.6212216,
    "longitude": 74.2893882,
    "id": 4910219519
  },
  {
    "name": "Jamat-I-Islami",
    "category": "amenity",
    "subcategory": "place_of_worship",
    "latitude": 31.6207816,
    "longitude": 74.2886627,
    "id": 4910219520
  },
  {
    "name": "Stars Group Of Colleges, Shahdara",
    "category": "amenity",
    "subcategory": "college",
    "latitude": 31.6211975,
    "longitude": 74.2888043,
    "id": 4910219621
  },
  {
    "name": "Global Law College",
    "category": "amenity",
    "subcategory": "college",
    "latitude": 31.6211523,
    "longitude": 74.2885601,
    "id": 4910219622
  },
  {
    "name": "Dhaka Bhaya Biryani Point",
    "category": "amenity",
    "subcategory": "restaurant",
    "latitude": 31.6195218,
    "longitude": 74.2897351,
    "id": 4910219623
  },
  {
    "name": "Pharmagen Pharmacy",
    "category": "amenity",
    "subcategory": "pharmacy",
    "latitude": 31.6196786,
    "longitude": 74.2897103,
    "id": 4910219624
  },
  {
    "name": "Govt. Maternity Hospital",
    "category": "amenity",
    "subcategory": "hospital",
    "latitude": 31.6259547,
    "longitude": 74.2962832,
    "id": 4910585745
  },
  {
    "name": "Bilal Marriage Hall",
    "category": "amenity",
    "subcategory": "townhall",
    "latitude": 31.6265294,
    "longitude": 74.2964381,
    "id": 4910585746
  },
  {
    "name": "Sangeet Banquet Hall",
    "category": "amenity",
    "subcategory": "townhall",
    "latitude": 31.6234557,
    "longitude": 74.2950082,
    "id": 4910585747
  },
  {
    "name": "Dory Bakers and Sweets",
    "category": "amenity",
    "subcategory": "cafe",
    "latitude": 31.6233429,
    "longitude": 74.2943826,
    "id": 4910585748
  },
  {
    "name": "گورنمنٹ ہائی اسکول شاہدرہ",
    "category": "amenity",
    "subcategory": "school",
    "latitude": 31.6226065,
    "longitude": 74.2925072,
    "id": 4910585749
  },
  {
    "name": "Khan Marriage Hall",
    "category": "amenity",
    "subcategory": "townhall",
    "latitude": 31.6269795,
    "longitude": 74.2953602,
    "id": 4910585750
  },
  {
    "name": "BBQ Take Away",
    "category": "amenity",
    "subcategory": "restaurant",
    "latitude": 31.6235611,
    "longitude": 74.2956488,
    "id": 4910585751
  },
  {
    "name": "Qazi Park",
    "category": "amenity",
    "subcategory": "place_of_worship",
    "latitude": 31.6251373,
    "longitude": 74.2953827,
    "id": 4910585752
  },
  {
    "name": "New Al-Fazal Dera Restaurent",
    "category": "amenity",
    "subcategory": "restaurant",
    "latitude": 31.6251743,
    "longitude": 74.3011261,
    "id": 4910585753
  },
  {
    "name": "Muslim Ideal School",
    "category": "amenity",
    "subcategory": "school",
    "latitude": 31.6260406,
    "longitude": 74.3047632,
    "id": 4910585754
  },
  {
    "name": "Government College For Women Vadala Dyal Shah",
    "category": "amenity",
    "subcategory": "college",
    "latitude": 31.6317651,
    "longitude": 74.2693108,
    "id": 4910585763
  },
  {
    "name": "شیل",
    "category": "amenity",
    "subcategory": "fuel",
    "latitude": 31.6202651,
    "longitude": 74.2468756,
    "id": 4910585769
  },
  {
    "name": "Waleed CNG Station",
    "category": "amenity",
    "subcategory": "fuel",
    "latitude": 31.6194239,
    "longitude": 74.2466622,
    "id": 4910585770
  },
  {
    "name": "Jamia Masjid Madni",
    "category": "amenity",
    "subcategory": "place_of_worship",
    "latitude": 31.6200739,
    "longitude": 74.2472052,
    "id": 4910585777
  },
  {
    "name": "wayside_shrine",
    "category": "historic",
    "subcategory": "wayside_shrine",
    "latitude": 31.6237061,
    "longitude": 74.2974792,
    "id": 4933931721
  },
  {
    "name": "toilets",
    "category": "amenity",
    "subcategory": "toilets",
    "latitude": 31.6218874,
    "longitude": 74.2995235,
    "id": 4933931722
  },
  {
    "name": "Ticket booth",
    "category": "amenity",
    "subcategory": "vending_machine",
    "latitude": 31.6214747,
    "longitude": 74.2996486,
    "id": 4933931723
  },
  {
    "name": "Entry gate",
    "category": "tourism",
    "subcategory": "attraction",
    "latitude": 31.6226135,
    "longitude": 74.2932509,
    "id": 4933932122
  },
  {
    "name": "Hammad Sheikh Internet Marketing",
    "category": "office",
    "subcategory": "advertising_agency",
    "latitude": 31.6276951,
    "longitude": 74.3002509,
    "id": 5595074060
  },
  {
    "name": "kuku khoya chanay",
    "category": "amenity",
    "subcategory": "restaurant",
    "latitude": 31.6277978,
    "longitude": 74.2953031,
    "id": 5639168421
  },
  {
    "name": "Dr.Yasir",
    "category": "amenity",
    "subcategory": "veterinary",
    "latitude": 31.6280892,
    "longitude": 74.2980629,
    "id": 5639168422
  },
  {
    "name": "Dr kashif",
    "category": "amenity",
    "subcategory": "veterinary",
    "latitude": 31.628722,
    "longitude": 74.2807907,
    "id": 5967861985
  },
  {
    "name": "Raheem medical hal",
    "category": "amenity",
    "subcategory": "doctors",
    "latitude": 31.6196714,
    "longitude": 74.2783261,
    "id": 6190484086
  },
  {
    "name": "Raheem medical store",
    "category": "amenity",
    "subcategory": "doctors",
    "latitude": 31.6196706,
    "longitude": 74.2785056,
    "id": 6282770086
  },
  {
    "name": "bench",
    "category": "amenity",
    "subcategory": "bench",
    "latitude": 31.6969006,
    "longitude": 74.2674097,
    "id": 6338026794
  },
  {
    "name": "Cinnamon Marriage Castle",
    "category": "tourism",
    "subcategory": "hotel",
    "latitude": 31.6667332,
    "longitude": 74.2810834,
    "id": 7244237287
  },
  {
    "name": "parking",
    "category": "amenity",
    "subcategory": "parking",
    "latitude": 31.6213311,
    "longitude": 74.2998121,
    "id": 7482771648
  },
  {
    "name": "کالا شاہ کاکو انٹرچینج",
    "category": "highway",
    "subcategory": "motorway_junction",
    "latitude": 31.6988836,
    "longitude": 74.2733263,
    "id": 7523241830
  },
  {
    "name": "Main Library, UET New Campus",
    "category": "amenity",
    "subcategory": "library",
    "latitude": 31.693913,
    "longitude": 74.2465872,
    "id": 7979807418
  },
  {
    "name": "Department of Computer Science, UET New Campus",
    "category": "amenity",
    "subcategory": "university",
    "latitude": 31.6946178,
    "longitude": 74.2445,
    "id": 7979807419
  },
  {
    "name": "Hostel A, UET New Campus",
    "category": "tourism",
    "subcategory": "hostel",
    "latitude": 31.693853,
    "longitude": 74.2504332,
    "id": 7979890301
  },
  {
    "name": "Hostel B, UET New Campus",
    "category": "tourism",
    "subcategory": "hostel",
    "latitude": 31.6942623,
    "longitude": 74.2512038,
    "id": 7979890302
  },
  {
    "name": "Department of Biomedical Engineering, UET New Campus",
    "category": "amenity",
    "subcategory": "university",
    "latitude": 31.6945881,
    "longitude": 74.2486913,
    "id": 7979890303
  },
  {
    "name": "Administration Office, UET New Campus",
    "category": "amenity",
    "subcategory": "university",
    "latitude": 31.693861,
    "longitude": 74.248299,
    "id": 7979890304
  },
  {
    "name": "Department of Chemical Engineering, UET New Campus",
    "category": "amenity",
    "subcategory": "university",
    "latitude": 31.6948782,
    "longitude": 74.2475565,
    "id": 7979890305
  },
  {
    "name": "Department of Electrical Engineering, UET New Campus",
    "category": "amenity",
    "subcategory": "university",
    "latitude": 31.6949139,
    "longitude": 74.2456745,
    "id": 7979890306
  },
  {
    "name": "Department of Mechanical Engineering, UET New Campus",
    "category": "amenity",
    "subcategory": "university",
    "latitude": 31.6957802,
    "longitude": 74.2455951,
    "id": 7979890307
  },
  {
    "name": "Department of Basic Sciences & Humanities, UET New Campus",
    "category": "amenity",
    "subcategory": "university",
    "latitude": 31.6957603,
    "longitude": 74.2476219,
    "id": 7979890308
  },
  {
    "name": "Day Care Centre, UET New Campus",
    "category": "amenity",
    "subcategory": "childcare",
    "latitude": 31.6932331,
    "longitude": 74.2415369,
    "id": 7979890309
  },
  {
    "name": "UET New Campus Cafe",
    "category": "amenity",
    "subcategory": "cafe",
    "latitude": 31.6945369,
    "longitude": 74.2490857,
    "id": 7981359569
  },
  {
    "name": "Hazrat Hassan Shah shrine",
    "category": "amenity",
    "subcategory": "place_of_worship",
    "latitude": 31.6452374,
    "longitude": 74.3103446,
    "id": 8851301494
  },
  {
    "name": "حاجی کوٹ",
    "category": "place",
    "subcategory": "village",
    "latitude": 31.659331,
    "longitude": 74.307487,
    "id": 8851307886
  },
  {
    "name": "کرول",
    "category": "place",
    "subcategory": "village",
    "latitude": 31.6682442,
    "longitude": 74.3164412,
    "id": 8851307887
  },
  {
    "name": "Darbar Sharif Alhaj Pir Mohammad Ramzan",
    "category": "amenity",
    "subcategory": "place_of_worship",
    "latitude": 31.6576806,
    "longitude": 74.305777,
    "id": 8851307888
  },
  {
    "name": "فیروزوالہ",
    "category": "place",
    "subcategory": "city",
    "latitude": 31.6583094,
    "longitude": 74.2807933,
    "id": 9325952207
  },
  {
    "name": "ٹی ایچ کیو ہسپتال",
    "category": "amenity",
    "subcategory": "hospital",
    "latitude": 31.6579532,
    "longitude": 74.2825636,
    "id": 9325952208
  },
  {
    "name": "رحمان سٹی فیز 6",
    "category": "place",
    "subcategory": "neighbourhood",
    "latitude": 31.6674982,
    "longitude": 74.2824591,
    "id": 9325952209
  },
  {
    "name": "Masjid Saddiquea",
    "category": "amenity",
    "subcategory": "place_of_worship",
    "latitude": 31.6276504,
    "longitude": 74.282486,
    "id": 9369452720
  },
  {
    "name": "motorway_junction",
    "category": "highway",
    "subcategory": "motorway_junction",
    "latitude": 31.699829,
    "longitude": 74.2776593,
    "id": 9613264487
  },
  {
    "name": "Wall of tomb complex (not an entrance)",
    "category": "tourism",
    "subcategory": "attraction",
    "latitude": 31.6226121,
    "longitude": 74.3057308,
    "id": 9738903417
  },
  {
    "name": "bicycle_parking",
    "category": "amenity",
    "subcategory": "bicycle_parking",
    "latitude": 31.6498711,
    "longitude": 74.2833482,
    "id": 11173432537
  },
  {
    "name": "bicycle_parking",
    "category": "amenity",
    "subcategory": "bicycle_parking",
    "latitude": 31.6498915,
    "longitude": 74.2833403,
    "id": 11173433137
  },
  {
    "name": "جیا موسیٰ",
    "category": "place",
    "subcategory": "suburb",
    "latitude": 31.6195886,
    "longitude": 74.2873302,
    "id": 13931173870
  },
  {
    "name": "Sheikhupura Road",
    "category": "highway",
    "subcategory": "trunk",
    "latitude": 31.61682796666667,
    "longitude": 74.25602760555554,
    "id": 22328954
  },
  {
    "name": "Bagh-e-Dilkhusha",
    "category": "leisure",
    "subcategory": "garden",
    "latitude": 31.622839936363633,
    "longitude": 74.30059713636363,
    "id": 26528290
  },
  {
    "name": "Bagh-e-Dilkhusha",
    "category": "tourism",
    "subcategory": "attraction",
    "latitude": 31.621291123076922,
    "longitude": 74.29409252307693,
    "id": 26528361
  },
  {
    "name": "tertiary",
    "category": "highway",
    "subcategory": "tertiary",
    "latitude": 31.62497376956522,
    "longitude": 74.30100627173913,
    "id": 26529175
  },
  {
    "name": "tertiary",
    "category": "highway",
    "subcategory": "tertiary",
    "latitude": 31.62261828,
    "longitude": 74.29488,
    "id": 26529224
  },
  {
    "name": "Band Road Shahdara Town",
    "category": "highway",
    "subcategory": "secondary",
    "latitude": 31.63079530493827,
    "longitude": 74.30715438888889,
    "id": 26529250
  },
  {
    "name": "service",
    "category": "highway",
    "subcategory": "service",
    "latitude": 31.62256095,
    "longitude": 74.30618960000001,
    "id": 26529263
  },
  {
    "name": "Kala Khatai Narang Mandi Road",
    "category": "highway",
    "subcategory": "primary",
    "latitude": 31.67797118,
    "longitude": 74.33187045793105,
    "id": 26529526
  },
  {
    "name": "Sagian Wala Bypass Road",
    "category": "highway",
    "subcategory": "primary",
    "latitude": 31.616118372222225,
    "longitude": 74.24842408333333,
    "id": 27640771
  },
  {
    "name": "Pindi Das Road",
    "category": "highway",
    "subcategory": "tertiary",
    "latitude": 31.62273796428571,
    "longitude": 74.271663025,
    "id": 27666766
  },
  {
    "name": "Jia Musa Road",
    "category": "highway",
    "subcategory": "tertiary",
    "latitude": 31.61989816428571,
    "longitude": 74.28230744285715,
    "id": 118896262
  },
  {
    "name": "گرینڈ ٹرنک روڈ",
    "category": "highway",
    "subcategory": "trunk",
    "latitude": 31.662703875000002,
    "longitude": 74.28093462083334,
    "id": 177851775
  },
  {
    "name": "Lahore Sheikhupura Road",
    "category": "highway",
    "subcategory": "trunk",
    "latitude": 31.62425483076923,
    "longitude": 74.23452437307692,
    "id": 177894937
  },
  {
    "name": "trunk_link",
    "category": "highway",
    "subcategory": "trunk_link",
    "latitude": 31.619348366666667,
    "longitude": 74.24714176666667,
    "id": 177894992
  },
  {
    "name": "trunk_link",
    "category": "highway",
    "subcategory": "trunk_link",
    "latitude": 31.618620311111115,
    "longitude": 74.24838315555556,
    "id": 177894999
  },
  {
    "name": "گرینڈ ٹرنک روڈ",
    "category": "highway",
    "subcategory": "trunk",
    "latitude": 31.698783251111113,
    "longitude": 74.27348498,
    "id": 233262980
  },
  {
    "name": "motorway_link",
    "category": "highway",
    "subcategory": "motorway_link",
    "latitude": 31.696291924,
    "longitude": 74.271947564,
    "id": 233262986
  },
  {
    "name": "motorway_link",
    "category": "highway",
    "subcategory": "motorway_link",
    "latitude": 31.698718988235296,
    "longitude": 74.27085414705883,
    "id": 233262987
  },
  {
    "name": "trunk_link",
    "category": "highway",
    "subcategory": "trunk_link",
    "latitude": 31.68872005,
    "longitude": 74.2755482,
    "id": 233262988
  },
  {
    "name": "trunk_link",
    "category": "highway",
    "subcategory": "trunk_link",
    "latitude": 31.6694083,
    "longitude": 74.2796002,
    "id": 233262989
  },
  {
    "name": "trunk_link",
    "category": "highway",
    "subcategory": "trunk_link",
    "latitude": 31.638888350000002,
    "longitude": 74.28597535,
    "id": 233262994
  },
  {
    "name": "گرینڈ ٹرنک روڈ",
    "category": "highway",
    "subcategory": "trunk",
    "latitude": 31.67668065,
    "longitude": 74.27814910000001,
    "id": 233594056
  },
  {
    "name": "گرینڈ ٹرنک روڈ",
    "category": "highway",
    "subcategory": "trunk",
    "latitude": 31.695712664864864,
    "longitude": 74.27399699189189,
    "id": 233594057
  },
  {
    "name": "گرینڈ ٹرنک روڈ",
    "category": "highway",
    "subcategory": "trunk",
    "latitude": 31.6766601,
    "longitude": 74.27800945,
    "id": 233594058
  },
  {
    "name": "مقبرہ نورجہاں",
    "category": "tourism",
    "subcategory": "attraction",
    "latitude": 31.620872900000002,
    "longitude": 74.29481526,
    "id": 235253176
  },
  {
    "name": "مقبرۂ جہانگیر",
    "category": "tourism",
    "subcategory": "attraction",
    "latitude": 31.622648679999998,
    "longitude": 74.303225,
    "id": 235253177
  },
  {
    "name": "tertiary",
    "category": "highway",
    "subcategory": "tertiary",
    "latitude": 31.63109020740741,
    "longitude": 74.28743364074074,
    "id": 236237300
  },
  {
    "name": "گرینڈ ٹرنک روڈ",
    "category": "highway",
    "subcategory": "trunk",
    "latitude": 31.660538880952384,
    "longitude": 74.28151448571428,
    "id": 292005563
  },
  {
    "name": "wood",
    "category": "natural",
    "subcategory": "wood",
    "latitude": 31.619833686363634,
    "longitude": 74.29230212272728,
    "id": 292007727
  },
  {
    "name": "لنک روڈ",
    "category": "highway",
    "subcategory": "secondary",
    "latitude": 31.625850884615385,
    "longitude": 74.2636884102564,
    "id": 292090043
  },
  {
    "name": "Sagian Wala Bypass Road",
    "category": "highway",
    "subcategory": "primary",
    "latitude": 31.615680104347827,
    "longitude": 74.24842134782608,
    "id": 292899184
  },
  {
    "name": "tertiary",
    "category": "highway",
    "subcategory": "tertiary",
    "latitude": 31.63656428,
    "longitude": 74.28099913333334,
    "id": 294600605
  },
  {
    "name": "tertiary",
    "category": "highway",
    "subcategory": "tertiary",
    "latitude": 31.628594734482757,
    "longitude": 74.27611973793104,
    "id": 294600606
  },
  {
    "name": "tertiary",
    "category": "highway",
    "subcategory": "tertiary",
    "latitude": 31.634760054545453,
    "longitude": 74.27575741818181,
    "id": 294600607
  },
  {
    "name": "tertiary",
    "category": "highway",
    "subcategory": "tertiary",
    "latitude": 31.6493382,
    "longitude": 74.2786780375,
    "id": 294600608
  },
  {
    "name": "tertiary",
    "category": "highway",
    "subcategory": "tertiary",
    "latitude": 31.655648233333334,
    "longitude": 74.28170383333334,
    "id": 294600609
  },
  {
    "name": "trunk",
    "category": "highway",
    "subcategory": "trunk",
    "latitude": 31.691516999999997,
    "longitude": 74.27485329999999,
    "id": 298306045
  },
  {
    "name": "trunk",
    "category": "highway",
    "subcategory": "trunk",
    "latitude": 31.691542375,
    "longitude": 74.274897475,
    "id": 298306046
  },
  {
    "name": "trunk",
    "category": "highway",
    "subcategory": "trunk",
    "latitude": 31.691684275,
    "longitude": 74.27502009999999,
    "id": 298306047
  },
  {
    "name": "trunk",
    "category": "highway",
    "subcategory": "trunk",
    "latitude": 31.691674875,
    "longitude": 74.274966525,
    "id": 298306048
  },
  {
    "name": "Qazi Park Road",
    "category": "highway",
    "subcategory": "tertiary",
    "latitude": 31.62689928125,
    "longitude": 74.2953102625,
    "id": 314794447
  },
  {
    "name": "Baitullah Road",
    "category": "highway",
    "subcategory": "tertiary",
    "latitude": 31.62818099375,
    "longitude": 74.29883295625,
    "id": 314794448
  },
  {
    "name": "Raheem Bakhsh Road",
    "category": "highway",
    "subcategory": "tertiary",
    "latitude": 31.62569305,
    "longitude": 74.29796019999999,
    "id": 314794449
  },
  {
    "name": "Jhalaran Road",
    "category": "highway",
    "subcategory": "tertiary",
    "latitude": 31.627110104545455,
    "longitude": 74.30083389545455,
    "id": 314794450
  },
  {
    "name": "secondary",
    "category": "highway",
    "subcategory": "secondary",
    "latitude": 31.689078606153846,
    "longitude": 74.28955225384615,
    "id": 319503085
  },
  {
    "name": "tertiary",
    "category": "highway",
    "subcategory": "tertiary",
    "latitude": 31.686493066666667,
    "longitude": 74.2763305,
    "id": 319503362
  },
  {
    "name": "tertiary",
    "category": "highway",
    "subcategory": "tertiary",
    "latitude": 31.686736575,
    "longitude": 74.277793375,
    "id": 319503363
  },
  {
    "name": "tertiary",
    "category": "highway",
    "subcategory": "tertiary",
    "latitude": 31.68714346666667,
    "longitude": 74.27831133333332,
    "id": 319503364
  },
  {
    "name": "tertiary",
    "category": "highway",
    "subcategory": "tertiary",
    "latitude": 31.6869265,
    "longitude": 74.27896116666666,
    "id": 319503365
  },
  {
    "name": "tertiary",
    "category": "highway",
    "subcategory": "tertiary",
    "latitude": 31.68653455,
    "longitude": 74.2784439,
    "id": 319503366
  },
  {
    "name": "tertiary",
    "category": "highway",
    "subcategory": "tertiary",
    "latitude": 31.686994499999997,
    "longitude": 74.27945605,
    "id": 319503367
  },
  {
    "name": "residential",
    "category": "highway",
    "subcategory": "residential",
    "latitude": 31.69312512857143,
    "longitude": 74.27708967142857,
    "id": 319503368
  },
  {
    "name": "residential",
    "category": "highway",
    "subcategory": "residential",
    "latitude": 31.69220862857143,
    "longitude": 74.27727854285715,
    "id": 319503369
  },
  {
    "name": "residential",
    "category": "highway",
    "subcategory": "residential",
    "latitude": 31.69290834444444,
    "longitude": 74.27876905555556,
    "id": 319503370
  },
  {
    "name": "residential",
    "category": "highway",
    "subcategory": "residential",
    "latitude": 31.691554200000002,
    "longitude": 74.27742447142857,
    "id": 319503371
  },
  {
    "name": "residential",
    "category": "highway",
    "subcategory": "residential",
    "latitude": 31.692058428571432,
    "longitude": 74.27564930000001,
    "id": 319503372
  },
  {
    "name": "residential",
    "category": "highway",
    "subcategory": "residential",
    "latitude": 31.693492633333335,
    "longitude": 74.27723888333334,
    "id": 319503373
  },
  {
    "name": "residential",
    "category": "highway",
    "subcategory": "residential",
    "latitude": 31.694125033333336,
    "longitude": 74.27711573333333,
    "id": 319503374
  },
  {
    "name": "residential",
    "category": "highway",
    "subcategory": "residential",
    "latitude": 31.69386538,
    "longitude": 74.27754364,
    "id": 319503375
  },
  {
    "name": "residential",
    "category": "highway",
    "subcategory": "residential",
    "latitude": 31.69361305,
    "longitude": 74.277007425,
    "id": 319503376
  },
  {
    "name": "residential",
    "category": "highway",
    "subcategory": "residential",
    "latitude": 31.6937523,
    "longitude": 74.27787330000001,
    "id": 319503377
  },
  {
    "name": "residential",
    "category": "highway",
    "subcategory": "residential",
    "latitude": 31.692765079999997,
    "longitude": 74.27782174000001,
    "id": 319503378
  },
  {
    "name": "residential",
    "category": "highway",
    "subcategory": "residential",
    "latitude": 31.69187802222222,
    "longitude": 74.27735795555556,
    "id": 319503379
  },
  {
    "name": "residential",
    "category": "highway",
    "subcategory": "residential",
    "latitude": 31.692280975,
    "longitude": 74.275983875,
    "id": 319503380
  },
  {
    "name": "residential",
    "category": "highway",
    "subcategory": "residential",
    "latitude": 31.692502900000004,
    "longitude": 74.2760121,
    "id": 319503381
  },
  {
    "name": "residential",
    "category": "highway",
    "subcategory": "residential",
    "latitude": 31.69257376,
    "longitude": 74.27655664,
    "id": 319503382
  },
  {
    "name": "residential",
    "category": "highway",
    "subcategory": "residential",
    "latitude": 31.692832233333334,
    "longitude": 74.27834203333333,
    "id": 319503383
  },
  {
    "name": "tertiary",
    "category": "highway",
    "subcategory": "tertiary",
    "latitude": 31.691385450000002,
    "longitude": 74.27746708333333,
    "id": 319503384
  },
  {
    "name": "residential",
    "category": "highway",
    "subcategory": "residential",
    "latitude": 31.691085211111115,
    "longitude": 74.27645741111111,
    "id": 319503385
  },
  {
    "name": "residential",
    "category": "highway",
    "subcategory": "residential",
    "latitude": 31.6915872,
    "longitude": 74.27657245,
    "id": 319503386
  },
  {
    "name": "residential",
    "category": "highway",
    "subcategory": "residential",
    "latitude": 31.69184915,
    "longitude": 74.27823565,
    "id": 319503387
  },
  {
    "name": "tertiary",
    "category": "highway",
    "subcategory": "tertiary",
    "latitude": 31.6905264,
    "longitude": 74.2774279,
    "id": 319503422
  },
  {
    "name": "tertiary",
    "category": "highway",
    "subcategory": "tertiary",
    "latitude": 31.6882279,
    "longitude": 74.278094125,
    "id": 319503423
  },
  {
    "name": "residential",
    "category": "highway",
    "subcategory": "residential",
    "latitude": 31.6910015,
    "longitude": 74.27837910000001,
    "id": 319503424
  },
  {
    "name": "tertiary",
    "category": "highway",
    "subcategory": "tertiary",
    "latitude": 31.653280825,
    "longitude": 74.281825,
    "id": 319503663
  },
  {
    "name": "tertiary",
    "category": "highway",
    "subcategory": "tertiary",
    "latitude": 31.65328841,
    "longitude": 74.28039846499999,
    "id": 319503664
  },
  {
    "name": "tertiary",
    "category": "highway",
    "subcategory": "tertiary",
    "latitude": 31.653286815,
    "longitude": 74.27898644000001,
    "id": 319503665
  },
  {
    "name": "tertiary",
    "category": "highway",
    "subcategory": "tertiary",
    "latitude": 31.653297880000004,
    "longitude": 74.27968232,
    "id": 319503666
  },
  {
    "name": "tertiary",
    "category": "highway",
    "subcategory": "tertiary",
    "latitude": 31.656113938888886,
    "longitude": 74.26378535833334,
    "id": 319503667
  },
  {
    "name": "unclassified",
    "category": "highway",
    "subcategory": "unclassified",
    "latitude": 31.656357850000003,
    "longitude": 74.25324766666667,
    "id": 319503668
  },
  {
    "name": "tertiary",
    "category": "highway",
    "subcategory": "tertiary",
    "latitude": 31.62009428,
    "longitude": 74.29014389,
    "id": 323517787
  },
  {
    "name": "tertiary",
    "category": "highway",
    "subcategory": "tertiary",
    "latitude": 31.627558099999998,
    "longitude": 74.28223503000001,
    "id": 323517788
  },
  {
    "name": "Atta Cables (Pvt) Limited",
    "category": "landuse",
    "subcategory": "industrial",
    "latitude": 31.64119802,
    "longitude": 74.28446634,
    "id": 326885687
  },
  {
    "name": "Play Ground",
    "category": "leisure",
    "subcategory": "stadium",
    "latitude": 31.6364086,
    "longitude": 74.28513204,
    "id": 326889000
  },
  {
    "name": "park",
    "category": "leisure",
    "subcategory": "park",
    "latitude": 31.623328095238094,
    "longitude": 74.30792803333333,
    "id": 326890072
  },
  {
    "name": "L.D.A Cricket Ground, Shahdara Town",
    "category": "leisure",
    "subcategory": "playground",
    "latitude": 31.622516559999998,
    "longitude": 74.31055806,
    "id": 326890509
  },
  {
    "name": "service",
    "category": "highway",
    "subcategory": "service",
    "latitude": 31.623745233333334,
    "longitude": 74.3099306,
    "id": 326890689
  },
  {
    "name": "Christian Graveyard",
    "category": "landuse",
    "subcategory": "cemetery",
    "latitude": 31.625075799999998,
    "longitude": 74.30030180000001,
    "id": 326891951
  },
  {
    "name": "Muslim Graveyard Pindi Qabristan",
    "category": "landuse",
    "subcategory": "cemetery",
    "latitude": 31.624303627272727,
    "longitude": 74.30010972727273,
    "id": 326892143
  },
  {
    "name": "Shahdara Town Bus Stop",
    "category": "amenity",
    "subcategory": "bus_station",
    "latitude": 31.626007,
    "longitude": 74.30554894444444,
    "id": 326892776
  },
  {
    "name": "tertiary",
    "category": "highway",
    "subcategory": "tertiary",
    "latitude": 31.625396009523808,
    "longitude": 74.3062722904762,
    "id": 326893228
  },
  {
    "name": "tertiary",
    "category": "highway",
    "subcategory": "tertiary",
    "latitude": 31.627679462499998,
    "longitude": 74.3093551,
    "id": 326893559
  },
  {
    "name": "residential",
    "category": "highway",
    "subcategory": "residential",
    "latitude": 31.634790895454547,
    "longitude": 74.28845204090909,
    "id": 353078824
  },
  {
    "name": "tertiary",
    "category": "highway",
    "subcategory": "tertiary",
    "latitude": 31.632743845,
    "longitude": 74.28464189,
    "id": 353078825
  },
  {
    "name": "tertiary",
    "category": "highway",
    "subcategory": "tertiary",
    "latitude": 31.6419606,
    "longitude": 74.28992979230769,
    "id": 353078826
  },
  {
    "name": "tertiary",
    "category": "highway",
    "subcategory": "tertiary",
    "latitude": 31.632300125641024,
    "longitude": 74.30976843076922,
    "id": 353078827
  },
  {
    "name": "tertiary",
    "category": "highway",
    "subcategory": "tertiary",
    "latitude": 31.630967963636365,
    "longitude": 74.30770622727273,
    "id": 353078828
  },
  {
    "name": "tertiary",
    "category": "highway",
    "subcategory": "tertiary",
    "latitude": 31.63611438166667,
    "longitude": 74.30024469166666,
    "id": 353078829
  },
  {
    "name": "residential",
    "category": "highway",
    "subcategory": "residential",
    "latitude": 31.641694183333332,
    "longitude": 74.29609070555556,
    "id": 353078941
  },
  {
    "name": "residential",
    "category": "highway",
    "subcategory": "residential",
    "latitude": 31.641693909090908,
    "longitude": 74.29006719090908,
    "id": 353078942
  },
  {
    "name": "tertiary",
    "category": "highway",
    "subcategory": "tertiary",
    "latitude": 31.64601207777778,
    "longitude": 74.2990574,
    "id": 353078943
  },
  {
    "name": "Jahangir Tomb Road",
    "category": "highway",
    "subcategory": "tertiary",
    "latitude": 31.619856064285717,
    "longitude": 74.29910977142858,
    "id": 407966706
  },
  {
    "name": "Shahdara Underpass",
    "category": "highway",
    "subcategory": "tertiary",
    "latitude": 31.622423545833332,
    "longitude": 74.29444965416667,
    "id": 407966708
  },
  {
    "name": "tertiary",
    "category": "highway",
    "subcategory": "tertiary",
    "latitude": 31.630853294999998,
    "longitude": 74.282397585,
    "id": 417955936
  },
  {
    "name": "residential",
    "category": "highway",
    "subcategory": "residential",
    "latitude": 31.62930976,
    "longitude": 74.26841548,
    "id": 417955944
  },
  {
    "name": "residential",
    "category": "highway",
    "subcategory": "residential",
    "latitude": 31.63031906666667,
    "longitude": 74.28295846666667,
    "id": 417955946
  },
  {
    "name": "residential",
    "category": "highway",
    "subcategory": "residential",
    "latitude": 31.629798785714286,
    "longitude": 74.28332975,
    "id": 417955953
  },
  {
    "name": "residential",
    "category": "highway",
    "subcategory": "residential",
    "latitude": 31.62763082,
    "longitude": 74.27145478,
    "id": 417955961
  },
  {
    "name": "residential",
    "category": "highway",
    "subcategory": "residential",
    "latitude": 31.62860796,
    "longitude": 74.2730397,
    "id": 417955963
  },
  {
    "name": "residential",
    "category": "highway",
    "subcategory": "residential",
    "latitude": 31.627035066666668,
    "longitude": 74.27005616666666,
    "id": 417955968
  },
  {
    "name": "residential",
    "category": "highway",
    "subcategory": "residential",
    "latitude": 31.62740073181818,
    "longitude": 74.26812092727272,
    "id": 417955969
  },
  {
    "name": "residential",
    "category": "highway",
    "subcategory": "residential",
    "latitude": 31.623990825,
    "longitude": 74.286818275,
    "id": 417955970
  },
  {
    "name": "residential",
    "category": "highway",
    "subcategory": "residential",
    "latitude": 31.626085191666665,
    "longitude": 74.27007469166666,
    "id": 417955971
  },
  {
    "name": "residential",
    "category": "highway",
    "subcategory": "residential",
    "latitude": 31.633415442857142,
    "longitude": 74.27467955714285,
    "id": 417955972
  },
  {
    "name": "residential",
    "category": "highway",
    "subcategory": "residential",
    "latitude": 31.625725385714283,
    "longitude": 74.26953065714285,
    "id": 417955976
  },
  {
    "name": "residential",
    "category": "highway",
    "subcategory": "residential",
    "latitude": 31.628631699999996,
    "longitude": 74.26913752307692,
    "id": 417955982
  },
  {
    "name": "residential",
    "category": "highway",
    "subcategory": "residential",
    "latitude": 31.625613655555558,
    "longitude": 74.26994934444446,
    "id": 417955986
  },
  {
    "name": "residential",
    "category": "highway",
    "subcategory": "residential",
    "latitude": 31.63064404,
    "longitude": 74.27357070666667,
    "id": 417955991
  },
  {
    "name": "residential",
    "category": "highway",
    "subcategory": "residential",
    "latitude": 31.651920949999997,
    "longitude": 74.278478345,
    "id": 417957048
  },
  {
    "name": "tertiary",
    "category": "highway",
    "subcategory": "tertiary",
    "latitude": 31.648565210526314,
    "longitude": 74.27397160526316,
    "id": 417957049
  },
  {
    "name": "residential",
    "category": "highway",
    "subcategory": "residential",
    "latitude": 31.6495805,
    "longitude": 74.27960515000001,
    "id": 417957050
  },
  {
    "name": "residential",
    "category": "highway",
    "subcategory": "residential",
    "latitude": 31.6487094,
    "longitude": 74.2749125,
    "id": 417957051
  },
  {
    "name": "residential",
    "category": "highway",
    "subcategory": "residential",
    "latitude": 31.64746918,
    "longitude": 74.27832258,
    "id": 417957052
  },
  {
    "name": "residential",
    "category": "highway",
    "subcategory": "residential",
    "latitude": 31.6476083,
    "longitude": 74.27958853333332,
    "id": 417957053
  },
  {
    "name": "residential",
    "category": "highway",
    "subcategory": "residential",
    "latitude": 31.64886795,
    "longitude": 74.2745793,
    "id": 417957054
  },
  {
    "name": "residential",
    "category": "highway",
    "subcategory": "residential",
    "latitude": 31.6512512,
    "longitude": 74.27375500000001,
    "id": 417957055
  },
  {
    "name": "residential",
    "category": "highway",
    "subcategory": "residential",
    "latitude": 31.65022325,
    "longitude": 74.27834655,
    "id": 417957056
  },
  {
    "name": "residential",
    "category": "highway",
    "subcategory": "residential",
    "latitude": 31.64950605,
    "longitude": 74.2733359,
    "id": 417957057
  },
  {
    "name": "tertiary",
    "category": "highway",
    "subcategory": "tertiary",
    "latitude": 31.64327030526316,
    "longitude": 74.28146384210527,
    "id": 417957058
  },
  {
    "name": "tertiary",
    "category": "highway",
    "subcategory": "tertiary",
    "latitude": 31.650781042857144,
    "longitude": 74.27084194285715,
    "id": 417957059
  },
  {
    "name": "residential",
    "category": "highway",
    "subcategory": "residential",
    "latitude": 31.649940330188677,
    "longitude": 74.27912839622641,
    "id": 417957060
  },
  {
    "name": "residential",
    "category": "highway",
    "subcategory": "residential",
    "latitude": 31.64626583157895,
    "longitude": 74.27414629473685,
    "id": 417957061
  },
  {
    "name": "residential",
    "category": "highway",
    "subcategory": "residential",
    "latitude": 31.648488866666668,
    "longitude": 74.27875691666667,
    "id": 417957062
  },
  {
    "name": "residential",
    "category": "highway",
    "subcategory": "residential",
    "latitude": 31.64802265,
    "longitude": 74.27914861666666,
    "id": 417957063
  },
  {
    "name": "residential",
    "category": "highway",
    "subcategory": "residential",
    "latitude": 31.64711698,
    "longitude": 74.28004456,
    "id": 417957064
  },
  {
    "name": "tertiary",
    "category": "highway",
    "subcategory": "tertiary",
    "latitude": 31.648890466666668,
    "longitude": 74.27744063333334,
    "id": 417957065
  },
  {
    "name": "residential",
    "category": "highway",
    "subcategory": "residential",
    "latitude": 31.650965014285713,
    "longitude": 74.26285899642858,
    "id": 417958603
  },
  {
    "name": "tertiary",
    "category": "highway",
    "subcategory": "tertiary",
    "latitude": 31.65295678235294,
    "longitude": 74.26288521960785,
    "id": 417958605
  },
  {
    "name": "tertiary",
    "category": "highway",
    "subcategory": "tertiary",
    "latitude": 31.6476413,
    "longitude": 74.28671532307692,
    "id": 417958607
  },
  {
    "name": "tertiary",
    "category": "highway",
    "subcategory": "tertiary",
    "latitude": 31.650015358823527,
    "longitude": 74.27700479411764,
    "id": 417958609
  },
  {
    "name": "tertiary",
    "category": "highway",
    "subcategory": "tertiary",
    "latitude": 31.648760088235296,
    "longitude": 74.28005462352941,
    "id": 417958611
  },
  {
    "name": "residential",
    "category": "highway",
    "subcategory": "residential",
    "latitude": 31.648216629411763,
    "longitude": 74.26953121764706,
    "id": 417958613
  },
  {
    "name": "tertiary",
    "category": "highway",
    "subcategory": "tertiary",
    "latitude": 31.651998780952383,
    "longitude": 74.27082434761904,
    "id": 417958615
  },
  {
    "name": "residential",
    "category": "highway",
    "subcategory": "residential",
    "latitude": 31.65288045,
    "longitude": 74.27635205,
    "id": 417958617
  },
  {
    "name": "residential",
    "category": "highway",
    "subcategory": "residential",
    "latitude": 31.6524897,
    "longitude": 74.27897355,
    "id": 417958618
  },
  {
    "name": "residential",
    "category": "highway",
    "subcategory": "residential",
    "latitude": 31.652691400000002,
    "longitude": 74.27756675,
    "id": 417958620
  },
  {
    "name": "residential",
    "category": "highway",
    "subcategory": "residential",
    "latitude": 31.652826750000003,
    "longitude": 74.27672344999999,
    "id": 417958621
  },
  {
    "name": "residential",
    "category": "highway",
    "subcategory": "residential",
    "latitude": 31.652315950000002,
    "longitude": 74.2807452,
    "id": 417958622
  },
  {
    "name": "residential",
    "category": "highway",
    "subcategory": "residential",
    "latitude": 31.652451550000002,
    "longitude": 74.27967845,
    "id": 417958623
  },
  {
    "name": "residential",
    "category": "highway",
    "subcategory": "residential",
    "latitude": 31.652409300000002,
    "longitude": 74.2800596,
    "id": 417958625
  },
  {
    "name": "residential",
    "category": "highway",
    "subcategory": "residential",
    "latitude": 31.65249975,
    "longitude": 74.2793163,
    "id": 417958626
  },
  {
    "name": "residential",
    "category": "highway",
    "subcategory": "residential",
    "latitude": 31.65230725,
    "longitude": 74.28040279999999,
    "id": 417958628
  },
  {
    "name": "residential",
    "category": "highway",
    "subcategory": "residential",
    "latitude": 31.652578650000002,
    "longitude": 74.27861375,
    "id": 417958629
  },
  {
    "name": "residential",
    "category": "highway",
    "subcategory": "residential",
    "latitude": 31.649599000000002,
    "longitude": 74.28232285,
    "id": 417958631
  },
  {
    "name": "residential",
    "category": "highway",
    "subcategory": "residential",
    "latitude": 31.650020216666665,
    "longitude": 74.26953734166666,
    "id": 417958632
  },
  {
    "name": "residential",
    "category": "highway",
    "subcategory": "residential",
    "latitude": 31.6527541,
    "longitude": 74.27705393333333,
    "id": 417958633
  },
  {
    "name": "residential",
    "category": "highway",
    "subcategory": "residential",
    "latitude": 31.650298633333335,
    "longitude": 74.28155983333333,
    "id": 417958635
  },
  {
    "name": "residential",
    "category": "highway",
    "subcategory": "residential",
    "latitude": 31.652662466666666,
    "longitude": 74.27807973333334,
    "id": 417958637
  },
  {
    "name": "residential",
    "category": "highway",
    "subcategory": "residential",
    "latitude": 31.65096206,
    "longitude": 74.28077454,
    "id": 417958638
  },
  {
    "name": "tertiary",
    "category": "highway",
    "subcategory": "tertiary",
    "latitude": 31.654860166666666,
    "longitude": 74.28048263333334,
    "id": 417958640
  },
  {
    "name": "residential",
    "category": "highway",
    "subcategory": "residential",
    "latitude": 31.6522278,
    "longitude": 74.28146485,
    "id": 417958642
  },
  {
    "name": "tertiary",
    "category": "highway",
    "subcategory": "tertiary",
    "latitude": 31.64804372727273,
    "longitude": 74.28183715454544,
    "id": 417958643
  },
  {
    "name": "tertiary",
    "category": "highway",
    "subcategory": "tertiary",
    "latitude": 31.651066229411768,
    "longitude": 74.27417291764705,
    "id": 417958644
  },
  {
    "name": "residential",
    "category": "highway",
    "subcategory": "residential",
    "latitude": 31.6515824,
    "longitude": 74.2749328,
    "id": 417961887
  },
  {
    "name": "residential",
    "category": "highway",
    "subcategory": "residential",
    "latitude": 31.6428123,
    "longitude": 74.28222855,
    "id": 417961889
  },
  {
    "name": "residential",
    "category": "highway",
    "subcategory": "residential",
    "latitude": 31.64378245,
    "longitude": 74.2801252,
    "id": 417961890
  },
  {
    "name": "residential",
    "category": "highway",
    "subcategory": "residential",
    "latitude": 31.64377805,
    "longitude": 74.27976530000001,
    "id": 417961892
  },
  {
    "name": "residential",
    "category": "highway",
    "subcategory": "residential",
    "latitude": 31.65024545,
    "longitude": 74.2745553,
    "id": 417961893
  },
  {
    "name": "residential",
    "category": "highway",
    "subcategory": "residential",
    "latitude": 31.650908649999998,
    "longitude": 74.27701155,
    "id": 417961894
  },
  {
    "name": "residential",
    "category": "highway",
    "subcategory": "residential",
    "latitude": 31.6494232,
    "longitude": 74.28005329999999,
    "id": 417961897
  },
  {
    "name": "residential",
    "category": "highway",
    "subcategory": "residential",
    "latitude": 31.65266545,
    "longitude": 74.2708557,
    "id": 417961898
  },
  {
    "name": "residential",
    "category": "highway",
    "subcategory": "residential",
    "latitude": 31.643786300000002,
    "longitude": 74.2804553,
    "id": 417961900
  },
  {
    "name": "residential",
    "category": "highway",
    "subcategory": "residential",
    "latitude": 31.648607166666665,
    "longitude": 74.28049349999999,
    "id": 417961901
  },
  {
    "name": "residential",
    "category": "highway",
    "subcategory": "residential",
    "latitude": 31.64903665,
    "longitude": 74.27700325,
    "id": 417961903
  },
  {
    "name": "residential",
    "category": "highway",
    "subcategory": "residential",
    "latitude": 31.644759233333332,
    "longitude": 74.27997369999999,
    "id": 417961904
  },
  {
    "name": "residential",
    "category": "highway",
    "subcategory": "residential",
    "latitude": 31.6518842,
    "longitude": 74.27455583333334,
    "id": 417961906
  },
  {
    "name": "residential",
    "category": "highway",
    "subcategory": "residential",
    "latitude": 31.64550525,
    "longitude": 74.28241994999999,
    "id": 417961907
  },
  {
    "name": "residential",
    "category": "highway",
    "subcategory": "residential",
    "latitude": 31.650084049999997,
    "longitude": 74.27492605,
    "id": 417961909
  },
  {
    "name": "residential",
    "category": "highway",
    "subcategory": "residential",
    "latitude": 31.65269305,
    "longitude": 74.2705275,
    "id": 417961910
  },
  {
    "name": "residential",
    "category": "highway",
    "subcategory": "residential",
    "latitude": 31.652000366666666,
    "longitude": 74.2716288,
    "id": 417961911
  },
  {
    "name": "residential",
    "category": "highway",
    "subcategory": "residential",
    "latitude": 31.64901014,
    "longitude": 74.27615982,
    "id": 417961913
  },
  {
    "name": "residential",
    "category": "highway",
    "subcategory": "residential",
    "latitude": 31.6523331,
    "longitude": 74.27242857142858,
    "id": 417961915
  },
  {
    "name": "residential",
    "category": "highway",
    "subcategory": "residential",
    "latitude": 31.651234533333334,
    "longitude": 74.28217626666667,
    "id": 417961916
  },
  {
    "name": "residential",
    "category": "highway",
    "subcategory": "residential",
    "latitude": 31.64978045,
    "longitude": 74.275727225,
    "id": 417961918
  },
  {
    "name": "residential",
    "category": "highway",
    "subcategory": "residential",
    "latitude": 31.644860799999996,
    "longitude": 74.27928408,
    "id": 417961919
  },
  {
    "name": "residential",
    "category": "highway",
    "subcategory": "residential",
    "latitude": 31.6499627,
    "longitude": 74.2753034,
    "id": 417961920
  },
  {
    "name": "residential",
    "category": "highway",
    "subcategory": "residential",
    "latitude": 31.651556799999998,
    "longitude": 74.27288886666666,
    "id": 417961922
  },
  {
    "name": "residential",
    "category": "highway",
    "subcategory": "residential",
    "latitude": 31.651402466666667,
    "longitude": 74.2733028,
    "id": 417961923
  },
  {
    "name": "residential",
    "category": "highway",
    "subcategory": "residential",
    "latitude": 31.651708966666664,
    "longitude": 74.27246033333334,
    "id": 417961925
  },
  {
    "name": "residential",
    "category": "highway",
    "subcategory": "residential",
    "latitude": 31.64627945,
    "longitude": 74.2804704,
    "id": 417961928
  },
  {
    "name": "residential",
    "category": "highway",
    "subcategory": "residential",
    "latitude": 31.6494282,
    "longitude": 74.27657466000001,
    "id": 417961929
  },
  {
    "name": "residential",
    "category": "highway",
    "subcategory": "residential",
    "latitude": 31.64621778333333,
    "longitude": 74.28133003333333,
    "id": 417961931
  },
  {
    "name": "residential",
    "category": "highway",
    "subcategory": "residential",
    "latitude": 31.647601157142855,
    "longitude": 74.28111022857142,
    "id": 417961932
  },
  {
    "name": "residential",
    "category": "highway",
    "subcategory": "residential",
    "latitude": 31.644389999999998,
    "longitude": 74.28188852000001,
    "id": 417961934
  },
  {
    "name": "residential",
    "category": "highway",
    "subcategory": "residential",
    "latitude": 31.647070414285714,
    "longitude": 74.28091691428571,
    "id": 417961935
  },
  {
    "name": "residential",
    "category": "highway",
    "subcategory": "residential",
    "latitude": 31.64517551666667,
    "longitude": 74.28112091666667,
    "id": 417961937
  },
  {
    "name": "residential",
    "category": "highway",
    "subcategory": "residential",
    "latitude": 31.643490557142858,
    "longitude": 74.27962017142856,
    "id": 417961939
  },
  {
    "name": "residential",
    "category": "highway",
    "subcategory": "residential",
    "latitude": 31.643856725,
    "longitude": 74.280255525,
    "id": 417961941
  },
  {
    "name": "residential",
    "category": "highway",
    "subcategory": "residential",
    "latitude": 31.637045131249998,
    "longitude": 74.28227630625,
    "id": 417963893
  },
  {
    "name": "residential",
    "category": "highway",
    "subcategory": "residential",
    "latitude": 31.637254499999997,
    "longitude": 74.27637005,
    "id": 417963897
  },
  {
    "name": "residential",
    "category": "highway",
    "subcategory": "residential",
    "latitude": 31.63714525,
    "longitude": 74.275864,
    "id": 417963900
  },
  {
    "name": "residential",
    "category": "highway",
    "subcategory": "residential",
    "latitude": 31.635854366666667,
    "longitude": 74.2810394,
    "id": 417963903
  },
  {
    "name": "residential",
    "category": "highway",
    "subcategory": "residential",
    "latitude": 31.633876400000002,
    "longitude": 74.28062753333334,
    "id": 417963904
  },
  {
    "name": "residential",
    "category": "highway",
    "subcategory": "residential",
    "latitude": 31.64407783333333,
    "longitude": 74.27821276666667,
    "id": 417963907
  },
  {
    "name": "residential",
    "category": "highway",
    "subcategory": "residential",
    "latitude": 31.633778460000002,
    "longitude": 74.28055612,
    "id": 417963910
  },
  {
    "name": "residential",
    "category": "highway",
    "subcategory": "residential",
    "latitude": 31.646090475,
    "longitude": 74.27739757500001,
    "id": 417963913
  },
  {
    "name": "residential",
    "category": "highway",
    "subcategory": "residential",
    "latitude": 31.6450038,
    "longitude": 74.2787507,
    "id": 417963916
  },
  {
    "name": "track",
    "category": "highway",
    "subcategory": "track",
    "latitude": 31.636556466666665,
    "longitude": 74.28368533333334,
    "id": 417963919
  },
  {
    "name": "residential",
    "category": "highway",
    "subcategory": "residential",
    "latitude": 31.624476366666666,
    "longitude": 74.2851739,
    "id": 417977960
  },
  {
    "name": "residential",
    "category": "highway",
    "subcategory": "residential",
    "latitude": 31.635747175000002,
    "longitude": 74.26492931428572,
    "id": 417977961
  },
  {
    "name": "residential",
    "category": "highway",
    "subcategory": "residential",
    "latitude": 31.63611165,
    "longitude": 74.27629295,
    "id": 417977962
  },
  {
    "name": "residential",
    "category": "highway",
    "subcategory": "residential",
    "latitude": 31.63356185,
    "longitude": 74.27258415,
    "id": 417977963
  },
  {
    "name": "residential",
    "category": "highway",
    "subcategory": "residential",
    "latitude": 31.635182649999997,
    "longitude": 74.27633399999999,
    "id": 417977964
  },
  {
    "name": "residential",
    "category": "highway",
    "subcategory": "residential",
    "latitude": 31.6335334,
    "longitude": 74.27359135,
    "id": 417977965
  },
  {
    "name": "residential",
    "category": "highway",
    "subcategory": "residential",
    "latitude": 31.628583725,
    "longitude": 74.27919495,
    "id": 417977966
  },
  {
    "name": "residential",
    "category": "highway",
    "subcategory": "residential",
    "latitude": 31.633489766666667,
    "longitude": 74.2645542,
    "id": 417977967
  },
  {
    "name": "residential",
    "category": "highway",
    "subcategory": "residential",
    "latitude": 31.62671095,
    "longitude": 74.28468375,
    "id": 417977968
  },
  {
    "name": "residential",
    "category": "highway",
    "subcategory": "residential",
    "latitude": 31.63399055,
    "longitude": 74.2652871,
    "id": 417977969
  },
  {
    "name": "residential",
    "category": "highway",
    "subcategory": "residential",
    "latitude": 31.633425199999998,
    "longitude": 74.27643485,
    "id": 417977970
  },
  {
    "name": "residential",
    "category": "highway",
    "subcategory": "residential",
    "latitude": 31.63800375,
    "longitude": 74.2767343,
    "id": 417977971
  },
  {
    "name": "residential",
    "category": "highway",
    "subcategory": "residential",
    "latitude": 31.63584855,
    "longitude": 74.27630454999999,
    "id": 417977972
  },
  {
    "name": "Kot Abdul Qadir",
    "category": "highway",
    "subcategory": "residential",
    "latitude": 31.62701725,
    "longitude": 74.2806215,
    "id": 417977973
  },
  {
    "name": "residential",
    "category": "highway",
    "subcategory": "residential",
    "latitude": 31.6363478,
    "longitude": 74.265786225,
    "id": 417977974
  },
  {
    "name": "residential",
    "category": "highway",
    "subcategory": "residential",
    "latitude": 31.632622066666666,
    "longitude": 74.27457779999999,
    "id": 417977975
  },
  {
    "name": "residential",
    "category": "highway",
    "subcategory": "residential",
    "latitude": 31.634623333333334,
    "longitude": 74.2810898,
    "id": 417977976
  },
  {
    "name": "residential",
    "category": "highway",
    "subcategory": "residential",
    "latitude": 31.6334513,
    "longitude": 74.27710783333333,
    "id": 417977977
  },
  {
    "name": "residential",
    "category": "highway",
    "subcategory": "residential",
    "latitude": 31.634001474999998,
    "longitude": 74.2647962,
    "id": 417977978
  },
  {
    "name": "residential",
    "category": "highway",
    "subcategory": "residential",
    "latitude": 31.6308851,
    "longitude": 74.27921690000001,
    "id": 417977979
  },
  {
    "name": "residential",
    "category": "highway",
    "subcategory": "residential",
    "latitude": 31.6343846,
    "longitude": 74.2813585,
    "id": 417977980
  },
  {
    "name": "residential",
    "category": "highway",
    "subcategory": "residential",
    "latitude": 31.632658366666664,
    "longitude": 74.2749386,
    "id": 417977981
  },
  {
    "name": "residential",
    "category": "highway",
    "subcategory": "residential",
    "latitude": 31.6343298,
    "longitude": 74.265769225,
    "id": 417977983
  },
  {
    "name": "residential",
    "category": "highway",
    "subcategory": "residential",
    "latitude": 31.63534228888889,
    "longitude": 74.26110275555556,
    "id": 417977984
  },
  {
    "name": "residential",
    "category": "highway",
    "subcategory": "residential",
    "latitude": 31.631147233333333,
    "longitude": 74.27992783333333,
    "id": 417977986
  },
  {
    "name": "residential",
    "category": "highway",
    "subcategory": "residential",
    "latitude": 31.63092942,
    "longitude": 74.27991402,
    "id": 417977987
  },
  {
    "name": "residential",
    "category": "highway",
    "subcategory": "residential",
    "latitude": 31.631074375,
    "longitude": 74.28111485,
    "id": 417977988
  },
  {
    "name": "residential",
    "category": "highway",
    "subcategory": "residential",
    "latitude": 31.63472655,
    "longitude": 74.28211565000001,
    "id": 417977989
  },
  {
    "name": "residential",
    "category": "highway",
    "subcategory": "residential",
    "latitude": 31.63304825,
    "longitude": 74.27416455,
    "id": 417977990
  },
  {
    "name": "residential",
    "category": "highway",
    "subcategory": "residential",
    "latitude": 31.63552247,
    "longitude": 74.28416731,
    "id": 417977991
  },
  {
    "name": "residential",
    "category": "highway",
    "subcategory": "residential",
    "latitude": 31.636068933333334,
    "longitude": 74.27708876666667,
    "id": 417977992
  },
  {
    "name": "residential",
    "category": "highway",
    "subcategory": "residential",
    "latitude": 31.63191926,
    "longitude": 74.27463046,
    "id": 417977993
  },
  {
    "name": "residential",
    "category": "highway",
    "subcategory": "residential",
    "latitude": 31.634250228571428,
    "longitude": 74.26508587142857,
    "id": 417977994
  },
  {
    "name": "residential",
    "category": "highway",
    "subcategory": "residential",
    "latitude": 31.63188914,
    "longitude": 74.27931978000001,
    "id": 417977995
  },
  {
    "name": "residential",
    "category": "highway",
    "subcategory": "residential",
    "latitude": 31.6311847,
    "longitude": 74.2825105,
    "id": 417981200
  },
  {
    "name": "residential",
    "category": "highway",
    "subcategory": "residential",
    "latitude": 31.62864552857143,
    "longitude": 74.28133372857143,
    "id": 417981201
  },
  {
    "name": "residential",
    "category": "highway",
    "subcategory": "residential",
    "latitude": 31.631190599999996,
    "longitude": 74.28114959999999,
    "id": 417981202
  },
  {
    "name": "residential",
    "category": "highway",
    "subcategory": "residential",
    "latitude": 31.62924975,
    "longitude": 74.28327425,
    "id": 417981203
  },
  {
    "name": "residential",
    "category": "highway",
    "subcategory": "residential",
    "latitude": 31.6309399,
    "longitude": 74.28134435000001,
    "id": 417981204
  },
  {
    "name": "residential",
    "category": "highway",
    "subcategory": "residential",
    "latitude": 31.630943266666666,
    "longitude": 74.27992553333333,
    "id": 417981205
  },
  {
    "name": "residential",
    "category": "highway",
    "subcategory": "residential",
    "latitude": 31.630639399999996,
    "longitude": 74.27992206666666,
    "id": 417981206
  },
  {
    "name": "residential",
    "category": "highway",
    "subcategory": "residential",
    "latitude": 31.6312119,
    "longitude": 74.28204958,
    "id": 417981207
  },
  {
    "name": "residential",
    "category": "highway",
    "subcategory": "residential",
    "latitude": 31.6333786,
    "longitude": 74.28641035,
    "id": 417982294
  },
  {
    "name": "residential",
    "category": "highway",
    "subcategory": "residential",
    "latitude": 31.6316642,
    "longitude": 74.28600605,
    "id": 417982295
  },
  {
    "name": "residential",
    "category": "highway",
    "subcategory": "residential",
    "latitude": 31.62874448333333,
    "longitude": 74.28468145,
    "id": 417982296
  },
  {
    "name": "residential",
    "category": "highway",
    "subcategory": "residential",
    "latitude": 31.6332916,
    "longitude": 74.28571265,
    "id": 417982297
  },
  {
    "name": "residential",
    "category": "highway",
    "subcategory": "residential",
    "latitude": 31.619953025,
    "longitude": 74.27079144999999,
    "id": 417982298
  },
  {
    "name": "residential",
    "category": "highway",
    "subcategory": "residential",
    "latitude": 31.63009175,
    "longitude": 74.28382389999999,
    "id": 417982299
  },
  {
    "name": "residential",
    "category": "highway",
    "subcategory": "residential",
    "latitude": 31.630468450000002,
    "longitude": 74.2847094,
    "id": 417982300
  },
  {
    "name": "residential",
    "category": "highway",
    "subcategory": "residential",
    "latitude": 31.633199,
    "longitude": 74.2853916,
    "id": 417982301
  },
  {
    "name": "Syed Asif Hashmi Road",
    "category": "highway",
    "subcategory": "tertiary",
    "latitude": 31.63042692727273,
    "longitude": 74.29908042424243,
    "id": 417982302
  },
  {
    "name": "residential",
    "category": "highway",
    "subcategory": "residential",
    "latitude": 31.618458275,
    "longitude": 74.272060675,
    "id": 417982303
  },
  {
    "name": "residential",
    "category": "highway",
    "subcategory": "residential",
    "latitude": 31.62903785,
    "longitude": 74.29876275000001,
    "id": 417982304
  },
  {
    "name": "residential",
    "category": "highway",
    "subcategory": "residential",
    "latitude": 31.6331136,
    "longitude": 74.2860573,
    "id": 417982305
  },
  {
    "name": "residential",
    "category": "highway",
    "subcategory": "residential",
    "latitude": 31.632119033333336,
    "longitude": 74.28449793333334,
    "id": 417982307
  },
  {
    "name": "residential",
    "category": "highway",
    "subcategory": "residential",
    "latitude": 31.631844,
    "longitude": 74.28410236666667,
    "id": 417982308
  },
  {
    "name": "Haq Bahu Road",
    "category": "highway",
    "subcategory": "tertiary",
    "latitude": 31.625661583333336,
    "longitude": 74.29994266666667,
    "id": 417982309
  },
  {
    "name": "residential",
    "category": "highway",
    "subcategory": "residential",
    "latitude": 31.6326162,
    "longitude": 74.28558225,
    "id": 417982310
  },
  {
    "name": "residential",
    "category": "highway",
    "subcategory": "residential",
    "latitude": 31.631125939999997,
    "longitude": 74.28528732,
    "id": 417982312
  },
  {
    "name": "residential",
    "category": "highway",
    "subcategory": "residential",
    "latitude": 31.631287983333333,
    "longitude": 74.28575295,
    "id": 417982313
  },
  {
    "name": "residential",
    "category": "highway",
    "subcategory": "residential",
    "latitude": 31.632993,
    "longitude": 74.28592323333334,
    "id": 417982314
  },
  {
    "name": "residential",
    "category": "highway",
    "subcategory": "residential",
    "latitude": 31.632061328571428,
    "longitude": 74.28487747142857,
    "id": 417982315
  },
  {
    "name": "Mehmood Road",
    "category": "highway",
    "subcategory": "residential",
    "latitude": 31.61859442631579,
    "longitude": 74.27207341578948,
    "id": 417982316
  },
  {
    "name": "residential",
    "category": "highway",
    "subcategory": "residential",
    "latitude": 31.61837255384615,
    "longitude": 74.26904636153846,
    "id": 417982506
  },
  {
    "name": "residential",
    "category": "highway",
    "subcategory": "residential",
    "latitude": 31.657404871428575,
    "longitude": 74.27385348095238,
    "id": 418597254
  },
  {
    "name": "tertiary",
    "category": "highway",
    "subcategory": "tertiary",
    "latitude": 31.656635772222224,
    "longitude": 74.28070832777777,
    "id": 418597256
  },
  {
    "name": "tertiary",
    "category": "highway",
    "subcategory": "tertiary",
    "latitude": 31.65706916666667,
    "longitude": 74.28150473333334,
    "id": 418597263
  },
  {
    "name": "residential",
    "category": "highway",
    "subcategory": "residential",
    "latitude": 31.6582492,
    "longitude": 74.27431950769231,
    "id": 418597277
  },
  {
    "name": "tertiary",
    "category": "highway",
    "subcategory": "tertiary",
    "latitude": 31.656630700000004,
    "longitude": 74.28068343333332,
    "id": 418597278
  },
  {
    "name": "residential",
    "category": "highway",
    "subcategory": "residential",
    "latitude": 31.655349400000002,
    "longitude": 74.27880846666666,
    "id": 418597281
  },
  {
    "name": "tertiary",
    "category": "highway",
    "subcategory": "tertiary",
    "latitude": 31.65813918,
    "longitude": 74.27946474000001,
    "id": 418597283
  },
  {
    "name": "residential",
    "category": "highway",
    "subcategory": "residential",
    "latitude": 31.625006674999998,
    "longitude": 74.293448175,
    "id": 418597284
  },
  {
    "name": "tertiary",
    "category": "highway",
    "subcategory": "tertiary",
    "latitude": 31.663715262857142,
    "longitude": 74.24424201238095,
    "id": 418597288
  },
  {
    "name": "residential",
    "category": "highway",
    "subcategory": "residential",
    "latitude": 31.626034584615386,
    "longitude": 74.29062387692308,
    "id": 418597291
  },
  {
    "name": "residential",
    "category": "highway",
    "subcategory": "residential",
    "latitude": 31.685433006666667,
    "longitude": 74.27345916666667,
    "id": 418612416
  },
  {
    "name": "residential",
    "category": "highway",
    "subcategory": "residential",
    "latitude": 31.666762362500002,
    "longitude": 74.271252775,
    "id": 418612417
  },
  {
    "name": "residential",
    "category": "highway",
    "subcategory": "residential",
    "latitude": 31.683567500000002,
    "longitude": 74.27309205,
    "id": 418612420
  },
  {
    "name": "residential",
    "category": "highway",
    "subcategory": "residential",
    "latitude": 31.684642033333333,
    "longitude": 74.27298739999999,
    "id": 418612421
  },
  {
    "name": "residential",
    "category": "highway",
    "subcategory": "residential",
    "latitude": 31.65734975,
    "longitude": 74.2787466,
    "id": 418612426
  },
  {
    "name": "residential",
    "category": "highway",
    "subcategory": "residential",
    "latitude": 31.660890918181817,
    "longitude": 74.28430233636364,
    "id": 418612428
  },
  {
    "name": "residential",
    "category": "highway",
    "subcategory": "residential",
    "latitude": 31.684693566666667,
    "longitude": 74.27370623333333,
    "id": 418612429
  },
  {
    "name": "residential",
    "category": "highway",
    "subcategory": "residential",
    "latitude": 31.659269975,
    "longitude": 74.3059411,
    "id": 418612431
  },
  {
    "name": "residential",
    "category": "highway",
    "subcategory": "residential",
    "latitude": 31.6444897,
    "longitude": 74.2796083,
    "id": 418612432
  },
  {
    "name": "residential",
    "category": "highway",
    "subcategory": "residential",
    "latitude": 31.67475665,
    "longitude": 74.2711319,
    "id": 418612437
  },
  {
    "name": "residential",
    "category": "highway",
    "subcategory": "residential",
    "latitude": 31.684656266666668,
    "longitude": 74.27265086666667,
    "id": 418612439
  },
  {
    "name": "residential",
    "category": "highway",
    "subcategory": "residential",
    "latitude": 31.6608909,
    "longitude": 74.3054997,
    "id": 418612441
  },
  {
    "name": "unclassified",
    "category": "highway",
    "subcategory": "unclassified",
    "latitude": 31.66906796666667,
    "longitude": 74.27747523333333,
    "id": 418612444
  },
  {
    "name": "residential",
    "category": "highway",
    "subcategory": "residential",
    "latitude": 31.675691699999998,
    "longitude": 74.2715015,
    "id": 418612446
  },
  {
    "name": "residential",
    "category": "highway",
    "subcategory": "residential",
    "latitude": 31.6846729,
    "longitude": 74.27334996666666,
    "id": 418612448
  },
  {
    "name": "residential",
    "category": "highway",
    "subcategory": "residential",
    "latitude": 31.65876344,
    "longitude": 74.30434144,
    "id": 418612451
  },
  {
    "name": "residential",
    "category": "highway",
    "subcategory": "residential",
    "latitude": 31.659852842424243,
    "longitude": 74.30454484848484,
    "id": 418612455
  },
  {
    "name": "residential",
    "category": "highway",
    "subcategory": "residential",
    "latitude": 31.68622913333333,
    "longitude": 74.2726422,
    "id": 418612463
  },
  {
    "name": "residential",
    "category": "highway",
    "subcategory": "residential",
    "latitude": 31.67718784285714,
    "longitude": 74.27077597142856,
    "id": 418612464
  },
  {
    "name": "residential",
    "category": "highway",
    "subcategory": "residential",
    "latitude": 31.6861787,
    "longitude": 74.2723163,
    "id": 418612465
  },
  {
    "name": "residential",
    "category": "highway",
    "subcategory": "residential",
    "latitude": 31.6835107,
    "longitude": 74.2714786,
    "id": 418612466
  },
  {
    "name": "residential",
    "category": "highway",
    "subcategory": "residential",
    "latitude": 31.661379933333336,
    "longitude": 74.30623296666667,
    "id": 418612467
  },
  {
    "name": "residential",
    "category": "highway",
    "subcategory": "residential",
    "latitude": 31.642786266666665,
    "longitude": 74.27984613333332,
    "id": 418612468
  },
  {
    "name": "residential",
    "category": "highway",
    "subcategory": "residential",
    "latitude": 31.623810175,
    "longitude": 74.25646901666667,
    "id": 418612473
  },
  {
    "name": "residential",
    "category": "highway",
    "subcategory": "residential",
    "latitude": 31.683652619999997,
    "longitude": 74.27525864,
    "id": 418612475
  },
  {
    "name": "residential",
    "category": "highway",
    "subcategory": "residential",
    "latitude": 31.6415649,
    "longitude": 74.2792781,
    "id": 418612476
  },
  {
    "name": "residential",
    "category": "highway",
    "subcategory": "residential",
    "latitude": 31.64172,
    "longitude": 74.27826507500001,
    "id": 418612480
  },
  {
    "name": "residential",
    "category": "highway",
    "subcategory": "residential",
    "latitude": 31.64201775,
    "longitude": 74.278231625,
    "id": 418612481
  },
  {
    "name": "residential",
    "category": "highway",
    "subcategory": "residential",
    "latitude": 31.6754513,
    "longitude": 74.27081716000001,
    "id": 418612482
  },
  {
    "name": "residential",
    "category": "highway",
    "subcategory": "residential",
    "latitude": 31.68233978888889,
    "longitude": 74.27127548888889,
    "id": 418612483
  },
  {
    "name": "residential",
    "category": "highway",
    "subcategory": "residential",
    "latitude": 31.686390019999997,
    "longitude": 74.27214798,
    "id": 418612484
  },
  {
    "name": "residential",
    "category": "highway",
    "subcategory": "residential",
    "latitude": 31.6609145,
    "longitude": 74.30612755,
    "id": 418612485
  },
  {
    "name": "residential",
    "category": "highway",
    "subcategory": "residential",
    "latitude": 31.6608484,
    "longitude": 74.30702674,
    "id": 418612486
  },
  {
    "name": "residential",
    "category": "highway",
    "subcategory": "residential",
    "latitude": 31.66003015,
    "longitude": 74.305508425,
    "id": 418612487
  },
  {
    "name": "residential",
    "category": "highway",
    "subcategory": "residential",
    "latitude": 31.673451214285713,
    "longitude": 74.27169217142857,
    "id": 418612488
  },
  {
    "name": "residential",
    "category": "highway",
    "subcategory": "residential",
    "latitude": 31.62974255,
    "longitude": 74.2715473375,
    "id": 418612490
  },
  {
    "name": "residential",
    "category": "highway",
    "subcategory": "residential",
    "latitude": 31.6806103,
    "longitude": 74.27138072857143,
    "id": 418612491
  },
  {
    "name": "residential",
    "category": "highway",
    "subcategory": "residential",
    "latitude": 31.641159299999998,
    "longitude": 74.27859634,
    "id": 418612492
  },
  {
    "name": "residential",
    "category": "highway",
    "subcategory": "residential",
    "latitude": 31.641439000000002,
    "longitude": 74.27857798,
    "id": 418612494
  },
  {
    "name": "tertiary",
    "category": "highway",
    "subcategory": "tertiary",
    "latitude": 31.62289378888889,
    "longitude": 74.25808545555554,
    "id": 418612495
  },
  {
    "name": "residential",
    "category": "highway",
    "subcategory": "residential",
    "latitude": 31.674059475,
    "longitude": 74.27120575000001,
    "id": 418612497
  },
  {
    "name": "unclassified",
    "category": "highway",
    "subcategory": "unclassified",
    "latitude": 31.677645892307694,
    "longitude": 74.27204425384615,
    "id": 418612498
  },
  {
    "name": "residential",
    "category": "highway",
    "subcategory": "residential",
    "latitude": 31.641101409999997,
    "longitude": 74.27787113,
    "id": 418612499
  },
  {
    "name": "residential",
    "category": "highway",
    "subcategory": "residential",
    "latitude": 31.642208166666666,
    "longitude": 74.2810267,
    "id": 418612502
  },
  {
    "name": "residential",
    "category": "highway",
    "subcategory": "residential",
    "latitude": 31.658581275,
    "longitude": 74.3056614625,
    "id": 418612504
  },
  {
    "name": "unclassified",
    "category": "highway",
    "subcategory": "unclassified",
    "latitude": 31.672800499999997,
    "longitude": 74.26902901333332,
    "id": 418612505
  },
  {
    "name": "residential",
    "category": "highway",
    "subcategory": "residential",
    "latitude": 31.66016252,
    "longitude": 74.30671785,
    "id": 418612506
  },
  {
    "name": "residential",
    "category": "highway",
    "subcategory": "residential",
    "latitude": 31.688355227272726,
    "longitude": 74.2734554090909,
    "id": 418612507
  },
  {
    "name": "residential",
    "category": "highway",
    "subcategory": "residential",
    "latitude": 31.64187131111111,
    "longitude": 74.27874405555556,
    "id": 418612508
  },
  {
    "name": "residential",
    "category": "highway",
    "subcategory": "residential",
    "latitude": 31.619540800000003,
    "longitude": 74.2697312,
    "id": 418618881
  },
  {
    "name": "residential",
    "category": "highway",
    "subcategory": "residential",
    "latitude": 31.61900392857143,
    "longitude": 74.2675193142857,
    "id": 418618898
  },
  {
    "name": "Main Bazaar",
    "category": "highway",
    "subcategory": "tertiary",
    "latitude": 31.61653025882353,
    "longitude": 74.26436195882353,
    "id": 418618941
  },
  {
    "name": "residential",
    "category": "highway",
    "subcategory": "residential",
    "latitude": 31.61867277777778,
    "longitude": 74.24644202222221,
    "id": 418632488
  },
  {
    "name": "residential",
    "category": "highway",
    "subcategory": "residential",
    "latitude": 31.627151050000002,
    "longitude": 74.27266900000001,
    "id": 418642494
  },
  {
    "name": "residential",
    "category": "highway",
    "subcategory": "residential",
    "latitude": 31.627117475,
    "longitude": 74.27229845,
    "id": 418642495
  },
  {
    "name": "residential",
    "category": "highway",
    "subcategory": "residential",
    "latitude": 31.626850575,
    "longitude": 74.27255065,
    "id": 418642496
  },
  {
    "name": "residential",
    "category": "highway",
    "subcategory": "residential",
    "latitude": 31.627589716666666,
    "longitude": 74.27354441666667,
    "id": 418642497
  },
  {
    "name": "unclassified",
    "category": "highway",
    "subcategory": "unclassified",
    "latitude": 31.617914560000003,
    "longitude": 74.30050679,
    "id": 418736689
  },
  {
    "name": "residential",
    "category": "highway",
    "subcategory": "residential",
    "latitude": 31.632485073333335,
    "longitude": 74.30753772,
    "id": 418736695
  },
  {
    "name": "tertiary",
    "category": "highway",
    "subcategory": "tertiary",
    "latitude": 31.622847688235296,
    "longitude": 74.27784174705883,
    "id": 418736699
  },
  {
    "name": "Jada Road",
    "category": "highway",
    "subcategory": "tertiary",
    "latitude": 31.632273188888888,
    "longitude": 74.31126121851851,
    "id": 418736706
  },
  {
    "name": "residential",
    "category": "highway",
    "subcategory": "residential",
    "latitude": 31.632822266666665,
    "longitude": 74.30927623333334,
    "id": 418736713
  },
  {
    "name": "tertiary",
    "category": "highway",
    "subcategory": "tertiary",
    "latitude": 31.63581120681818,
    "longitude": 74.30713483636363,
    "id": 418736716
  },
  {
    "name": "residential",
    "category": "highway",
    "subcategory": "residential",
    "latitude": 31.63415772,
    "longitude": 74.30566708,
    "id": 418736723
  },
  {
    "name": "tertiary",
    "category": "highway",
    "subcategory": "tertiary",
    "latitude": 31.627372492857145,
    "longitude": 74.30524300714285,
    "id": 418736727
  },
  {
    "name": "residential",
    "category": "highway",
    "subcategory": "residential",
    "latitude": 31.622132292307693,
    "longitude": 74.2838436076923,
    "id": 418753564
  },
  {
    "name": "residential",
    "category": "highway",
    "subcategory": "residential",
    "latitude": 31.632256866666665,
    "longitude": 74.30909473333334,
    "id": 418753596
  },
  {
    "name": "residential",
    "category": "highway",
    "subcategory": "residential",
    "latitude": 31.618150200000002,
    "longitude": 74.28141331,
    "id": 418753599
  },
  {
    "name": "residential",
    "category": "highway",
    "subcategory": "residential",
    "latitude": 31.619653642857145,
    "longitude": 74.27813874285714,
    "id": 418753606
  },
  {
    "name": "residential",
    "category": "highway",
    "subcategory": "residential",
    "latitude": 31.631927544444448,
    "longitude": 74.30890567777777,
    "id": 418753612
  },
  {
    "name": "residential",
    "category": "highway",
    "subcategory": "residential",
    "latitude": 31.627872528571427,
    "longitude": 74.30644255714286,
    "id": 418753615
  },
  {
    "name": "residential",
    "category": "highway",
    "subcategory": "residential",
    "latitude": 31.621203463636366,
    "longitude": 74.2848444909091,
    "id": 418753621
  },
  {
    "name": "residential",
    "category": "highway",
    "subcategory": "residential",
    "latitude": 31.63138581756757,
    "longitude": 74.24211461216215,
    "id": 418765761
  },
  {
    "name": "residential",
    "category": "highway",
    "subcategory": "residential",
    "latitude": 31.62274243809524,
    "longitude": 74.24947686190477,
    "id": 418767327
  },
  {
    "name": "track",
    "category": "highway",
    "subcategory": "track",
    "latitude": 31.698391649999998,
    "longitude": 74.298348,
    "id": 465543700
  },
  {
    "name": "track",
    "category": "highway",
    "subcategory": "track",
    "latitude": 31.698795133333334,
    "longitude": 74.2993278,
    "id": 465543704
  },
  {
    "name": "track",
    "category": "highway",
    "subcategory": "track",
    "latitude": 31.69880173333333,
    "longitude": 74.2989867,
    "id": 465543705
  },
  {
    "name": "track",
    "category": "highway",
    "subcategory": "track",
    "latitude": 31.699408608333332,
    "longitude": 74.29969900833333,
    "id": 465543706
  },
  {
    "name": "track",
    "category": "highway",
    "subcategory": "track",
    "latitude": 31.697912575,
    "longitude": 74.2985660625,
    "id": 465543708
  },
  {
    "name": "track",
    "category": "highway",
    "subcategory": "track",
    "latitude": 31.69878266666667,
    "longitude": 74.29971703333332,
    "id": 465543709
  },
  {
    "name": "service",
    "category": "highway",
    "subcategory": "service",
    "latitude": 31.697205183333335,
    "longitude": 74.3095175,
    "id": 465543760
  },
  {
    "name": "service",
    "category": "highway",
    "subcategory": "service",
    "latitude": 31.6957838,
    "longitude": 74.3084929,
    "id": 465543761
  },
  {
    "name": "service",
    "category": "highway",
    "subcategory": "service",
    "latitude": 31.69442552857143,
    "longitude": 74.30673921428571,
    "id": 465543762
  },
  {
    "name": "residential",
    "category": "highway",
    "subcategory": "residential",
    "latitude": 31.6924193,
    "longitude": 74.29395654999999,
    "id": 465543763
  },
  {
    "name": "residential",
    "category": "highway",
    "subcategory": "residential",
    "latitude": 31.69209456666667,
    "longitude": 74.2936327,
    "id": 465543764
  },
  {
    "name": "residential",
    "category": "highway",
    "subcategory": "residential",
    "latitude": 31.691656633333334,
    "longitude": 74.2991006,
    "id": 465543765
  },
  {
    "name": "residential",
    "category": "highway",
    "subcategory": "residential",
    "latitude": 31.697169828571425,
    "longitude": 74.3017985857143,
    "id": 465543766
  },
  {
    "name": "residential",
    "category": "highway",
    "subcategory": "residential",
    "latitude": 31.6976779,
    "longitude": 74.30494308749999,
    "id": 465543767
  },
  {
    "name": "residential",
    "category": "highway",
    "subcategory": "residential",
    "latitude": 31.6966138,
    "longitude": 74.30302666,
    "id": 465543768
  },
  {
    "name": "residential",
    "category": "highway",
    "subcategory": "residential",
    "latitude": 31.69471325,
    "longitude": 74.30390489999999,
    "id": 465543769
  },
  {
    "name": "residential",
    "category": "highway",
    "subcategory": "residential",
    "latitude": 31.695527333333334,
    "longitude": 74.30147893333333,
    "id": 465543770
  },
  {
    "name": "residential",
    "category": "highway",
    "subcategory": "residential",
    "latitude": 31.694488375,
    "longitude": 74.30349125000001,
    "id": 465543771
  },
  {
    "name": "residential",
    "category": "highway",
    "subcategory": "residential",
    "latitude": 31.6947497,
    "longitude": 74.30220650000001,
    "id": 465543772
  },
  {
    "name": "residential",
    "category": "highway",
    "subcategory": "residential",
    "latitude": 31.6950107,
    "longitude": 74.303602775,
    "id": 465543773
  },
  {
    "name": "residential",
    "category": "highway",
    "subcategory": "residential",
    "latitude": 31.695262366666668,
    "longitude": 74.30431373333333,
    "id": 465543774
  },
  {
    "name": "residential",
    "category": "highway",
    "subcategory": "residential",
    "latitude": 31.695320266666666,
    "longitude": 74.30156363333333,
    "id": 465543775
  },
  {
    "name": "residential",
    "category": "highway",
    "subcategory": "residential",
    "latitude": 31.69575985,
    "longitude": 74.3033994,
    "id": 465543776
  },
  {
    "name": "residential",
    "category": "highway",
    "subcategory": "residential",
    "latitude": 31.696306775,
    "longitude": 74.30318944999999,
    "id": 465543777
  },
  {
    "name": "residential",
    "category": "highway",
    "subcategory": "residential",
    "latitude": 31.696828699999998,
    "longitude": 74.3029423,
    "id": 465543778
  },
  {
    "name": "residential",
    "category": "highway",
    "subcategory": "residential",
    "latitude": 31.695844707142857,
    "longitude": 74.30439987857143,
    "id": 465543779
  },
  {
    "name": "residential",
    "category": "highway",
    "subcategory": "residential",
    "latitude": 31.693164025,
    "longitude": 74.29687767499999,
    "id": 465543780
  },
  {
    "name": "residential",
    "category": "highway",
    "subcategory": "residential",
    "latitude": 31.691655400000002,
    "longitude": 74.2988029,
    "id": 465543781
  },
  {
    "name": "residential",
    "category": "highway",
    "subcategory": "residential",
    "latitude": 31.69119035,
    "longitude": 74.29822379999999,
    "id": 465543782
  },
  {
    "name": "residential",
    "category": "highway",
    "subcategory": "residential",
    "latitude": 31.6935082,
    "longitude": 74.299098,
    "id": 465543783
  },
  {
    "name": "residential",
    "category": "highway",
    "subcategory": "residential",
    "latitude": 31.69349955,
    "longitude": 74.298815,
    "id": 465543784
  },
  {
    "name": "residential",
    "category": "highway",
    "subcategory": "residential",
    "latitude": 31.692913933333333,
    "longitude": 74.29846603333334,
    "id": 465543785
  },
  {
    "name": "residential",
    "category": "highway",
    "subcategory": "residential",
    "latitude": 31.694265700000003,
    "longitude": 74.29560775,
    "id": 465543786
  },
  {
    "name": "residential",
    "category": "highway",
    "subcategory": "residential",
    "latitude": 31.6939178,
    "longitude": 74.29521395,
    "id": 465543787
  },
  {
    "name": "residential",
    "category": "highway",
    "subcategory": "residential",
    "latitude": 31.692789354545457,
    "longitude": 74.29398434545455,
    "id": 465543788
  },
  {
    "name": "residential",
    "category": "highway",
    "subcategory": "residential",
    "latitude": 31.69068465,
    "longitude": 74.294831325,
    "id": 465543789
  },
  {
    "name": "residential",
    "category": "highway",
    "subcategory": "residential",
    "latitude": 31.691281225,
    "longitude": 74.29530576249999,
    "id": 465543790
  },
  {
    "name": "residential",
    "category": "highway",
    "subcategory": "residential",
    "latitude": 31.691213483333332,
    "longitude": 74.29439835,
    "id": 465543791
  },
  {
    "name": "residential",
    "category": "highway",
    "subcategory": "residential",
    "latitude": 31.690388933333335,
    "longitude": 74.29399490000002,
    "id": 465543792
  },
  {
    "name": "residential",
    "category": "highway",
    "subcategory": "residential",
    "latitude": 31.690394799999996,
    "longitude": 74.29361783333333,
    "id": 465543793
  },
  {
    "name": "residential",
    "category": "highway",
    "subcategory": "residential",
    "latitude": 31.690400733333334,
    "longitude": 74.2932309,
    "id": 465543794
  },
  {
    "name": "residential",
    "category": "highway",
    "subcategory": "residential",
    "latitude": 31.690784439999998,
    "longitude": 74.29247538,
    "id": 465543795
  },
  {
    "name": "residential",
    "category": "highway",
    "subcategory": "residential",
    "latitude": 31.69076642,
    "longitude": 74.29284163999999,
    "id": 465543796
  },
  {
    "name": "residential",
    "category": "highway",
    "subcategory": "residential",
    "latitude": 31.69406845,
    "longitude": 74.3021153,
    "id": 465543797
  },
  {
    "name": "residential",
    "category": "highway",
    "subcategory": "residential",
    "latitude": 31.693539633333334,
    "longitude": 74.30145496666667,
    "id": 465543798
  },
  {
    "name": "residential",
    "category": "highway",
    "subcategory": "residential",
    "latitude": 31.6925698,
    "longitude": 74.30017892857143,
    "id": 465543799
  },
  {
    "name": "residential",
    "category": "highway",
    "subcategory": "residential",
    "latitude": 31.6925742625,
    "longitude": 74.2976934625,
    "id": 465543800
  },
  {
    "name": "residential",
    "category": "highway",
    "subcategory": "residential",
    "latitude": 31.69236365,
    "longitude": 74.2962297,
    "id": 465543801
  },
  {
    "name": "residential",
    "category": "highway",
    "subcategory": "residential",
    "latitude": 31.692407300000003,
    "longitude": 74.29557059999999,
    "id": 465543802
  },
  {
    "name": "residential",
    "category": "highway",
    "subcategory": "residential",
    "latitude": 31.69336785,
    "longitude": 74.29591825,
    "id": 465543803
  },
  {
    "name": "residential",
    "category": "highway",
    "subcategory": "residential",
    "latitude": 31.691527490909092,
    "longitude": 74.29644761818182,
    "id": 465543804
  },
  {
    "name": "residential",
    "category": "highway",
    "subcategory": "residential",
    "latitude": 31.692436357142856,
    "longitude": 74.29567767142858,
    "id": 465543805
  },
  {
    "name": "residential",
    "category": "highway",
    "subcategory": "residential",
    "latitude": 31.691738390909094,
    "longitude": 74.29950863636364,
    "id": 465543806
  },
  {
    "name": "residential",
    "category": "highway",
    "subcategory": "residential",
    "latitude": 31.691763255555557,
    "longitude": 74.2947383111111,
    "id": 465543807
  },
  {
    "name": "track",
    "category": "highway",
    "subcategory": "track",
    "latitude": 31.693406340000003,
    "longitude": 74.28778582,
    "id": 465543808
  },
  {
    "name": "track",
    "category": "highway",
    "subcategory": "track",
    "latitude": 31.692239166666667,
    "longitude": 74.28839936666667,
    "id": 465543809
  },
  {
    "name": "track",
    "category": "highway",
    "subcategory": "track",
    "latitude": 31.692240466666664,
    "longitude": 74.2873819,
    "id": 465543810
  },
  {
    "name": "track",
    "category": "highway",
    "subcategory": "track",
    "latitude": 31.6924253,
    "longitude": 74.29008701666667,
    "id": 465543811
  },
  {
    "name": "track",
    "category": "highway",
    "subcategory": "track",
    "latitude": 31.69239725,
    "longitude": 74.28974795,
    "id": 465543812
  },
  {
    "name": "track",
    "category": "highway",
    "subcategory": "track",
    "latitude": 31.692397975,
    "longitude": 74.289407425,
    "id": 465543813
  },
  {
    "name": "track",
    "category": "highway",
    "subcategory": "track",
    "latitude": 31.6923953,
    "longitude": 74.289070975,
    "id": 465543814
  },
  {
    "name": "track",
    "category": "highway",
    "subcategory": "track",
    "latitude": 31.692397125,
    "longitude": 74.2887319,
    "id": 465543815
  },
  {
    "name": "track",
    "category": "highway",
    "subcategory": "track",
    "latitude": 31.6923945,
    "longitude": 74.288051675,
    "id": 465543816
  },
  {
    "name": "track",
    "category": "highway",
    "subcategory": "track",
    "latitude": 31.692394625,
    "longitude": 74.2877163,
    "id": 465543817
  },
  {
    "name": "track",
    "category": "highway",
    "subcategory": "track",
    "latitude": 31.693025050000003,
    "longitude": 74.28993255,
    "id": 465543818
  },
  {
    "name": "track",
    "category": "highway",
    "subcategory": "track",
    "latitude": 31.69213945,
    "longitude": 74.29079225000001,
    "id": 465543819
  },
  {
    "name": "track",
    "category": "highway",
    "subcategory": "track",
    "latitude": 31.6925057,
    "longitude": 74.29061015,
    "id": 465543820
  },
  {
    "name": "track",
    "category": "highway",
    "subcategory": "track",
    "latitude": 31.692656875,
    "longitude": 74.290273325,
    "id": 465543821
  },