[
  {
    "name": "شیل",
    "category": "amenity",
    "subcategory": "fuel",
    "latitude": 31.6183917,
    "longitude": 74.2909146,
    "id": 2955181261
  },
  {
    "name": "Shahdara Lari Ada",
    "category": "amenity",
    "subcategory": "bus_station",
    "latitude": 31.6187738,
    "longitude": 74.289413,
    "id": 2955181283
  },
  {
    "name": "Hascol Fuelling Station",
    "category": "amenity",
    "subcategory": "fuel",
    "latitude": 31.6401366,
    "longitude": 74.2854064,
    "id": 3335848396
  },
  {
    "name": "پاکستان اسٹیٹ آئل",
    "category": "amenity",
    "subcategory": "fuel",
    "latitude": 31.6392551,
    "longitude": 74.2855619,
    "id": 3335850674
  },
  {
    "name": "Shahdara Police Station",
    "category": "amenity",
    "subcategory": "police",
    "latitude": 31.6206635,
    "longitude": 74.2895338,
    "id": 4339381992
  },
  {
    "name": "Bike mechanics",
    "category": "shop",
    "subcategory": "car_repair",
    "latitude": 31.6229686,
    "longitude": 74.2947653,
    "id": 4355184489
  },
  {
    "name": "chili food point",
    "category": "amenity",
    "subcategory": "fast_food",
    "latitude": 31.619892,
    "longitude": 74.2821244,
    "id": 4416291792
  },
  {
    "name": "moon medical store",
    "category": "amenity",
    "subcategory": "clinic",
    "latitude": 31.6220865,
    "longitude": 74.2816312,
    "id": 4416293591
  },
  {
    "name": "Ali Hospital",
    "category": "amenity",
    "subcategory": "hospital",
    "latitude": 31.6243412,
    "longitude": 74.2802945,
    "id": 4421288390
  },
  {
    "name": "Nazd Masjid Khalil",
    "category": "amenity",
    "subcategory": "place_of_worship",
    "latitude": 31.6264434,
    "longitude": 74.2817746,
    "id": 4578075381
  },
  {
    "name": "Fine Tailors",
    "category": "shop",
    "subcategory": "tailor",
    "latitude": 31.6251808,
    "longitude": 74.2884562,
    "id": 4612279735
  },
  {
    "name": "شیل",
    "category": "amenity",
    "subcategory": "fuel",
    "latitude": 31.6900294,
    "longitude": 74.2749093,
    "id": 4907504318
  },
  {
    "name": "CNG Station",
    "category": "amenity",
    "subcategory": "fuel",
    "latitude": 31.6871503,
    "longitude": 74.2755605,
    "id": 4907504319
  },
  {
    "name": "Al-Rehman Hotel",
    "category": "tourism",
    "subcategory": "hotel",
    "latitude": 31.6859271,
    "longitude": 74.275902,
    "id": 4907504320
  },
  {
    "name": "Green Petrol Pump",
    "category": "amenity",
    "subcategory": "fuel",
    "latitude": 31.6849336,
    "longitude": 74.2769154,
    "id": 4907505322
  },
  {
    "name": "Worker Welfare School (Boys) Rana Town",
    "category": "amenity",
    "subcategory": "school",
    "latitude": 31.680213,
    "longitude": 74.2768261,
    "id": 4907505323
  },
  {
    "name": "Sunview Hotel",
    "category": "tourism",
    "subcategory": "hotel",
    "latitude": 31.6806766,
    "longitude": 74.2774847,
    "id": 4907505324
  },
  {
    "name": "Al-Noor Hotel & Restaurant",
    "category": "amenity",
    "subcategory": "restaurant",
    "latitude": 31.6790782,
    "longitude": 74.2779645,
    "id": 4907505325
  },
  {
    "name": "Jamia Masjid Bilal Ranatown",
    "category": "amenity",
    "subcategory": "place_of_worship",
    "latitude": 31.6776648,
    "longitude": 74.2757361,
    "id": 4907505326
  },
  {
    "name": "Concordia College",
    "category": "amenity",
    "subcategory": "college",
    "latitude": 31.6677358,
    "longitude": 74.2806789,
    "id": 4907505335
  },
  {
    "name": "Sharif Oxygen Pvt",
    "category": "amenity",
    "subcategory": "pharmacy",
    "latitude": 31.6602815,
    "longitude": 74.2819822,
    "id": 4907505336
  },
  {
    "name": "Arzu Hotel & Restaurant",
    "category": "amenity",
    "subcategory": "restaurant",
    "latitude": 31.6599403,
    "longitude": 74.2812993,
    "id": 4907505337
  },
  {
    "name": "Malik CNG & Filling Station",
    "category": "amenity",
    "subcategory": "fuel",
    "latitude": 31.6559849,
    "longitude": 74.2828564,
    "id": 4907505338
  },
  {
    "name": "Servis Shoes",
    "category": "shop",
    "subcategory": "shoes",
    "latitude": 31.6560576,
    "longitude": 74.2820921,
    "id": 4907505339
  },
  {
    "name": "PSO Fuelling Station",
    "category": "amenity",
    "subcategory": "fuel",
    "latitude": 31.6549467,
    "longitude": 74.282271,
    "id": 4907505340
  },
  {
    "name": "Ferozewala Police Station",
    "category": "amenity",
    "subcategory": "police",
    "latitude": 31.6527804,
    "longitude": 74.281527,
    "id": 4907505341
  },
  {
    "name": "Gourmet Bakers & Sweets",
    "category": "shop",
    "subcategory": "bakery",
    "latitude": 31.650871,
    "longitude": 74.283911,
    "id": 4907505342
  },
  {
    "name": "Gulshan Marriage Hall",
    "category": "amenity",
    "subcategory": "townhall",
    "latitude": 31.649597,
    "longitude": 74.2840934,
    "id": 4907505343
  },
  {
    "name": "Jamia Mosque",
    "category": "amenity",
    "subcategory": "place_of_worship",
    "latitude": 31.6473767,
    "longitude": 74.2843713,
    "id": 4907505344
  },
  {
    "name": "Government Boys High School",
    "category": "amenity",
    "subcategory": "school",
    "latitude": 31.6471249,
    "longitude": 74.2838968,
    "id": 4907505345
  },
  {
    "name": "پاکستان اسٹیٹ آئل",
    "category": "amenity",
    "subcategory": "fuel",
    "latitude": 31.6467813,
    "longitude": 74.2844853,
    "id": 4907505346
  },
  {
    "name": "Jamia Mosque Imamia",
    "category": "amenity",
    "subcategory": "place_of_worship",
    "latitude": 31.6473085,
    "longitude": 74.2824765,
    "id": 4907505347
  },
  {
    "name": "Hashmat School System",
    "category": "amenity",
    "subcategory": "school",
    "latitude": 31.6465583,
    "longitude": 74.2828184,
    "id": 4907505349
  },
  {
    "name": "Royal Marriage Hall",
    "category": "amenity",
    "subcategory": "townhall",
    "latitude": 31.6453308,
    "longitude": 74.2848519,
    "id": 4907505350
  },
  {
    "name": "الائیڈ بینک لمیٹڈ",
    "category": "amenity",
    "subcategory": "bank",
    "latitude": 31.644801,
    "longitude": 74.2851046,
    "id": 4907505351
  },
  {
    "name": "Amna Memorial Children Hospital",
    "category": "amenity",
    "subcategory": "clinic",
    "latitude": 31.6416078,
    "longitude": 74.2859132,
    "id": 4910219465
  },
  {
    "name": "Jamia Masjid Muhammadia Ghousia",
    "category": "amenity",
    "subcategory": "place_of_worship",
    "latitude": 31.6421082,
    "longitude": 74.2826188,
    "id": 4910219466
  },
  {
    "name": "Italian Pizza",
    "category": "amenity",
    "subcategory": "restaurant",
    "latitude": 31.6322591,
    "longitude": 74.2870667,
    "id": 4910219489
  },
  {
    "name": "ایم سی بی بینک",
    "category": "amenity",
    "subcategory": "bank",
    "latitude": 31.629982,
    "longitude": 74.2875338,
    "id": 4910219490
  },
  {
    "name": "Bajwa Hospital",
    "category": "amenity",
    "subcategory": "hospital",
    "latitude": 31.6303345,
    "longitude": 74.2874878,
    "id": 4910219491
  },
  {
    "name": "Dory Bakery",
    "category": "shop",
    "subcategory": "bakery",
    "latitude": 31.6306178,
    "longitude": 74.2874064,
    "id": 4910219492
  },
  {
    "name": "Iqbal Medical Store",
    "category": "amenity",
    "subcategory": "pharmacy",
    "latitude": 31.6281859,
    "longitude": 74.2879992,
    "id": 4910219494
  },
  {
    "name": "AL-NOOR COLLEGE",
    "category": "amenity",
    "subcategory": "college",
    "latitude": 31.6275697,
    "longitude": 74.2873356,
    "id": 4910219495
  },
  {
    "name": "Sachyari Shopping Center",
    "category": "shop",
    "subcategory": "mall",
    "latitude": 31.6274913,
    "longitude": 74.2874966,
    "id": 4910219496
  },
  {
    "name": "Jamy Masjid Al Minar",
    "category": "amenity",
    "subcategory": "place_of_worship",
    "latitude": 31.6275275,
    "longitude": 74.2886009,
    "id": 4910219497
  },
  {
    "name": "Pakistan Medical Store",
    "category": "amenity",
    "subcategory": "pharmacy",
    "latitude": 31.6270076,
    "longitude": 74.2882257,
    "id": 4910219498
  },
  {
    "name": "CDG Boys High School, Factory Area Shahdara",
    "category": "amenity",
    "subcategory": "school",
    "latitude": 31.626028,
    "longitude": 74.2889795,
    "id": 4910219499
  },
  {
    "name": "K B Shopping Center",
    "category": "shop",
    "subcategory": "mall",
    "latitude": 31.6262208,
    "longitude": 74.2883461,
    "id": 4910219500
  },
  {
    "name": "Secretariat Punjab Social Security Hospital",
    "category": "amenity",
    "subcategory": "hospital",
    "latitude": 31.6246632,
    "longitude": 74.2886379,
    "id": 4910219502
  },
  {
    "name": "Service Shoes",
    "category": "shop",
    "subcategory": "shoes",
    "latitude": 31.6241871,
    "longitude": 74.2887689,
    "id": 4910219511
  },
  {
    "name": "Fire Brigade Shahdara",
    "category": "amenity",
    "subcategory": "fire_station",
    "latitude": 31.6240334,
    "longitude": 74.2893351,
    "id": 4910219512
  },
  {
    "name": "Too Hot Too Spicy",
    "category": "amenity",
    "subcategory": "restaurant",
    "latitude": 31.6231745,
    "longitude": 74.2889565,
    "id": 4910219513
  },
  {
    "name": "Jamia Masjid Noori",
    "category": "amenity",
    "subcategory": "place_of_worship",
    "latitude": 31.6229515,
    "longitude": 74.2890202,
    "id": 4910219514
  },
  {
    "name": "پاکستان اسٹیٹ آئل",
    "category": "amenity",
    "subcategory": "fuel",
    "latitude": 31.6228792,
    "longitude": 74.2895758,
    "id": 4910219515
  },
  {
    "name": "Post Office Shahdara Bagh",
    "category": "amenity",
    "subcategory": "post_office",
    "latitude": 31.6220383,
    "longitude": 74.2891971,
    "id": 4910219516
  },
  {
    "name": "Al Baraka Bank",
    "category": "amenity",
    "subcategory": "bank",
    "latitude": 31.6222523,
    "longitude": 74.2891688,
    "id": 4910219517
  },
  {
    "name": "Ferozwala Tehsil Courts",
    "category": "amenity",
    "subcategory": "courthouse",
    "latitude": 31.622189,
    "longitude": 74.2902093,
    "id": 4910219518
  },
  {
    "name": "Gourmet Bakers & Sweets",
    "category": "shop",
    "subcategory": "bakery",
    "latitude": 31.6212216,
    "longitude": 74.2893882,
    "id": 4910219519
  },
  {
    "name": "Jamat-I-Islami",
    "category": "amenity",
    "subcategory": "place_of_worship",
    "latitude": 31.6207816,
    "longitude": 74.2886627,
    "id": 4910219520
  },
  {
    "name": "Stars Group Of Colleges, Shahdara",
    "category": "amenity",
    "subcategory": "college",
    "latitude": 31.6211975,
    "longitude": 74.2888043,
    "id": 4910219621
  },
  {
    "name": "Global Law College",
    "category": "amenity",
    "subcategory": "college",
    "latitude": 31.6211523,
    "longitude": 74.2885601,
    "id": 4910219622
  },
  {
    "name": "Dhaka Bhaya Biryani Point",
    "category": "amenity",
    "subcategory": "restaurant",
    "latitude": 31.6195218,
    "longitude": 74.2897351,
    "id": 4910219623
  },
  {
    "name": "Pharmagen Pharmacy",
    "category": "amenity",
    "subcategory": "pharmacy",
    "latitude": 31.6196786,
    "longitude": 74.2897103,
    "id": 4910219624
  },
  {
    "name": "Govt. Maternity Hospital",
    "category": "amenity",
    "subcategory": "hospital",
    "latitude": 31.6259547,
    "longitude": 74.2962832,
    "id": 4910585745
  },
  {
    "name": "Bilal Marriage Hall",
    "category": "amenity",
    "subcategory": "townhall",
    "latitude": 31.6265294,
    "longitude": 74.2964381,
    "id": 4910585746
  },
  {
    "name": "Sangeet Banquet Hall",
    "category": "amenity",
    "subcategory": "townhall",
    "latitude": 31.6234557,
    "longitude": 74.2950082,
    "id": 4910585747
  },
  {
    "name": "Dory Bakers and Sweets",
    "category": "amenity",
    "subcategory": "cafe",
    "latitude": 31.6233429,
    "longitude": 74.2943826,
    "id": 4910585748
  },
  {
    "name": "گورنمنٹ ہائی اسکول شاہدرہ",
    "category": "amenity",
    "subcategory": "school",
    "latitude": 31.6226065,
    "longitude": 74.2925072,
    "id": 4910585749
  },
  {
    "name": "Khan Marriage Hall",
    "category": "amenity",
    "subcategory": "townhall",
    "latitude": 31.6269795,
    "longitude": 74.2953602,
    "id": 4910585750
  },
  {
    "name": "BBQ Take Away",
    "category": "amenity",
    "subcategory": "restaurant",
    "latitude": 31.6235611,
    "longitude": 74.2956488,
    "id": 4910585751
  },
  {
    "name": "Qazi Park",
    "category": "amenity",
    "subcategory": "place_of_worship",
    "latitude": 31.6251373,
    "longitude": 74.2953827,
    "id": 4910585752
  },
  {
    "name": "New Al-Fazal Dera Restaurent",
    "category": "amenity",
    "subcategory": "restaurant",
    "latitude": 31.6251743,
    "longitude": 74.3011261,
    "id": 4910585753
  },
  {
    "name": "Muslim Ideal School",
    "category": "amenity",
    "subcategory": "school",
    "latitude": 31.6260406,
    "longitude": 74.3047632,
    "id": 4910585754
  },
  {
    "name": "Government College For Women Vadala Dyal Shah",
    "category": "amenity",
    "subcategory": "college",
    "latitude": 31.6317651,
    "longitude": 74.2693108,
    "id": 4910585763
  },
  {
    "name": "شیل",
    "category": "amenity",
    "subcategory": "fuel",
    "latitude": 31.6202651,
    "longitude": 74.2468756,
    "id": 4910585769
  },
  {
    "name": "Waleed CNG Station",
    "category": "amenity",
    "subcategory": "fuel",
    "latitude": 31.6194239,
    "longitude": 74.2466622,
    "id": 4910585770
  },
  {
    "name": "Jamia Masjid Madni",
    "category": "amenity",
    "subcategory": "place_of_worship",
    "latitude": 31.6200739,
    "longitude": 74.2472052,
    "id": 4910585777
  },
  {
    "name": "Ticket booth",
    "category": "amenity",
    "subcategory": "vending_machine",
    "latitude": 31.6214747,
    "longitude": 74.2996486,
    "id": 4933931723
  },
  {
    "name": "Entry gate",
    "category": "tourism",
    "subcategory": "attraction",
    "latitude": 31.6226135,
    "longitude": 74.2932509,
    "id": 4933932122
  },
  {
    "name": "kuku khoya chanay",
    "category": "amenity",
    "subcategory": "restaurant",
    "latitude": 31.6277978,
    "longitude": 74.2953031,
    "id": 5639168421
  },
  {
    "name": "Dr.Yasir",
    "category": "amenity",
    "subcategory": "veterinary",
    "latitude": 31.6280892,
    "longitude": 74.2980629,
    "id": 5639168422
  },
  {
    "name": "Dr kashif",
    "category": "amenity",
    "subcategory": "veterinary",
    "latitude": 31.628722,
    "longitude": 74.2807907,
    "id": 5967861985
  },
  {
    "name": "Raheem medical hal",
    "category": "amenity",
    "subcategory": "doctors",
    "latitude": 31.6196714,
    "longitude": 74.2783261,
    "id": 6190484086
  },
  {
    "name": "Raheem medical store",
    "category": "amenity",
    "subcategory": "doctors",
    "latitude": 31.6196706,
    "longitude": 74.2785056,
    "id": 6282770086
  },
  {
    "name": "Cinnamon Marriage Castle",
    "category": "tourism",
    "subcategory": "hotel",
    "latitude": 31.6667332,
    "longitude": 74.2810834,
    "id": 7244237287
  },
  {
    "name": "Main Library, UET New Campus",
    "category": "amenity",
    "subcategory": "library",
    "latitude": 31.693913,
    "longitude": 74.2465872,
    "id": 7979807418
  },
  {
    "name": "Department of Computer Science, UET New Campus",
    "category": "amenity",
    "subcategory": "university",
    "latitude": 31.6946178,
    "longitude": 74.2445,
    "id": 7979807419
  },
  {
    "name": "Hostel A, UET New Campus",
    "category": "tourism",
    "subcategory": "hostel",
    "latitude": 31.693853,
    "longitude": 74.2504332,
    "id": 7979890301
  },
  {
    "name": "Hostel B, UET New Campus",
    "category": "tourism",
    "subcategory": "hostel",
    "latitude": 31.6942623,
    "longitude": 74.2512038,
    "id": 7979890302
  },
  {
    "name": "Department of Biomedical Engineering, UET New Campus",
    "category": "amenity",
    "subcategory": "university",
    "latitude": 31.6945881,
    "longitude": 74.2486913,
    "id": 7979890303
  },
  {
    "name": "Administration Office, UET New Campus",
    "category": "amenity",
    "subcategory": "university",
    "latitude": 31.693861,
    "longitude": 74.248299,
    "id": 7979890304
  },
  {
    "name": "Department of Chemical Engineering, UET New Campus",
    "category": "amenity",
    "subcategory": "university",
    "latitude": 31.6948782,
    "longitude": 74.2475565,
    "id": 7979890305
  },
  {
    "name": "Department of Electrical Engineering, UET New Campus",
    "category": "amenity",
    "subcategory": "university",
    "latitude": 31.6949139,
    "longitude": 74.2456745,
    "id": 7979890306
  },
  {
    "name": "Department of Mechanical Engineering, UET New Campus",
    "category": "amenity",
    "subcategory": "university",
    "latitude": 31.6957802,
    "longitude": 74.2455951,
    "id": 7979890307
  },
  {
    "name": "Department of Basic Sciences & Humanities, UET New Campus",
    "category": "amenity",
    "subcategory": "university",
    "latitude": 31.6957603,
    "longitude": 74.2476219,
    "id": 7979890308
  },
  {
    "name": "Day Care Centre, UET New Campus",
    "category": "amenity",
    "subcategory": "childcare",
    "latitude": 31.6932331,
    "longitude": 74.2415369,
    "id": 7979890309
  },
  {
    "name": "UET New Campus Cafe",
    "category": "amenity",
    "subcategory": "cafe",
    "latitude": 31.6945369,
    "longitude": 74.2490857,
    "id": 7981359569
  },
  {
    "name": "Hazrat Hassan Shah shrine",
    "category": "amenity",
    "subcategory": "place_of_worship",
    "latitude": 31.6452374,
    "longitude": 74.3103446,
    "id": 8851301494
  },
  {
    "name": "Darbar Sharif Alhaj Pir Mohammad Ramzan",
    "category": "amenity",
    "subcategory": "place_of_worship",
    "latitude": 31.6576806,
    "longitude": 74.305777,
    "id": 8851307888
  },
  {
    "name": "ٹی ایچ کیو ہسپتال",
    "category": "amenity",
    "subcategory": "hospital",
    "latitude": 31.6579532,
    "longitude": 74.2825636,
    "id": 9325952208
  },
  {
    "name": "Masjid Saddiquea",
    "category": "amenity",
    "subcategory": "place_of_worship",
    "latitude": 31.6276504,
    "longitude": 74.282486,
    "id": 9369452720
  },
  {
    "name": "Wall of tomb complex (not an entrance)",
    "category": "tourism",
    "subcategory": "attraction",
    "latitude": 31.6226121,
    "longitude": 74.3057308,
    "id": 9738903417
  }
]