[
  {
    "name": "مغل ہاؤس",
    "category": "tourism",
    "subcategory": "guest_house",
    "latitude": 32.6375066,
    "longitude": 73.7252979,
    "id": 4100232089
  },
  {
    "name": "The Grammar School Dinga",
    "category": "amenity",
    "subcategory": "school",
    "latitude": 32.6337486,
    "longitude": 73.7238554,
    "id": 4521062790
  },
  {
    "name": "Noor Fatima hospital",
    "category": "amenity",
    "subcategory": "hospital",
    "latitude": 32.6260726,
    "longitude": 73.7241004,
    "id": 4746430625
  },
  {
    "name": "الفیزان سرجیکل ہسپتال",
    "category": "amenity",
    "subcategory": "hospital",
    "latitude": 32.6414647,
    "longitude": 73.7303067,
    "id": 4746467121
  },
  {
    "name": "Khalil hospital",
    "category": "amenity",
    "subcategory": "hospital",
    "latitude": 32.6115893,
    "longitude": 73.6900759,
    "id": 4746623121
  },
  {
    "name": "حاجی سفر",
    "category": "shop",
    "subcategory": "travel_agency",
    "latitude": 32.6415562,
    "longitude": 73.7247344,
    "id": 5458191323
  },
  {
    "name": "Choudhary Restaurant Dinga",
    "category": "amenity",
    "subcategory": "restaurant",
    "latitude": 32.653191,
    "longitude": 73.735514,
    "id": 8377494562
  }
]