[
  {
    "name": "پی ٹی ڈی سی موٹل",
    "category": "tourism",
    "subcategory": "motel",
    "latitude": 28.9743476,
    "longitude": 61.5571305,
    "id": 734881654
  },
  {
    "name": "تھانہ تفتان",
    "category": "amenity",
    "subcategory": "police",
    "latitude": 28.9758674,
    "longitude": 61.5542615,
    "id": 4685538090
  },
  {
    "name": "Tafta house",
    "category": "amenity",
    "subcategory": "hunting_stand",
    "latitude": 28.9449326,
    "longitude": 61.5899528,
    "id": 5841410186
  },
  {
    "name": "fuel",
    "category": "amenity",
    "subcategory": "fuel",
    "latitude": 28.956085,
    "longitude": 61.5917639,
    "id": 7072266235
  },
  {
    "name": "place_of_worship",
    "category": "amenity",
    "subcategory": "place_of_worship",
    "latitude": 28.9482315,
    "longitude": 61.5855062,
    "id": 9710551298
  },
  {
    "name": "place_of_worship",
    "category": "amenity",
    "subcategory": "place_of_worship",
    "latitude": 28.9477515,
    "longitude": 61.5934697,
    "id": 9710564540
  },
  {
    "name": "place_of_worship",
    "category": "amenity",
    "subcategory": "place_of_worship",
    "latitude": 28.9573867,
    "longitude": 61.5755789,
    "id": 9710564544
  },
  {
    "name": "place_of_worship",
    "category": "amenity",
    "subcategory": "place_of_worship",
    "latitude": 28.9720319,
    "longitude": 61.5542992,
    "id": 9710565003
  },
  {
    "name": "place_of_worship",
    "category": "amenity",
    "subcategory": "place_of_worship",
    "latitude": 28.9520054,
    "longitude": 61.5784804,
    "id": 9710565223
  },
  {
    "name": "drinking_water",
    "category": "amenity",
    "subcategory": "drinking_water",
    "latitude": 28.9772242,
    "longitude": 61.5482757,
    "id": 11189864737
  },
  {
    "name": "convenience",
    "category": "shop",
    "subcategory": "convenience",
    "latitude": 28.9857938,
    "longitude": 61.5398764,
    "id": 11189864738
  },
  {
    "name": "place_of_worship",
    "category": "amenity",
    "subcategory": "place_of_worship",
    "latitude": 28.9515323,
    "longitude": 61.5872353,
    "id": 12731616750
  },
  {
    "name": "place_of_worship",
    "category": "amenity",
    "subcategory": "place_of_worship",
    "latitude": 28.8778265,
    "longitude": 61.5926712,
    "id": 13174799970
  },
  {
    "name": "place_of_worship",
    "category": "amenity",
    "subcategory": "place_of_worship",
    "latitude": 28.8924729,
    "longitude": 61.5793301,
    "id": 13174799988
  }
]