[
  {
    "name": "خانسپور‎",
    "category": "place",
    "subcategory": "village",
    "latitude": 34.0211224,
    "longitude": 73.4220542,
    "id": 2468677383
  },
  {
    "name": "bicycle_parking",
    "category": "amenity",
    "subcategory": "bicycle_parking",
    "latitude": 34.0208994,
    "longitude": 73.4187228,
    "id": 10859746107
  },
  {
    "name": "tertiary",
    "category": "highway",
    "subcategory": "tertiary",
    "latitude": 34.02193255841584,
    "longitude": 73.43812202079208,
    "id": 239054148
  },
  {
    "name": "DARWAZA",
    "category": "landuse",
    "subcategory": "residential",
    "latitude": 34.011572525,
    "longitude": 73.42278407500001,
    "id": 370131668
  },
  {
    "name": "residential",
    "category": "highway",
    "subcategory": "residential",
    "latitude": 34.02249248571428,
    "longitude": 73.4297661904762,
    "id": 702573704
  },
  {
    "name": "residential",
    "category": "highway",
    "subcategory": "residential",
    "latitude": 34.02214839183674,
    "longitude": 73.42520091836734,
    "id": 821090942
  },
  {
    "name": "ایوبیہ قومی پارک",
    "category": "leisure",
    "subcategory": "nature_reserve",
    "latitude": 34.05474345365854,
    "longitude": 73.41242477682927,
    "id": 886354018
  },
  {
    "name": "tertiary",
    "category": "highway",
    "subcategory": "tertiary",
    "latitude": 34.024995217894734,
    "longitude": 73.41376371578947,
    "id": 911043961
  },
  {
    "name": "residential",
    "category": "highway",
    "subcategory": "residential",
    "latitude": 34.021798133333334,
    "longitude": 73.41935690833334,
    "id": 998247780
  },
  {
    "name": "residential",
    "category": "highway",
    "subcategory": "residential",
    "latitude": 34.02056250625,
    "longitude": 73.42349755,
    "id": 998247781
  },
  {
    "name": "DARWAZA",
    "category": "landuse",
    "subcategory": "residential",
    "latitude": 34.011048862500004,
    "longitude": 73.422400075,
    "id": 370131668
  },
  {
    "name": "wood",
    "category": "natural",
    "subcategory": "wood",
    "latitude": 34.05840616886121,
    "longitude": 73.458627472242,
    "id": 11525387
  },
  {
    "name": "ایوبیہ قومی پارک",
    "category": "leisure",
    "subcategory": "nature_reserve",
    "latitude": 34.05498858902439,
    "longitude": 73.41233848902439,
    "id": 886354018
  }
]