[
  {
    "name": "National Bank (NBP)",
    "category": "amenity",
    "subcategory": "bank",
    "latitude": 33.5937043,
    "longitude": 73.3821954,
    "id": 10267813063
  },
  {
    "name": "Muslim Commercial Bank (MCB)",
    "category": "amenity",
    "subcategory": "bank",
    "latitude": 33.5937468,
    "longitude": 73.3825871,
    "id": 10267813064
  },
  {
    "name": "Meezan Bank",
    "category": "amenity",
    "subcategory": "bank",
    "latitude": 33.5937382,
    "longitude": 73.3827877,
    "id": 10267813065
  },
  {
    "name": "United Bank (UBL)",
    "category": "amenity",
    "subcategory": "bank",
    "latitude": 33.5937263,
    "longitude": 73.3841996,
    "id": 10267813066
  },
  {
    "name": "Allied Bank",
    "category": "amenity",
    "subcategory": "bank",
    "latitude": 33.5942066,
    "longitude": 73.3841298,
    "id": 10267813067
  },
  {
    "name": "Punjab Bank",
    "category": "amenity",
    "subcategory": "bank",
    "latitude": 33.5941047,
    "longitude": 73.3841647,
    "id": 10267813068
  },
  {
    "name": "Mexico Pizza - Burger and Fried Chicken",
    "category": "amenity",
    "subcategory": "fast_food",
    "latitude": 33.5930929,
    "longitude": 73.3728314,
    "id": 13964372301
  }
]