[
  {
    "name": "Railway Rent A Car",
    "category": "amenity",
    "subcategory": "car_rental",
    "latitude": 28.3018445,
    "longitude": 70.1288606,
    "id": 4517035490
  },
  {
    "name": "Rana M Ali Haider' House",
    "category": "tourism",
    "subcategory": "apartment",
    "latitude": 28.3087864,
    "longitude": 70.1303118,
    "id": 5309806225
  },
  {
    "name": "Cafe Sajawal Sweets",
    "category": "shop",
    "subcategory": "bakery",
    "latitude": 28.3073319,
    "longitude": 70.1326653,
    "id": 6156824171
  },
  {
    "name": "Sajawal Marriage Hall",
    "category": "amenity",
    "subcategory": "townhall",
    "latitude": 28.3080798,
    "longitude": 70.1342506,
    "id": 6156824172
  },
  {
    "name": "House",
    "category": "shop",
    "subcategory": "clothes",
    "latitude": 28.2917868,
    "longitude": 70.1284433,
    "id": 8188046878
  },
  {
    "name": "Palace Marquee Complex",
    "category": "amenity",
    "subcategory": "events_venue",
    "latitude": 28.2934489,
    "longitude": 70.1316607,
    "id": 8243038715
  },
  {
    "name": "Hamza Super Store",
    "category": "shop",
    "subcategory": "supermarket",
    "latitude": 28.3056113,
    "longitude": 70.1394329,
    "id": 8483511880
  },
  {
    "name": "Grain Market, Railway Road, Sadiqabad",
    "category": "amenity",
    "subcategory": "marketplace",
    "latitude": 28.3027943,
    "longitude": 70.1327504,
    "id": 9694278108
  },
  {
    "name": "Fruit and Vegetable Market",
    "category": "amenity",
    "subcategory": "marketplace",
    "latitude": 28.3184484,
    "longitude": 70.1268071,
    "id": 9694279951
  },
  {
    "name": "AH Homes & Hardware",
    "category": "shop",
    "subcategory": "hardware",
    "latitude": 28.3038302,
    "longitude": 70.1366158,
    "id": 10097896219
  }
]