[
  {
    "name": "Caltex Filling Station",
    "category": "amenity",
    "subcategory": "fuel",
    "latitude": 34.212996,
    "longitude": 71.5471947,
    "id": 310273499
  },
  {
    "name": "شب قدر",
    "category": "place",
    "subcategory": "city",
    "latitude": 34.2146534,
    "longitude": 71.5559253,
    "id": 848389510
  },
  {
    "name": "Sharkargarh",
    "category": "historic",
    "subcategory": "fort",
    "latitude": 34.2247527,
    "longitude": 71.5688251,
    "id": 883898388
  },
  {
    "name": "Uchwāla",
    "category": "place",
    "subcategory": "village",
    "latitude": 34.191111,
    "longitude": 71.585,
    "id": 915653142
  },
  {
    "name": "Shaikhān",
    "category": "place",
    "subcategory": "village",
    "latitude": 34.1869577,
    "longitude": 71.5841745,
    "id": 915653144
  },
  {
    "name": "ماہزارہ",
    "category": "place",
    "subcategory": "village",
    "latitude": 34.178056,
    "longitude": 71.595,
    "id": 915653145
  },
  {
    "name": "Shabqadar Police Station",
    "category": "amenity",
    "subcategory": "police",
    "latitude": 34.2229969,
    "longitude": 71.5743006,
    "id": 4456269589
  },
  {
    "name": "Police Check Point",
    "category": "amenity",
    "subcategory": "police",
    "latitude": 34.2140478,
    "longitude": 71.5488355,
    "id": 4456301889
  },
  {
    "name": "THQ Hospital Shabqadar",
    "category": "amenity",
    "subcategory": "clinic",
    "latitude": 34.2142895,
    "longitude": 71.5490902,
    "id": 4456305689
  },
  {
    "name": "Shabqadar Bus Station",
    "category": "amenity",
    "subcategory": "bus_station",
    "latitude": 34.2213408,
    "longitude": 71.5660226,
    "id": 4456973989
  },
  {
    "name": "پاکستان اسٹیٹ آئل",
    "category": "amenity",
    "subcategory": "fuel",
    "latitude": 34.2199191,
    "longitude": 71.5663966,
    "id": 4459143491
  },
  {
    "name": "Car work Shop",
    "category": "shop",
    "subcategory": "car_repair",
    "latitude": 34.2200003,
    "longitude": 71.5662946,
    "id": 4459187789
  },
  {
    "name": "Car Work Shop",
    "category": "shop",
    "subcategory": "car_repair",
    "latitude": 34.2199609,
    "longitude": 71.566549,
    "id": 4460012499
  },
  {
    "name": "DSP Office Shabqadar",
    "category": "amenity",
    "subcategory": "police",
    "latitude": 34.2198447,
    "longitude": 71.5663934,
    "id": 4460012500
  },
  {
    "name": "place_of_worship",
    "category": "amenity",
    "subcategory": "place_of_worship",
    "latitude": 34.2127946,
    "longitude": 71.5684544,
    "id": 4460012501
  },
  {
    "name": "Abazai CNG",
    "category": "amenity",
    "subcategory": "fuel",
    "latitude": 34.2010634,
    "longitude": 71.5715071,
    "id": 4460012502
  },
  {
    "name": "Rim jhim Garments Collection",
    "category": "shop",
    "subcategory": "clothes",
    "latitude": 34.2102869,
    "longitude": 71.5689154,
    "id": 4460015298
  },
  {
    "name": "Wheels Balance",
    "category": "shop",
    "subcategory": "car_repair",
    "latitude": 34.2102173,
    "longitude": 71.569032,
    "id": 4460020205
  },
  {
    "name": "Car wash",
    "category": "amenity",
    "subcategory": "car_wash",
    "latitude": 34.201216,
    "longitude": 71.5715924,
    "id": 4460020796
  },
  {
    "name": "Abdullatif Sweet",
    "category": "shop",
    "subcategory": "confectionery",
    "latitude": 34.2126934,
    "longitude": 71.5682519,
    "id": 4460022596
  },
  {
    "name": "Muhammad Bilal CNG",
    "category": "amenity",
    "subcategory": "fuel",
    "latitude": 34.2010519,
    "longitude": 71.5713147,
    "id": 4460022598
  },
  {
    "name": "Car Work Shop",
    "category": "shop",
    "subcategory": "car_repair",
    "latitude": 34.2009291,
    "longitude": 71.571277,
    "id": 4460022599
  },
  {
    "name": "Universal CNG",
    "category": "amenity",
    "subcategory": "fuel",
    "latitude": 34.2102193,
    "longitude": 71.568931,
    "id": 4460022600
  },
  {
    "name": "Allied School",
    "category": "amenity",
    "subcategory": "school",
    "latitude": 34.2033148,
    "longitude": 71.5707025,
    "id": 4460023092
  },
  {
    "name": "Brain School",
    "category": "amenity",
    "subcategory": "school",
    "latitude": 34.2033222,
    "longitude": 71.5708414,
    "id": 4460023093
  },
  {
    "name": "شیل",
    "category": "amenity",
    "subcategory": "fuel",
    "latitude": 34.201963,
    "longitude": 71.5711063,
    "id": 4460066289
  },
  {
    "name": "Nadra Registration Office",
    "category": "office",
    "subcategory": "government",
    "latitude": 34.2103268,
    "longitude": 71.5688416,
    "id": 4460078289
  },
  {
    "name": "FC Shabqdar",
    "category": "amenity",
    "subcategory": "police",
    "latitude": 34.2235043,
    "longitude": 71.5655703,
    "id": 4476637389
  },
  {
    "name": "Car Spare Parts",
    "category": "shop",
    "subcategory": "car_parts",
    "latitude": 34.2199248,
    "longitude": 71.5664603,
    "id": 4476637390
  },
  {
    "name": "TCS",
    "category": "shop",
    "subcategory": "mobile_phone",
    "latitude": 34.2217591,
    "longitude": 71.565997,
    "id": 4479301701
  },
  {
    "name": "WAPDA",
    "category": "office",
    "subcategory": "government",
    "latitude": 34.2173836,
    "longitude": 71.5668042,
    "id": 4479302094
  },
  {
    "name": "ایچ بی ایل پاکستان",
    "category": "amenity",
    "subcategory": "bank",
    "latitude": 34.2213092,
    "longitude": 71.5661417,
    "id": 4479361996
  },
  {
    "name": "Taxi Stand",
    "category": "amenity",
    "subcategory": "car_rental",
    "latitude": 34.2212462,
    "longitude": 71.5653083,
    "id": 4479375391
  },
  {
    "name": "Madani Masjid",
    "category": "amenity",
    "subcategory": "place_of_worship",
    "latitude": 34.2156825,
    "longitude": 71.5601286,
    "id": 4479449489
  },
  {
    "name": "Iqra Public School",
    "category": "amenity",
    "subcategory": "school",
    "latitude": 34.2170145,
    "longitude": 71.5621049,
    "id": 4479449689
  },
  {
    "name": "COOL drinks and Ice Cream",
    "category": "amenity",
    "subcategory": "fast_food",
    "latitude": 34.2223709,
    "longitude": 71.5658147,
    "id": 4479449690
  },
  {
    "name": "Dairy Milk Shop",
    "category": "shop",
    "subcategory": "convenience",
    "latitude": 34.2217067,
    "longitude": 71.5652726,
    "id": 4479449789
  },
  {
    "name": "Butcher's",
    "category": "shop",
    "subcategory": "butcher",
    "latitude": 34.2226168,
    "longitude": 71.5662117,
    "id": 4479449790
  },
  {
    "name": "Raz Muhammed electronics",
    "category": "shop",
    "subcategory": "electronics",
    "latitude": 34.2226784,
    "longitude": 71.5664332,
    "id": 4479449989
  },
  {
    "name": "Nadra Kiosk",
    "category": "office",
    "subcategory": "government",
    "latitude": 34.2233274,
    "longitude": 71.566386,
    "id": 4479449990
  },
  {
    "name": "QMobile",
    "category": "shop",
    "subcategory": "mobile_phone",
    "latitude": 34.2216651,
    "longitude": 71.5660064,
    "id": 4481034698
  },
  {
    "name": "Municipal Committee",
    "category": "office",
    "subcategory": "government",
    "latitude": 34.2202208,
    "longitude": 71.5663815,
    "id": 4483316593
  },
  {
    "name": "Masjid Humayoun",
    "category": "amenity",
    "subcategory": "place_of_worship",
    "latitude": 34.2139121,
    "longitude": 71.5555709,
    "id": 4484284698
  },
  {
    "name": "Clothes Shops",
    "category": "shop",
    "subcategory": "clothes",
    "latitude": 34.221736,
    "longitude": 71.5661758,
    "id": 4484309689
  },
  {
    "name": "Darul Uloom Rahmaniya",
    "category": "amenity",
    "subcategory": "place_of_worship",
    "latitude": 34.2126722,
    "longitude": 71.5555254,
    "id": 4484309789
  },
  {
    "name": "Masjid Molvi Farooq Shah",
    "category": "amenity",
    "subcategory": "place_of_worship",
    "latitude": 34.2139828,
    "longitude": 71.556462,
    "id": 4484309889
  },
  {
    "name": "Police Station Sru Kalai",
    "category": "amenity",
    "subcategory": "police",
    "latitude": 34.2139047,
    "longitude": 71.5160363,
    "id": 4494372796
  },
  {
    "name": "Police Station Pir Qila",
    "category": "amenity",
    "subcategory": "police",
    "latitude": 34.1990602,
    "longitude": 71.5303078,
    "id": 4494408091
  },
  {
    "name": "Govt High School Subhan Khwar",
    "category": "amenity",
    "subcategory": "school",
    "latitude": 34.2070851,
    "longitude": 71.5407455,
    "id": 4496438990
  },
  {
    "name": "Govt primary School",
    "category": "amenity",
    "subcategory": "school",
    "latitude": 34.2101436,
    "longitude": 71.5519831,
    "id": 4499753189
  },
  {
    "name": "Jeddah Travel Agency",
    "category": "shop",
    "subcategory": "travel_agency",
    "latitude": 34.2203338,
    "longitude": 71.5663979,
    "id": 4545860992
  },
  {
    "name": "Car Wash",
    "category": "amenity",
    "subcategory": "car_wash",
    "latitude": 34.2153507,
    "longitude": 71.5508304,
    "id": 4545976429
  },
  {
    "name": "Dr Nabila",
    "category": "amenity",
    "subcategory": "doctors",
    "latitude": 34.2161181,
    "longitude": 71.5502073,
    "id": 4546012289
  },
  {
    "name": "Car Wash",
    "category": "amenity",
    "subcategory": "car_wash",
    "latitude": 34.2158113,
    "longitude": 71.550602,
    "id": 4546012489
  },
  {
    "name": "Fire Brigade",
    "category": "amenity",
    "subcategory": "fire_station",
    "latitude": 34.2204256,
    "longitude": 71.5663714,
    "id": 4546395891
  },
  {
    "name": "Municipal Comity",
    "category": "office",
    "subcategory": "government",
    "latitude": 34.2205088,
    "longitude": 71.5663417,
    "id": 4546395892
  },
  {
    "name": "یونائیٹڈ بینک لمیٹڈ",
    "category": "amenity",
    "subcategory": "bank",
    "latitude": 34.220302,
    "longitude": 71.566208,
    "id": 4546480889
  },
  {
    "name": "atm",
    "category": "amenity",
    "subcategory": "atm",
    "latitude": 34.2203472,
    "longitude": 71.5661953,
    "id": 4546480890
  },
  {
    "name": "Seafood",
    "category": "shop",
    "subcategory": "seafood",
    "latitude": 34.2050759,
    "longitude": 71.5367679,
    "id": 4572621491
  },
  {
    "name": "Post Office Shabqadar",
    "category": "amenity",
    "subcategory": "post_box",
    "latitude": 34.2245604,
    "longitude": 71.5642996,
    "id": 4735644926
  },
  {
    "name": "Post Office Shabqadar Fort",
    "category": "amenity",
    "subcategory": "post_office",
    "latitude": 34.2245368,
    "longitude": 71.5643047,
    "id": 4735644927
  },
  {
    "name": "THQ Hospital Shabqadar",
    "category": "amenity",
    "subcategory": "hospital",
    "latitude": 34.2157671,
    "longitude": 71.548633,
    "id": 4807311321
  },
  {
    "name": "Pir Qilla",
    "category": "place",
    "subcategory": "village",
    "latitude": 34.2025017,
    "longitude": 71.5332357,
    "id": 4888699061
  },
  {
    "name": "PTCL Exchange",
    "category": "office",
    "subcategory": "government",
    "latitude": 34.2230157,
    "longitude": 71.5744986,
    "id": 5265237722
  },
  {
    "name": "Shah Electric Shop",
    "category": "shop",
    "subcategory": "electronics",
    "latitude": 34.2209942,
    "longitude": 71.5665918,
    "id": 5265237723
  },
  {
    "name": "Nadra Office Shabqadar",
    "category": "office",
    "subcategory": "government",
    "latitude": 34.2105019,
    "longitude": 71.5686254,
    "id": 5269733021
  },
  {
    "name": "شفیع نائی خانہ",
    "category": "shop",
    "subcategory": "cosmetics",
    "latitude": 34.2198299,
    "longitude": 71.5688119,
    "id": 5287397523
  },
  {
    "name": "Sun light Hair Dresser",
    "category": "shop",
    "subcategory": "cosmetics",
    "latitude": 34.2220269,
    "longitude": 71.5662337,
    "id": 5290932022
  },
  {
    "name": "place_of_worship",
    "category": "amenity",
    "subcategory": "place_of_worship",
    "latitude": 34.2113195,
    "longitude": 71.5689941,
    "id": 5542264923
  },
  {
    "name": "Malik Bargain",
    "category": "shop",
    "subcategory": "car",
    "latitude": 34.2111969,
    "longitude": 71.5684894,
    "id": 5542299021
  },
  {
    "name": "PEPSI Store",
    "category": "shop",
    "subcategory": "beverages",
    "latitude": 34.2095566,
    "longitude": 71.5688078,
    "id": 5963904487
  },
  {
    "name": "car_wash",
    "category": "amenity",
    "subcategory": "car_wash",
    "latitude": 34.2093839,
    "longitude": 71.5688442,
    "id": 5969006185
  },
  {
    "name": "Petrol Station",
    "category": "amenity",
    "subcategory": "fuel",
    "latitude": 34.222962,
    "longitude": 71.5763689,
    "id": 6369642385
  },
  {
    "name": "Frontier Students Academy",
    "category": "amenity",
    "subcategory": "school",
    "latitude": 34.2232319,
    "longitude": 71.5764088,
    "id": 6369642485
  },
  {
    "name": "Alfalah Bank",
    "category": "amenity",
    "subcategory": "bank",
    "latitude": 34.2205575,
    "longitude": 71.5661388,
    "id": 6385698387
  },
  {
    "name": "Chaman Ice Cream",
    "category": "amenity",
    "subcategory": "ice_cream",
    "latitude": 34.2206637,
    "longitude": 71.566101,
    "id": 6385698388
  },
  {
    "name": "Dr Mohammad Zaib",
    "category": "amenity",
    "subcategory": "doctors",
    "latitude": 34.2214556,
    "longitude": 71.5663778,
    "id": 6459076385
  },
  {
    "name": "Ittifaq bargain",
    "category": "shop",
    "subcategory": "car_parts",
    "latitude": 34.203707,
    "longitude": 71.5704895,
    "id": 6919612487
  },
  {
    "name": "Puncture Shop",
    "category": "shop",
    "subcategory": "car_repair",
    "latitude": 34.2037488,
    "longitude": 71.5707856,
    "id": 6919612586
  },
  {
    "name": "Govt Girls Degree College Shabqadar",
    "category": "amenity",
    "subcategory": "college",
    "latitude": 34.2189589,
    "longitude": 71.5628554,
    "id": 7873866685
  },
  {
    "name": "Car work shop",
    "category": "shop",
    "subcategory": "car_repair",
    "latitude": 34.2112999,
    "longitude": 71.5680384,
    "id": 7904027285
  },
  {
    "name": "Qadir Tandoor (metal oven)",
    "category": "amenity",
    "subcategory": "restaurant",
    "latitude": 34.2137347,
    "longitude": 71.5563755,
    "id": 7972125485
  },
  {
    "name": "نصرت زئ",
    "category": "place",
    "subcategory": "village",
    "latitude": 34.2134769,
    "longitude": 71.592679,
    "id": 8547954021
  },
  {
    "name": "Shah Electric Decorator",
    "category": "shop",
    "subcategory": "electronics",
    "latitude": 34.2212138,
    "longitude": 71.5664466,
    "id": 8658814517
  },
  {
    "name": "آٹکے",
    "category": "place",
    "subcategory": "village",
    "latitude": 34.2048808,
    "longitude": 71.5832289,
    "id": 8908484126
  },
  {
    "name": "دلزاک‎",
    "category": "place",
    "subcategory": "village",
    "latitude": 34.1858951,
    "longitude": 71.527195,
    "id": 8908484127
  },
  {
    "name": "دلہ زاک",
    "category": "place",
    "subcategory": "village",
    "latitude": 34.1820084,
    "longitude": 71.548435,
    "id": 9556881469
  },
  {
    "name": "Derakay",
    "category": "place",
    "subcategory": "village",
    "latitude": 34.1856531,
    "longitude": 71.5896856,
    "id": 9556881470
  },
  {
    "name": "میان قلعہ",
    "category": "place",
    "subcategory": "village",
    "latitude": 34.176106,
    "longitude": 71.5825202,
    "id": 9556881471
  },
  {
    "name": "خواجہ وس",
    "category": "place",
    "subcategory": "village",
    "latitude": 34.2384458,
    "longitude": 71.5516168,
    "id": 9557023061
  },
  {
    "name": "primary",
    "category": "highway",
    "subcategory": "primary",
    "latitude": 34.18739645904762,
    "longitude": 71.47611340095239,
    "id": 28018868
  },
  {
    "name": "islet",
    "category": "place",
    "subcategory": "islet",
    "latitude": 34.17151530112359,
    "longitude": 71.5559341,
    "id": 28087965
  },
  {
    "name": "islet",
    "category": "place",
    "subcategory": "islet",
    "latitude": 34.17553543235294,
    "longitude": 71.55518514117647,
    "id": 28087966
  },
  {
    "name": "islet",
    "category": "place",
    "subcategory": "islet",
    "latitude": 34.18063069166667,
    "longitude": 71.54168707083333,
    "id": 28088005
  },
  {
    "name": "islet",
    "category": "place",
    "subcategory": "islet",
    "latitude": 34.18144543950617,
    "longitude": 71.53497173580247,
    "id": 28088012
  },
  {
    "name": "Shabqadar Road",
    "category": "highway",
    "subcategory": "trunk",
    "latitude": 34.19049158,
    "longitude": 71.579517698,
    "id": 28251959
  },
  {
    "name": "Shabqadar Road",
    "category": "highway",
    "subcategory": "secondary",
    "latitude": 34.21975141014493,
    "longitude": 71.59118875362319,
    "id": 70853095
  },
  {
    "name": "residential",
    "category": "landuse",
    "subcategory": "residential",
    "latitude": 34.185804173076924,
    "longitude": 71.52690840384615,
    "id": 70980680
  },
  {
    "name": "residential",
    "category": "landuse",
    "subcategory": "residential",
    "latitude": 34.18750503766234,
    "longitude": 71.51341991558441,
    "id": 70980780
  },
  {
    "name": "tertiary",
    "category": "highway",
    "subcategory": "tertiary",
    "latitude": 34.246775246846845,
    "longitude": 71.58438042792793,
    "id": 70986434
  },
  {
    "name": "unclassified",
    "category": "highway",
    "subcategory": "unclassified",
    "latitude": 34.26086638421052,
    "longitude": 71.53579888596491,
    "id": 71813730
  },
  {
    "name": "unclassified",
    "category": "highway",
    "subcategory": "unclassified",
    "latitude": 34.25032105,
    "longitude": 71.52225135,
    "id": 71813836
  },
  {
    "name": "residential",
    "category": "landuse",
    "subcategory": "residential",
    "latitude": 34.2192288988764,
    "longitude": 71.5599227258427,
    "id": 71818351
  },
  {
    "name": "residential",
    "category": "landuse",
    "subcategory": "residential",
    "latitude": 34.24780325454546,
    "longitude": 71.58675569090909,
    "id": 71818906
  },
  {
    "name": "residential",
    "category": "landuse",
    "subcategory": "residential",
    "latitude": 34.2441852,
    "longitude": 71.57167290625,
    "id": 71819014
  },
  {
    "name": "residential",
    "category": "landuse",
    "subcategory": "residential",
    "latitude": 34.24139661666667,
    "longitude": 71.56256571666667,
    "id": 71819049
  },
  {
    "name": "residential",
    "category": "landuse",
    "subcategory": "residential",
    "latitude": 34.238827199999996,
    "longitude": 71.58327171818182,
    "id": 71819084
  },
  {
    "name": "unclassified",
    "category": "highway",
    "subcategory": "unclassified",
    "latitude": 34.23534436333333,
    "longitude": 71.51969344666666,
    "id": 71838253
  },
  {
    "name": "residential",
    "category": "landuse",
    "subcategory": "residential",
    "latitude": 34.190690245945945,
    "longitude": 71.5846461027027,
    "id": 71890020
  },
  {
    "name": "residential",
    "category": "landuse",
    "subcategory": "residential",
    "latitude": 34.18659506,
    "longitude": 71.58446326400001,
    "id": 71890022
  },
  {
    "name": "unclassified",
    "category": "highway",
    "subcategory": "unclassified",
    "latitude": 34.18940892222222,
    "longitude": 71.58311790555555,
    "id": 71890023
  },
  {
    "name": "unclassified",
    "category": "highway",
    "subcategory": "unclassified",
    "latitude": 34.18643291428572,
    "longitude": 71.58642590952381,
    "id": 71890024
  },
  {
    "name": "residential",
    "category": "landuse",
    "subcategory": "residential",
    "latitude": 34.17739052745098,
    "longitude": 71.59405188431373,
    "id": 71890025
  },
  {
    "name": "residential",
    "category": "landuse",
    "subcategory": "residential",
    "latitude": 34.18547975,
    "longitude": 71.58997630714286,
    "id": 71890050
  },
  {
    "name": "unclassified",
    "category": "highway",
    "subcategory": "unclassified",
    "latitude": 34.1977656048951,
    "longitude": 71.60691879090909,
    "id": 71890055
  },
  {
    "name": "unclassified",
    "category": "highway",
    "subcategory": "unclassified",
    "latitude": 34.21680679090909,
    "longitude": 71.59032754545454,
    "id": 71926647
  },
  {
    "name": "unclassified",
    "category": "highway",
    "subcategory": "unclassified",
    "latitude": 34.20497544920635,
    "longitude": 71.58697299047618,
    "id": 71926700
  },
  {
    "name": "unclassified",
    "category": "highway",
    "subcategory": "unclassified",
    "latitude": 34.20521991428571,
    "longitude": 71.58662200714285,
    "id": 71926707
  },
  {
    "name": "unclassified",
    "category": "highway",
    "subcategory": "unclassified",
    "latitude": 34.19206411538461,
    "longitude": 71.58220443846155,
    "id": 71926711
  },
  {
    "name": "unclassified",
    "category": "highway",
    "subcategory": "unclassified",
    "latitude": 34.19854091935484,
    "longitude": 71.5837326548387,
    "id": 71926719
  },
  {
    "name": "unclassified",
    "category": "highway",
    "subcategory": "unclassified",
    "latitude": 34.211415168965516,
    "longitude": 71.59351415862069,
    "id": 71926723
  },
  {
    "name": "residential",
    "category": "landuse",
    "subcategory": "residential",
    "latitude": 34.21285195714286,
    "longitude": 71.59281651714286,
    "id": 71926757
  },
  {
    "name": "residential",
    "category": "landuse",
    "subcategory": "residential",
    "latitude": 34.20415855106383,
    "longitude": 71.58398193191489,
    "id": 71926768
  },
  {
    "name": "residential",
    "category": "landuse",
    "subcategory": "residential",
    "latitude": 34.20188817368421,
    "longitude": 71.57768126842106,
    "id": 71926773
  },
  {
    "name": "residential",
    "category": "landuse",
    "subcategory": "residential",
    "latitude": 34.205451978571425,
    "longitude": 71.5782868357143,
    "id": 71926778
  },
  {
    "name": "unclassified",
    "category": "highway",
    "subcategory": "unclassified",
    "latitude": 34.182342502857146,
    "longitude": 71.59208088285715,
    "id": 71926784
  },
  {
    "name": "Shabqadar Road",
    "category": "highway",
    "subcategory": "secondary",
    "latitude": 34.25467930392157,
    "longitude": 71.56259344509805,
    "id": 72153847
  },
  {
    "name": "unclassified",
    "category": "highway",
    "subcategory": "unclassified",
    "latitude": 34.248331316666665,
    "longitude": 71.56902061000001,
    "id": 72155816
  },
  {
    "name": "tertiary",
    "category": "highway",
    "subcategory": "tertiary",
    "latitude": 34.25556659565217,
    "longitude": 71.5539879,
    "id": 72155908
  },
  {
    "name": "unclassified",
    "category": "highway",
    "subcategory": "unclassified",
    "latitude": 34.24471336086956,
    "longitude": 71.56709194347826,
    "id": 72155923
  },
  {
    "name": "unclassified",
    "category": "highway",
    "subcategory": "unclassified",
    "latitude": 34.24423177368421,
    "longitude": 71.55684220526317,
    "id": 72155927
  },
  {
    "name": "tertiary",
    "category": "highway",
    "subcategory": "tertiary",
    "latitude": 34.2420272575,
    "longitude": 71.54644736875,
    "id": 72156331
  },
  {
    "name": "residential",
    "category": "highway",
    "subcategory": "residential",
    "latitude": 34.240363875,
    "longitude": 71.5480539875,
    "id": 72235378
  },
  {
    "name": "track",
    "category": "highway",
    "subcategory": "track",
    "latitude": 34.2469140875,
    "longitude": 71.53926853125,
    "id": 72235403
  },
  {
    "name": "track",
    "category": "highway",
    "subcategory": "track",
    "latitude": 34.2400132,
    "longitude": 71.5442425,
    "id": 72235417
  },
  {
    "name": "track",
    "category": "highway",
    "subcategory": "track",
    "latitude": 34.2418225,
    "longitude": 71.5427995,
    "id": 72235418
  },
  {
    "name": "residential",
    "category": "highway",
    "subcategory": "residential",
    "latitude": 34.2374175875,
    "longitude": 71.5465728375,
    "id": 72235427
  },
  {
    "name": "track",
    "category": "highway",
    "subcategory": "track",
    "latitude": 34.24114996666667,
    "longitude": 71.54444456666666,
    "id": 72235434
  },
  {
    "name": "tertiary",
    "category": "highway",
    "subcategory": "tertiary",
    "latitude": 34.2212697,
    "longitude": 71.54246915555557,
    "id": 72235523
  },
  {
    "name": "tertiary",
    "category": "highway",
    "subcategory": "tertiary",
    "latitude": 34.22495495,
    "longitude": 71.5390364,
    "id": 72235525
  },
  {
    "name": "tertiary",
    "category": "highway",
    "subcategory": "tertiary",
    "latitude": 34.22741642857143,
    "longitude": 71.53520848571428,
    "id": 72235526
  },
  {
    "name": "tertiary",
    "category": "highway",
    "subcategory": "tertiary",
    "latitude": 34.213270879999996,
    "longitude": 71.54999796,
    "id": 72235550
  },
  {
    "name": "tertiary",
    "category": "highway",
    "subcategory": "tertiary",
    "latitude": 34.221263414999996,
    "longitude": 71.54795559499999,
    "id": 72235909
  },
  {
    "name": "unclassified",
    "category": "highway",
    "subcategory": "unclassified",
    "latitude": 34.22278333333334,
    "longitude": 71.55313118666666,
    "id": 72236110
  },
  {
    "name": "residential",
    "category": "landuse",
    "subcategory": "residential",
    "latitude": 34.2286484,
    "longitude": 71.54757825882353,
    "id": 72236250
  },
  {
    "name": "unclassified",
    "category": "highway",
    "subcategory": "unclassified",
    "latitude": 34.2296586375,
    "longitude": 71.54455097499999,
    "id": 72236353
  },
  {
    "name": "residential",
    "category": "highway",
    "subcategory": "residential",
    "latitude": 34.21925437142857,
    "longitude": 71.5483471142857,
    "id": 72236357
  },
  {
    "name": "unclassified",
    "category": "highway",
    "subcategory": "unclassified",
    "latitude": 34.20390885,
    "longitude": 71.55250338333333,
    "id": 72236438
  },
  {
    "name": "tertiary",
    "category": "highway",
    "subcategory": "tertiary",
    "latitude": 34.19969355714286,
    "longitude": 71.56436971904762,
    "id": 72236522
  },
  {
    "name": "tertiary",
    "category": "highway",
    "subcategory": "tertiary",
    "latitude": 34.21109393333333,
    "longitude": 71.55222308333333,
    "id": 72236543
  },
  {
    "name": "unclassified",
    "category": "highway",
    "subcategory": "unclassified",
    "latitude": 34.19219849411765,
    "longitude": 71.56596052941177,
    "id": 72236898
  },
  {
    "name": "residential",
    "category": "landuse",
    "subcategory": "residential",
    "latitude": 34.19204280909091,
    "longitude": 71.56545294545454,
    "id": 72237241
  },
  {
    "name": "unclassified",
    "category": "highway",
    "subcategory": "unclassified",
    "latitude": 34.24897956960784,
    "longitude": 71.50593722156863,
    "id": 72239660
  },
  {
    "name": "unclassified",
    "category": "highway",
    "subcategory": "unclassified",
    "latitude": 34.250079400000004,
    "longitude": 71.52229134999999,
    "id": 72239665
  },
  {
    "name": "Shabqadar Road",
    "category": "highway",
    "subcategory": "secondary",
    "latitude": 34.22256368461539,
    "longitude": 71.56900306923077,
    "id": 72454508
  },
  {
    "name": "residential",
    "category": "landuse",
    "subcategory": "residential",
    "latitude": 34.23159461428572,
    "longitude": 71.56718761428571,
    "id": 73054312
  },
  {
    "name": "residential",
    "category": "landuse",
    "subcategory": "residential",
    "latitude": 34.2368862125,
    "longitude": 71.5671951125,
    "id": 73054357
  },
  {
    "name": "residential",
    "category": "landuse",
    "subcategory": "residential",
    "latitude": 34.23738480714286,
    "longitude": 71.56966829285714,
    "id": 73054479
  },
  {
    "name": "unclassified",
    "category": "highway",
    "subcategory": "unclassified",
    "latitude": 34.24281241315789,
    "longitude": 71.5753905131579,
    "id": 73054783
  },
  {
    "name": "unclassified",
    "category": "highway",
    "subcategory": "unclassified",
    "latitude": 34.24031229166666,
    "longitude": 71.58080534166668,
    "id": 73055744
  },
  {
    "name": "residential",
    "category": "landuse",
    "subcategory": "residential",
    "latitude": 34.238584725,
    "longitude": 71.580408975,
    "id": 73055858
  },
  {
    "name": "residential",
    "category": "landuse",
    "subcategory": "residential",
    "latitude": 34.227613100000006,
    "longitude": 71.58399963157895,
    "id": 73056141
  },
  {
    "name": "unclassified",
    "category": "highway",
    "subcategory": "unclassified",
    "latitude": 34.23436748559322,
    "longitude": 71.59360888474576,
    "id": 73056785
  },
  {
    "name": "residential",
    "category": "landuse",
    "subcategory": "residential",
    "latitude": 34.18239293571428,
    "longitude": 71.54934089999999,
    "id": 73445870
  },
  {
    "name": "residential",
    "category": "landuse",
    "subcategory": "residential",
    "latitude": 34.18466868,
    "longitude": 71.58094554,
    "id": 73445876
  },
  {
    "name": "residential",
    "category": "landuse",
    "subcategory": "residential",
    "latitude": 34.176783425,
    "longitude": 71.5827974375,
    "id": 73445905
  },
  {
    "name": "residential",
    "category": "landuse",
    "subcategory": "residential",
    "latitude": 34.20347135714286,
    "longitude": 71.57199878571429,
    "id": 74837695
  },
  {
    "name": "residential",
    "category": "landuse",
    "subcategory": "residential",
    "latitude": 34.25009527619048,
    "longitude": 71.58835758095238,
    "id": 74837791
  },
  {
    "name": "unclassified",
    "category": "highway",
    "subcategory": "unclassified",
    "latitude": 34.25551286666667,
    "longitude": 71.59483119333332,
    "id": 74839123
  },
  {
    "name": "residential",
    "category": "landuse",
    "subcategory": "residential",
    "latitude": 34.25281168095238,
    "longitude": 71.59415318095238,
    "id": 74839124
  },
  {
    "name": "residential",
    "category": "landuse",
    "subcategory": "residential",
    "latitude": 34.255024271428574,
    "longitude": 71.59108085357143,
    "id": 74839129
  },
  {
    "name": "residential",
    "category": "highway",
    "subcategory": "residential",
    "latitude": 34.224517999999996,
    "longitude": 71.52217906666667,
    "id": 74839299
  },
  {
    "name": "residential",
    "category": "highway",
    "subcategory": "residential",
    "latitude": 34.22403789,
    "longitude": 71.52441137,
    "id": 74840050
  },
  {
    "name": "residential",
    "category": "highway",
    "subcategory": "residential",
    "latitude": 34.2247804375,
    "longitude": 71.52011905,
    "id": 74840058
  },
  {
    "name": "residential",
    "category": "highway",
    "subcategory": "residential",
    "latitude": 34.219773090000004,
    "longitude": 71.5219091,
    "id": 74840078
  },
  {
    "name": "residential",
    "category": "highway",
    "subcategory": "residential",
    "latitude": 34.22354541428572,
    "longitude": 71.52725405714286,
    "id": 74840079
  },
  {
    "name": "residential",
    "category": "highway",
    "subcategory": "residential",
    "latitude": 34.22303902,
    "longitude": 71.52589304,
    "id": 74840095
  },
  {
    "name": "residential",
    "category": "highway",
    "subcategory": "residential",
    "latitude": 34.22410955,
    "longitude": 71.521513,
    "id": 74840100
  },
  {
    "name": "residential",
    "category": "highway",
    "subcategory": "residential",
    "latitude": 34.22365488571428,
    "longitude": 71.51778212380952,
    "id": 74840101
  },
  {
    "name": "residential",
    "category": "highway",
    "subcategory": "residential",
    "latitude": 34.223347180000005,
    "longitude": 71.51779491333333,
    "id": 74840594
  },
  {
    "name": "unclassified",
    "category": "highway",
    "subcategory": "unclassified",
    "latitude": 34.21962683142857,
    "longitude": 71.52605480285715,
    "id": 74842936
  },
  {
    "name": "residential",
    "category": "highway",
    "subcategory": "residential",
    "latitude": 34.22417775,
    "longitude": 71.52944085,
    "id": 74842937
  },
  {
    "name": "residential",
    "category": "highway",
    "subcategory": "residential",
    "latitude": 34.22311535,
    "longitude": 71.53154062499999,
    "id": 74842938
  },
  {
    "name": "residential",
    "category": "highway",
    "subcategory": "residential",
    "latitude": 34.22252566666666,
    "longitude": 71.53327446666667,
    "id": 74842939
  },
  {
    "name": "residential",
    "category": "highway",
    "subcategory": "residential",
    "latitude": 34.222959100000004,
    "longitude": 71.530831475,
    "id": 74842940
  },
  {
    "name": "track",
    "category": "highway",
    "subcategory": "track",
    "latitude": 34.2190007625,
    "longitude": 71.5183949125,
    "id": 74842942
  },
  {
    "name": "track",
    "category": "highway",
    "subcategory": "track",
    "latitude": 34.21904512,
    "longitude": 71.5196317,
    "id": 74842943
  },
  {
    "name": "residential",
    "category": "highway",
    "subcategory": "residential",
    "latitude": 34.21943925714286,
    "longitude": 71.52112484285715,
    "id": 74842944
  },
  {
    "name": "residential",
    "category": "highway",
    "subcategory": "residential",
    "latitude": 34.218162171428574,
    "longitude": 71.5211067,
    "id": 74842945
  },
  {
    "name": "residential",
    "category": "highway",
    "subcategory": "residential",
    "latitude": 34.22641192,
    "longitude": 71.51518804,
    "id": 74842949
  },
  {
    "name": "residential",
    "category": "highway",
    "subcategory": "residential",
    "latitude": 34.225050949999996,
    "longitude": 71.515883,
    "id": 74842950
  },
  {
    "name": "residential",
    "category": "highway",
    "subcategory": "residential",
    "latitude": 34.22659983,
    "longitude": 71.5247311,
    "id": 74842951
  },
  {
    "name": "residential",
    "category": "highway",
    "subcategory": "residential",
    "latitude": 34.2263151,
    "longitude": 71.52638835,
    "id": 74842952
  },
  {
    "name": "residential",
    "category": "highway",
    "subcategory": "residential",
    "latitude": 34.225605387499996,
    "longitude": 71.527380325,
    "id": 74842953
  },
  {
    "name": "residential",
    "category": "highway",
    "subcategory": "residential",
    "latitude": 34.22625705,
    "longitude": 71.52158614999999,
    "id": 74842956
  },
  {
    "name": "residential",
    "category": "highway",
    "subcategory": "residential",
    "latitude": 34.22625415,
    "longitude": 71.52117874999999,
    "id": 74842957
  },
  {
    "name": "residential",
    "category": "highway",
    "subcategory": "residential",
    "latitude": 34.226091833333335,
    "longitude": 71.52165873333333,
    "id": 74842958
  },
  {
    "name": "residential",
    "category": "highway",
    "subcategory": "residential",
    "latitude": 34.2257716125,
    "longitude": 71.52014133750001,
    "id": 74842959
  },
  {
    "name": "residential",
    "category": "highway",
    "subcategory": "residential",
    "latitude": 34.22936108,
    "longitude": 71.526534188,
    "id": 74842960
  },
  {
    "name": "residential",
    "category": "highway",
    "subcategory": "residential",
    "latitude": 34.224829174999996,
    "longitude": 71.5239511,
    "id": 74842962
  },
  {
    "name": "residential",
    "category": "highway",
    "subcategory": "residential",
    "latitude": 34.225778399999996,
    "longitude": 71.52388135,
    "id": 74842963
  },
  {
    "name": "residential",
    "category": "highway",
    "subcategory": "residential",
    "latitude": 34.225179624999996,
    "longitude": 71.5231089,
    "id": 74842964
  },
  {
    "name": "residential",
    "category": "highway",
    "subcategory": "residential",
    "latitude": 34.22639831428571,
    "longitude": 71.52224727142857,
    "id": 74842965
  },
  {
    "name": "track",
    "category": "highway",
    "subcategory": "track",
    "latitude": 34.20465414,
    "longitude": 71.52931984,
    "id": 74843237
  },
  {
    "name": "unclassified",
    "category": "highway",
    "subcategory": "unclassified",
    "latitude": 34.201980582352945,
    "longitude": 71.52974565294119,
    "id": 74843242
  },
  {
    "name": "residential",
    "category": "highway",
    "subcategory": "residential",
    "latitude": 34.201256375,
    "longitude": 71.53437585,
    "id": 74843247
  },
  {
    "name": "residential",
    "category": "highway",
    "subcategory": "residential",
    "latitude": 34.202276733333335,
    "longitude": 71.5351513,
    "id": 74843248
  },
  {
    "name": "residential",
    "category": "highway",
    "subcategory": "residential",
    "latitude": 34.221840766666666,
    "longitude": 71.53014371111111,
    "id": 74843254
  },
  {
    "name": "residential",
    "category": "highway",
    "subcategory": "residential",
    "latitude": 34.221241725,
    "longitude": 71.528818125,
    "id": 74843256
  },
  {
    "name": "residential",
    "category": "highway",
    "subcategory": "residential",
    "latitude": 34.220987542857145,
    "longitude": 71.52685304285714,
    "id": 74843259
  },
  {
    "name": "track",
    "category": "highway",
    "subcategory": "track",
    "latitude": 34.20768636538462,
    "longitude": 71.52646688846154,
    "id": 74843271
  },
  {
    "name": "residential",
    "category": "highway",
    "subcategory": "residential",
    "latitude": 34.2062557,
    "longitude": 71.56238715,
    "id": 74843798
  },
  {
    "name": "residential",
    "category": "highway",
    "subcategory": "residential",
    "latitude": 34.20252163265306,
    "longitude": 71.56587593265306,
    "id": 74843799
  },
  {
    "name": "residential",
    "category": "highway",
    "subcategory": "residential",
    "latitude": 34.20297828,
    "longitude": 71.56362516,
    "id": 74843800
  },
  {
    "name": "residential",
    "category": "highway",
    "subcategory": "residential",
    "latitude": 34.20751606785714,
    "longitude": 71.56453443214285,
    "id": 74843801
  },
  {
    "name": "residential",
    "category": "highway",
    "subcategory": "residential",
    "latitude": 34.20540706190476,
    "longitude": 71.55867181904762,
    "id": 74843804
  },
  {
    "name": "residential",
    "category": "highway",
    "subcategory": "residential",
    "latitude": 34.2086332,
    "longitude": 71.55810446666666,
    "id": 74843805
  },
  {
    "name": "unclassified",
    "category": "highway",
    "subcategory": "unclassified",
    "latitude": 34.180130946666665,
    "longitude": 71.55640029999999,
    "id": 74844541
  },
  {
    "name": "unclassified",
    "category": "highway",
    "subcategory": "unclassified",
    "latitude": 34.1785631125,
    "longitude": 71.562227575,
    "id": 74844542
  },
  {
    "name": "unclassified",
    "category": "highway",
    "subcategory": "unclassified",
    "latitude": 34.178000966666666,
    "longitude": 71.5658007,
    "id": 74844543
  },
  {
    "name": "unclassified",
    "category": "highway",
    "subcategory": "unclassified",
    "latitude": 34.17875544166667,
    "longitude": 71.5699349,
    "id": 74844544
  },
  {
    "name": "unclassified",
    "category": "highway",
    "subcategory": "unclassified",
    "latitude": 34.18482036666666,
    "longitude": 71.56079767142857,
    "id": 74844546
  },
  {
    "name": "unclassified",
    "category": "highway",
    "subcategory": "unclassified",
    "latitude": 34.185888066666664,
    "longitude": 71.55472029444444,
    "id": 74844547
  },
  {
    "name": "unclassified",
    "category": "highway",
    "subcategory": "unclassified",
    "latitude": 34.1844157125,
    "longitude": 71.5570716375,
    "id": 74844550
  },
  {
    "name": "unclassified",
    "category": "highway",
    "subcategory": "unclassified",
    "latitude": 34.1918529,
    "longitude": 71.56944387619048,
    "id": 74844551
  },
  {
    "name": "unclassified",
    "category": "highway",
    "subcategory": "unclassified",
    "latitude": 34.18267017826087,
    "longitude": 71.5630633347826,
    "id": 74844552
  },
  {
    "name": "residential",
    "category": "highway",
    "subcategory": "residential",
    "latitude": 34.18616406666666,
    "longitude": 71.56649563333333,
    "id": 74844553
  },
  {
    "name": "residential",
    "category": "highway",
    "subcategory": "residential",
    "latitude": 34.1858527,
    "longitude": 71.56703703333334,
    "id": 74844554
  },
  {
    "name": "unclassified",
    "category": "highway",
    "subcategory": "unclassified",
    "latitude": 34.21197546,
    "longitude": 71.58291777,
    "id": 74845815
  },
  {
    "name": "unclassified",
    "category": "highway",
    "subcategory": "unclassified",
    "latitude": 34.21774725714286,
    "longitude": 71.57607233809524,
    "id": 74845817
  },
  {
    "name": "unclassified",
    "category": "highway",
    "subcategory": "unclassified",
    "latitude": 34.21557502272727,
    "longitude": 71.5846337409091,
    "id": 74845822
  },
  {
    "name": "residential",
    "category": "landuse",
    "subcategory": "residential",
    "latitude": 34.218675,
    "longitude": 71.58447522,
    "id": 74845825
  },
  {
    "name": "unclassified",
    "category": "highway",
    "subcategory": "unclassified",
    "latitude": 34.219431924999995,
    "longitude": 71.584381275,
    "id": 74845826
  },
  {
    "name": "farmyard",
    "category": "landuse",
    "subcategory": "farmyard",
    "latitude": 34.20550265,
    "longitude": 71.59170602500001,
    "id": 74845833
  },
  {
    "name": "unclassified",
    "category": "highway",
    "subcategory": "unclassified",
    "latitude": 34.21128982857143,
    "longitude": 71.58242388571429,
    "id": 74845837
  },
  {
    "name": "residential",
    "category": "landuse",
    "subcategory": "residential",
    "latitude": 34.21981588,
    "longitude": 71.58542475,
    "id": 74846081
  },
  {
    "name": "residential",
    "category": "landuse",
    "subcategory": "residential",
    "latitude": 34.22079852121212,
    "longitude": 71.58561626363637,
    "id": 74846082
  },
  {
    "name": "unclassified",
    "category": "highway",
    "subcategory": "unclassified",
    "latitude": 34.2235884,
    "longitude": 71.58573105,
    "id": 74846084
  },
  {
    "name": "retail",
    "category": "landuse",
    "subcategory": "retail",
    "latitude": 34.22044953333333,
    "longitude": 71.58252350476191,
    "id": 74846085
  },
  {
    "name": "landfill",
    "category": "landuse",
    "subcategory": "landfill",
    "latitude": 34.220094419999995,
    "longitude": 71.58437436,
    "id": 74846086
  },
  {
    "name": "residential",
    "category": "landuse",
    "subcategory": "residential",
    "latitude": 34.22387474,
    "longitude": 71.58445579333333,
    "id": 74846160
  },
  {
    "name": "unclassified",
    "category": "highway",
    "subcategory": "unclassified",
    "latitude": 34.22353575517241,
    "longitude": 71.58377457586207,
    "id": 74846161
  },
  {
    "name": "unclassified",
    "category": "highway",
    "subcategory": "unclassified",
    "latitude": 34.222809749999996,
    "longitude": 71.584343875,
    "id": 74846162
  },
  {
    "name": "unclassified",
    "category": "highway",
    "subcategory": "unclassified",
    "latitude": 34.23178610714286,
    "longitude": 71.5822795,
    "id": 74846174
  },
  {
    "name": "tertiary",
    "category": "highway",
    "subcategory": "tertiary",
    "latitude": 34.20783960666667,
    "longitude": 71.5026182888889,
    "id": 74846215
  },
  {
    "name": "secondary",
    "category": "highway",
    "subcategory": "secondary",
    "latitude": 34.20694303571428,
    "longitude": 71.51118322142857,
    "id": 74846341
  },
  {
    "name": "Fort Rd",
    "category": "highway",
    "subcategory": "service",
    "latitude": 34.22367372857143,
    "longitude": 71.56734744285714,
    "id": 74846393
  },
  {
    "name": "residential",
    "category": "landuse",
    "subcategory": "residential",
    "latitude": 34.22973612222222,
    "longitude": 71.58265574444445,
    "id": 74846394
  },
  {
    "name": "unclassified",
    "category": "highway",
    "subcategory": "unclassified",
    "latitude": 34.25172087234043,
    "longitude": 71.58277305319149,
    "id": 75110847
  },
  {
    "name": "unclassified",
    "category": "highway",
    "subcategory": "unclassified",
    "latitude": 34.25788574166666,
    "longitude": 71.58645965,
    "id": 75110853
  },
  {
    "name": "residential",
    "category": "landuse",
    "subcategory": "residential",
    "latitude": 34.25186426875,
    "longitude": 71.58258523125,
    "id": 75111053
  },
  {
    "name": "unclassified",
    "category": "highway",
    "subcategory": "unclassified",
    "latitude": 34.23115012948718,
    "longitude": 71.58914674871795,
    "id": 75112251
  },
  {
    "name": "residential",
    "category": "highway",
    "subcategory": "residential",
    "latitude": 34.246381275,
    "longitude": 71.5853996625,
    "id": 75112321
  },
  {
    "name": "unclassified",
    "category": "highway",
    "subcategory": "unclassified",
    "latitude": 34.18108302,
    "longitude": 71.55174678,
    "id": 75482929
  },
  {
    "name": "unclassified",
    "category": "highway",
    "subcategory": "unclassified",
    "latitude": 34.18214601818182,
    "longitude": 71.55038010909091,
    "id": 75482987
  },
  {
    "name": "unclassified",
    "category": "highway",
    "subcategory": "unclassified",
    "latitude": 34.18463899166667,
    "longitude": 71.54219076944445,
    "id": 75483153
  },
  {
    "name": "unclassified",
    "category": "highway",
    "subcategory": "unclassified",
    "latitude": 34.188422446153844,
    "longitude": 71.52755665769232,
    "id": 75483246
  },
  {
    "name": "unclassified",
    "category": "highway",
    "subcategory": "unclassified",
    "latitude": 34.186791649999996,
    "longitude": 71.524477675,
    "id": 75483382
  },
  {
    "name": "unclassified",
    "category": "highway",
    "subcategory": "unclassified",
    "latitude": 34.18553923846154,
    "longitude": 71.5256521923077,
    "id": 75483403
  },
  {
    "name": "unclassified",
    "category": "highway",
    "subcategory": "unclassified",
    "latitude": 34.1855743,
    "longitude": 71.52712232222223,
    "id": 75483422
  },
  {
    "name": "unclassified",
    "category": "highway",
    "subcategory": "unclassified",
    "latitude": 34.19127828,
    "longitude": 71.52803218,
    "id": 75483487
  },
  {
    "name": "unclassified",
    "category": "highway",
    "subcategory": "unclassified",
    "latitude": 34.18892549,
    "longitude": 71.52911542,
    "id": 75483501
  },
  {
    "name": "unclassified",
    "category": "highway",
    "subcategory": "unclassified",
    "latitude": 34.1915895,
    "longitude": 71.53390875416666,
    "id": 75483578
  },
  {
    "name": "unclassified",
    "category": "highway",
    "subcategory": "unclassified",
    "latitude": 34.1891225,
    "longitude": 71.550563275,
    "id": 75483587
  },
  {
    "name": "unclassified",
    "category": "highway",
    "subcategory": "unclassified",
    "latitude": 34.194091112500004,
    "longitude": 71.5474766375,
    "id": 75483755
  },
  {
    "name": "unclassified",
    "category": "highway",
    "subcategory": "unclassified",
    "latitude": 34.21307971666667,
    "longitude": 71.52403636666666,
    "id": 75483999
  },
  {
    "name": "track",
    "category": "highway",
    "subcategory": "track",
    "latitude": 34.20896628965517,
    "longitude": 71.58028000689654,
    "id": 76040742
  },
  {
    "name": "unclassified",
    "category": "highway",
    "subcategory": "unclassified",
    "latitude": 34.21285170588235,
    "longitude": 71.57349892941177,
    "id": 76040745
  },
  {
    "name": "unclassified",
    "category": "highway",
    "subcategory": "unclassified",
    "latitude": 34.20728508148148,
    "longitude": 71.57654194074074,
    "id": 76040752
  },
  {
    "name": "unclassified",
    "category": "highway",
    "subcategory": "unclassified",
    "latitude": 34.21171878378379,
    "longitude": 71.57305726486487,
    "id": 76040764
  },
  {
    "name": "unclassified",
    "category": "highway",
    "subcategory": "unclassified",
    "latitude": 34.21232255277778,
    "longitude": 71.56235162499999,
    "id": 76040775
  },
  {
    "name": "islet",
    "category": "place",
    "subcategory": "islet",
    "latitude": 34.18210551142857,
    "longitude": 71.52090642571427,
    "id": 78252865
  },
  {
    "name": "islet",
    "category": "place",
    "subcategory": "islet",
    "latitude": 34.18164602380952,
    "longitude": 71.51814871904762,
    "id": 78380626
  },
  {
    "name": "islet",
    "category": "place",
    "subcategory": "islet",
    "latitude": 34.17581876595745,
    "longitude": 71.52680921702128,
    "id": 78380627
  },
  {
    "name": "islet",
    "category": "place",
    "subcategory": "islet",
    "latitude": 34.178885613333335,
    "longitude": 71.51607990666666,
    "id": 78380628
  },
  {
    "name": "islet",
    "category": "place",
    "subcategory": "islet",
    "latitude": 34.17722978032787,
    "longitude": 71.5253380557377,
    "id": 78380630
  },
  {
    "name": "islet",
    "category": "place",
    "subcategory": "islet",
    "latitude": 34.17750431428571,
    "longitude": 71.52296528095238,
    "id": 78380713
  },
  {
    "name": "islet",
    "category": "place",
    "subcategory": "islet",
    "latitude": 34.17883711132075,
    "longitude": 71.51867691698114,
    "id": 78380721
  },
  {
    "name": "islet",
    "category": "place",
    "subcategory": "islet",
    "latitude": 34.17588715412371,
    "longitude": 71.51803929587628,
    "id": 78380774
  },
  {
    "name": "islet",
    "category": "place",
    "subcategory": "islet",
    "latitude": 34.180060432467535,
    "longitude": 71.51268097402597,
    "id": 78381541
  },
  {
    "name": "islet",
    "category": "place",
    "subcategory": "islet",
    "latitude": 34.18058892333333,
    "longitude": 71.53210983000001,
    "id": 78973686
  },
  {
    "name": "islet",
    "category": "place",
    "subcategory": "islet",
    "latitude": 34.180871061290325,
    "longitude": 71.52723599032258,
    "id": 78974010
  },
  {
    "name": "islet",
    "category": "place",
    "subcategory": "islet",
    "latitude": 34.174888165217396,
    "longitude": 71.53756275217391,
    "id": 78974012
  },
  {
    "name": "islet",
    "category": "place",
    "subcategory": "islet",
    "latitude": 34.17768382,
    "longitude": 71.53132037777777,
    "id": 78974015
  },
  {
    "name": "islet",
    "category": "place",
    "subcategory": "islet",
    "latitude": 34.18181942666667,
    "longitude": 71.52476823111111,
    "id": 78974711
  },
  {
    "name": "islet",
    "category": "place",
    "subcategory": "islet",
    "latitude": 34.178549745,
    "longitude": 71.52058306500001,
    "id": 78974713
  },
  {
    "name": "islet",
    "category": "place",
    "subcategory": "islet",
    "latitude": 34.18225483333333,
    "longitude": 71.52593023333333,
    "id": 78974716
  },
  {
    "name": "islet",
    "category": "place",
    "subcategory": "islet",
    "latitude": 34.17453050555556,
    "longitude": 71.56084681388889,
    "id": 78976321
  },
  {
    "name": "islet",
    "category": "place",
    "subcategory": "islet",
    "latitude": 34.177742126666665,
    "longitude": 71.55101358666666,
    "id": 79671020
  },
  {
    "name": "islet",
    "category": "place",
    "subcategory": "islet",
    "latitude": 34.17453800263158,
    "longitude": 71.56323311052631,
    "id": 79671099
  },
  {
    "name": "islet",
    "category": "place",
    "subcategory": "islet",
    "latitude": 34.17537259473684,
    "longitude": 71.56166736842106,
    "id": 79671102
  },
  {
    "name": "islet",
    "category": "place",
    "subcategory": "islet",
    "latitude": 34.17621606644737,
    "longitude": 71.5450637131579,
    "id": 79671103
  },
  {
    "name": "islet",
    "category": "place",
    "subcategory": "islet",
    "latitude": 34.1769968375,
    "longitude": 71.55082159375,
    "id": 79671115
  },
  {
    "name": "islet",
    "category": "place",
    "subcategory": "islet",
    "latitude": 34.17328430173913,
    "longitude": 71.54777068434782,
    "id": 79671117
  },
  {
    "name": "islet",
    "category": "place",
    "subcategory": "islet",
    "latitude": 34.174210951724135,
    "longitude": 71.55038450344829,
    "id": 79671118
  },
  {
    "name": "islet",
    "category": "place",
    "subcategory": "islet",
    "latitude": 34.1760134,
    "longitude": 71.55127755,
    "id": 79671120
  },
  {
    "name": "residential",
    "category": "highway",
    "subcategory": "residential",
    "latitude": 34.21576176666667,
    "longitude": 71.55671435000001,
    "id": 344256404
  },
  {
    "name": "residential",
    "category": "highway",
    "subcategory": "residential",
    "latitude": 34.209783175,
    "longitude": 71.5357887,
    "id": 344257218
  },
  {
    "name": "trunk",
    "category": "highway",
    "subcategory": "trunk",
    "latitude": 34.22355577672414,
    "longitude": 71.50851144051724,
    "id": 657021277
  },
  {
    "name": "residential",
    "category": "highway",
    "subcategory": "residential",
    "latitude": 34.208273739999996,
    "longitude": 71.53720594,
    "id": 657021279
  },
  {
    "name": "track",
    "category": "highway",
    "subcategory": "track",
    "latitude": 34.20690894285714,
    "longitude": 71.5295082,
    "id": 657021281
  },
  {
    "name": "unclassified",
    "category": "highway",
    "subcategory": "unclassified",
    "latitude": 34.24308175714286,
    "longitude": 71.56680362857142,
    "id": 665129507
  },
  {
    "name": "residential",
    "category": "highway",
    "subcategory": "residential",
    "latitude": 34.20331048064516,
    "longitude": 71.53189770645162,
    "id": 685712540
  },
  {
    "name": "residential",
    "category": "highway",
    "subcategory": "residential",
    "latitude": 34.20169043333333,
    "longitude": 71.5307444,
    "id": 685712542
  },
  {
    "name": "residential",
    "category": "highway",
    "subcategory": "residential",
    "latitude": 34.2074274,
    "longitude": 71.53484019999999,
    "id": 685715899
  },
  {
    "name": "residential",
    "category": "highway",
    "subcategory": "residential",
    "latitude": 34.20733684166667,
    "longitude": 71.53228675,
    "id": 685715900
  },
  {
    "name": "residential",
    "category": "highway",
    "subcategory": "residential",
    "latitude": 34.20695121666667,
    "longitude": 71.53439905,
    "id": 685715901
  },
  {
    "name": "residential",
    "category": "highway",
    "subcategory": "residential",
    "latitude": 34.2039218,
    "longitude": 71.53294885,
    "id": 685715902
  },
  {
    "name": "residential",
    "category": "highway",
    "subcategory": "residential",
    "latitude": 34.2042886125,
    "longitude": 71.53367685625,
    "id": 685715903
  },
  {
    "name": "residential",
    "category": "highway",
    "subcategory": "residential",
    "latitude": 34.2028678,
    "longitude": 71.536605175,
    "id": 685715904
  },
  {
    "name": "service",
    "category": "highway",
    "subcategory": "service",
    "latitude": 34.20625224,
    "longitude": 71.54138386,
    "id": 686727296
  },
  {
    "name": "service",
    "category": "highway",
    "subcategory": "service",
    "latitude": 34.21132275,
    "longitude": 71.54521625,
    "id": 686727297
  },
  {
    "name": "residential",
    "category": "highway",
    "subcategory": "residential",
    "latitude": 34.2114216,
    "longitude": 71.54723575714286,
    "id": 686727298
  },
  {
    "name": "residential",
    "category": "highway",
    "subcategory": "residential",
    "latitude": 34.2102806,
    "longitude": 71.54786882222223,
    "id": 686727299
  },
  {
    "name": "service",
    "category": "highway",
    "subcategory": "service",
    "latitude": 34.2098621125,
    "longitude": 71.546554525,
    "id": 686727300
  },
  {
    "name": "service",
    "category": "highway",
    "subcategory": "service",
    "latitude": 34.2104071,
    "longitude": 71.54579252857143,
    "id": 686727301
  },
  {
    "name": "service",
    "category": "highway",
    "subcategory": "service",
    "latitude": 34.210161916666664,
    "longitude": 71.54506816666667,
    "id": 686727302
  },
  {
    "name": "service",
    "category": "highway",
    "subcategory": "service",
    "latitude": 34.20947223,
    "longitude": 71.54532400000001,
    "id": 686727303
  },
  {
    "name": "service",
    "category": "highway",
    "subcategory": "service",
    "latitude": 34.21132304583333,
    "longitude": 71.54307955416667,
    "id": 686727304
  },
  {
    "name": "service",
    "category": "highway",
    "subcategory": "service",
    "latitude": 34.21193893636364,
    "longitude": 71.54441165454546,
    "id": 686727305
  },
  {
    "name": "service",
    "category": "highway",
    "subcategory": "service",
    "latitude": 34.2043332,
    "longitude": 71.54363680909091,
    "id": 686727306
  },
  {
    "name": "service",
    "category": "highway",
    "subcategory": "service",
    "latitude": 34.20627672,
    "longitude": 71.54169522,
    "id": 686727307
  },
  {
    "name": "service",
    "category": "highway",
    "subcategory": "service",
    "latitude": 34.20605201,
    "longitude": 71.54219438,
    "id": 686727308
  },
  {
    "name": "service",
    "category": "highway",
    "subcategory": "service",
    "latitude": 34.2097088,
    "longitude": 71.54267267142858,
    "id": 686727309
  },
  {
    "name": "service",
    "category": "highway",
    "subcategory": "service",
    "latitude": 34.20938802857143,
    "longitude": 71.54436217142857,
    "id": 686727310
  },
  {
    "name": "service",
    "category": "highway",
    "subcategory": "service",
    "latitude": 34.20880665,
    "longitude": 71.54385446666667,
    "id": 686727311
  },
  {
    "name": "service",
    "category": "highway",
    "subcategory": "service",
    "latitude": 34.2077874125,
    "longitude": 71.5449942,
    "id": 686727312
  },
  {
    "name": "Masjid Street",
    "category": "highway",
    "subcategory": "service",
    "latitude": 34.2084027,
    "longitude": 71.54319524444445,
    "id": 686727313
  },
  {
    "name": "residential",
    "category": "highway",
    "subcategory": "residential",
    "latitude": 34.2283824,
    "longitude": 71.53208140000001,
    "id": 693108880
  },
  {
    "name": "residential",
    "category": "highway",
    "subcategory": "residential",
    "latitude": 34.21556411875,
    "longitude": 71.5171049875,
    "id": 693109467
  },
  {
    "name": "residential",
    "category": "highway",
    "subcategory": "residential",
    "latitude": 34.215882888888885,
    "longitude": 71.52191725555555,
    "id": 702562641
  },
  {
    "name": "residential",
    "category": "highway",
    "subcategory": "residential",
    "latitude": 34.2229174,
    "longitude": 71.5357992,
    "id": 702562642
  },
  {
    "name": "residential",
    "category": "highway",
    "subcategory": "residential",
    "latitude": 34.23790640609756,
    "longitude": 71.54875616219512,
    "id": 702562643
  },
  {
    "name": "residential",
    "category": "highway",
    "subcategory": "residential",
    "latitude": 34.23881915,
    "longitude": 71.5508652,
    "id": 702562644
  },
  {
    "name": "residential",
    "category": "highway",
    "subcategory": "residential",
    "latitude": 34.238688100000005,
    "longitude": 71.5508801,
    "id": 702562645
  },
  {
    "name": "residential",
    "category": "highway",
    "subcategory": "residential",
    "latitude": 34.22340735,
    "longitude": 71.53566711666667,
    "id": 702562813
  },
  {
    "name": "service",
    "category": "highway",
    "subcategory": "service",
    "latitude": 34.19471235,
    "longitude": 71.5741803,
    "id": 702563028
  },
  {
    "name": "residential",
    "category": "highway",
    "subcategory": "residential",
    "latitude": 34.21811121538462,
    "longitude": 71.5590721,
    "id": 704984553
  },
  {
    "name": "residential",
    "category": "highway",
    "subcategory": "residential",
    "latitude": 34.21214107,
    "longitude": 71.55925298666666,
    "id": 704984554
  },
  {
    "name": "residential",
    "category": "highway",
    "subcategory": "residential",
    "latitude": 34.178308429411764,
    "longitude": 71.59509143529412,
    "id": 708577716
  },
  {
    "name": "residential",
    "category": "highway",
    "subcategory": "residential",
    "latitude": 34.17776511666667,
    "longitude": 71.59554295,
    "id": 708577717
  },
  {
    "name": "residential",
    "category": "highway",
    "subcategory": "residential",
    "latitude": 34.17513442,
    "longitude": 71.59675072,
    "id": 708577718
  },
  {
    "name": "residential",
    "category": "highway",
    "subcategory": "residential",
    "latitude": 34.1764022125,
    "longitude": 71.596173425,
    "id": 708577719
  },
  {
    "name": "residential",
    "category": "highway",
    "subcategory": "residential",
    "latitude": 34.17659671176471,
    "longitude": 71.59553855294118,
    "id": 708577720
  },
  {
    "name": "residential",
    "category": "highway",
    "subcategory": "residential",
    "latitude": 34.177310166666665,
    "longitude": 71.59558041666666,
    "id": 708577722
  },
  {
    "name": "Madina Masjid",
    "category": "landuse",
    "subcategory": "religious",
    "latitude": 34.21243821666666,
    "longitude": 71.56673511666666,
    "id": 836295693
  },
  {
    "name": "unclassified",
    "category": "highway",
    "subcategory": "unclassified",
    "latitude": 34.220125249999995,
    "longitude": 71.5554171,
    "id": 885270819
  },
  {
    "name": "unclassified",
    "category": "highway",
    "subcategory": "unclassified",
    "latitude": 34.22007465,
    "longitude": 71.5551913,
    "id": 885270820
  },
  {
    "name": "residential",
    "category": "highway",
    "subcategory": "residential",
    "latitude": 34.2191429,
    "longitude": 71.55998813333333,
    "id": 885270821
  },
  {
    "name": "residential",
    "category": "highway",
    "subcategory": "residential",
    "latitude": 34.2189890368421,
    "longitude": 71.56091230526316,
    "id": 885270822
  },
  {
    "name": "residential",
    "category": "highway",
    "subcategory": "residential",
    "latitude": 34.21542255,
    "longitude": 71.55767221666666,
    "id": 885270823
  },
  {
    "name": "residential",
    "category": "highway",
    "subcategory": "residential",
    "latitude": 34.21489606666667,
    "longitude": 71.557315,
    "id": 885270824
  },
  {
    "name": "residential",
    "category": "highway",
    "subcategory": "residential",
    "latitude": 34.215377339999996,
    "longitude": 71.55727476,
    "id": 885270825
  },
  {
    "name": "residential",
    "category": "highway",
    "subcategory": "residential",
    "latitude": 34.216477633333334,
    "longitude": 71.55560476666666,
    "id": 885270826
  },
  {
    "name": "residential",
    "category": "highway",
    "subcategory": "residential",
    "latitude": 34.21661341666667,
    "longitude": 71.55596868333333,
    "id": 885270827
  },
  {
    "name": "residential",
    "category": "highway",
    "subcategory": "residential",
    "latitude": 34.2176222,
    "longitude": 71.55866375,
    "id": 885270828
  },
  {
    "name": "residential",
    "category": "highway",
    "subcategory": "residential",
    "latitude": 34.221404199999995,
    "longitude": 71.55887655000001,
    "id": 885283324
  },
  {
    "name": "residential",
    "category": "highway",
    "subcategory": "residential",
    "latitude": 34.221653875,
    "longitude": 71.558705375,
    "id": 885283325
  },
  {
    "name": "residential",
    "category": "highway",
    "subcategory": "residential",
    "latitude": 34.2213206,
    "longitude": 71.55854302857144,
    "id": 885283326
  },
  {
    "name": "residential",
    "category": "highway",
    "subcategory": "residential",
    "latitude": 34.22367020666666,
    "longitude": 71.55551364,
    "id": 885283327
  },
  {
    "name": "trunk",
    "category": "highway",
    "subcategory": "trunk",
    "latitude": 34.21483415,
    "longitude": 71.55015845,
    "id": 911040266
  },
  {
    "name": "residential",
    "category": "highway",
    "subcategory": "residential",
    "latitude": 34.24318482142857,
    "longitude": 71.57131355,
    "id": 966291652
  },
  {
    "name": "residential",
    "category": "highway",
    "subcategory": "residential",
    "latitude": 34.242230925,
    "longitude": 71.571979575,
    "id": 966291653
  },
  {
    "name": "unclassified",
    "category": "highway",
    "subcategory": "unclassified",
    "latitude": 34.25964564230769,
    "longitude": 71.53148506923077,
    "id": 967930170
  },
  {
    "name": "track",
    "category": "highway",
    "subcategory": "track",
    "latitude": 34.25846714086021,
    "longitude": 71.52457069892473,
    "id": 967930171
  },
  {
    "name": "track",
    "category": "highway",
    "subcategory": "track",
    "latitude": 34.252302585,
    "longitude": 71.5222679325,
    "id": 967930172
  },
  {
    "name": "track",
    "category": "highway",
    "subcategory": "track",
    "latitude": 34.260400485333335,
    "longitude": 71.52165549933333,
    "id": 967930173
  },
  {
    "name": "residential",
    "category": "highway",
    "subcategory": "residential",
    "latitude": 34.251963282758624,
    "longitude": 71.51750782758621,
    "id": 967933006
  },
  {
    "name": "unclassified",
    "category": "highway",
    "subcategory": "unclassified",
    "latitude": 34.24973352,
    "longitude": 71.52341221,
    "id": 967933007
  },
  {
    "name": "unclassified",
    "category": "highway",
    "subcategory": "unclassified",
    "latitude": 34.21692376428572,
    "longitude": 71.58251684285715,
    "id": 997576737
  },
  {
    "name": "unclassified",
    "category": "highway",
    "subcategory": "unclassified",
    "latitude": 34.21134856808511,
    "longitude": 71.57783665957447,
    "id": 997577753
  },
  {
    "name": "residential",
    "category": "highway",
    "subcategory": "residential",
    "latitude": 34.209082245000005,
    "longitude": 71.567405055,
    "id": 997578115
  },
  {
    "name": "residential",
    "category": "highway",
    "subcategory": "residential",
    "latitude": 34.21183472,
    "longitude": 71.56741626,
    "id": 997578116
  },
  {
    "name": "residential",
    "category": "highway",
    "subcategory": "residential",
    "latitude": 34.200252210526315,
    "longitude": 71.5223282631579,
    "id": 997578690
  },
  {
    "name": "residential",
    "category": "highway",
    "subcategory": "residential",
    "latitude": 34.20766,
    "longitude": 71.51883345,
    "id": 997578691
  },
  {
    "name": "residential",
    "category": "highway",
    "subcategory": "residential",
    "latitude": 34.2047248,
    "longitude": 71.522268475,
    "id": 997578692
  },
  {
    "name": "residential",
    "category": "landuse",
    "subcategory": "residential",
    "latitude": 34.240612943589745,
    "longitude": 71.5502076923077,
    "id": 1037458167
  },
  {
    "name": "residential",
    "category": "landuse",
    "subcategory": "residential",
    "latitude": 34.2613160340909,
    "longitude": 71.54670866363637,
    "id": 1037468337
  },
  {
    "name": "residential",
    "category": "highway",
    "subcategory": "residential",
    "latitude": 34.212468,
    "longitude": 71.56767365,
    "id": 1090860675
  },
  {
    "name": "residential",
    "category": "highway",
    "subcategory": "residential",
    "latitude": 34.210912525,
    "longitude": 71.564234575,
    "id": 1090860676
  },
  {
    "name": "residential",
    "category": "highway",
    "subcategory": "residential",
    "latitude": 34.213130799999995,
    "longitude": 71.5654838,
    "id": 1090860677
  },
  {
    "name": "residential",
    "category": "highway",
    "subcategory": "residential",
    "latitude": 34.21351263333333,
    "longitude": 71.56495185,
    "id": 1090860678
  },
  {
    "name": "residential",
    "category": "highway",
    "subcategory": "residential",
    "latitude": 34.236890700000004,
    "longitude": 71.5433223,
    "id": 1091315369
  },
  {
    "name": "residential",
    "category": "highway",
    "subcategory": "residential",
    "latitude": 34.238296399999996,
    "longitude": 71.54295665000001,
    "id": 1091315370
  },
  {
    "name": "residential",
    "category": "highway",
    "subcategory": "residential",
    "latitude": 34.237966979999996,
    "longitude": 71.54327522,
    "id": 1091315371
  },
  {
    "name": "residential",
    "category": "highway",
    "subcategory": "residential",
    "latitude": 34.23802446,
    "longitude": 71.54292782,
    "id": 1091315372
  },
  {
    "name": "residential",
    "category": "highway",
    "subcategory": "residential",
    "latitude": 34.237183675,
    "longitude": 71.543361675,
    "id": 1091315373
  },
  {
    "name": "residential",
    "category": "highway",
    "subcategory": "residential",
    "latitude": 34.23685945,
    "longitude": 71.54895504999999,
    "id": 1091315374
  },
  {
    "name": "residential",
    "category": "highway",
    "subcategory": "residential",
    "latitude": 34.2373638,
    "longitude": 71.5493718,
    "id": 1091315375
  },
  {
    "name": "residential",
    "category": "highway",
    "subcategory": "residential",
    "latitude": 34.2355407,
    "longitude": 71.5479811,
    "id": 1091315376
  },
  {
    "name": "residential",
    "category": "highway",
    "subcategory": "residential",
    "latitude": 34.23523965,
    "longitude": 71.54570964999999,
    "id": 1091315377
  },
  {
    "name": "residential",
    "category": "highway",
    "subcategory": "residential",
    "latitude": 34.23645705,
    "longitude": 71.54344575,
    "id": 1091315378
  },
  {
    "name": "residential",
    "category": "highway",
    "subcategory": "residential",
    "latitude": 34.235770723076925,
    "longitude": 71.54377508461539,
    "id": 1091315379
  },
  {
    "name": "residential",
    "category": "highway",
    "subcategory": "residential",
    "latitude": 34.236567560000005,
    "longitude": 71.5449737,
    "id": 1091315380
  },
  {
    "name": "residential",
    "category": "highway",
    "subcategory": "residential",
    "latitude": 34.23595345,
    "longitude": 71.54719655,
    "id": 1091315381
  },
  {
    "name": "residential",
    "category": "highway",
    "subcategory": "residential",
    "latitude": 34.236504242857144,
    "longitude": 71.54639752857143,
    "id": 1091315382
  },
  {
    "name": "unclassified",
    "category": "highway",
    "subcategory": "unclassified",
    "latitude": 34.18498063333333,
    "longitude": 71.57142533333332,
    "id": 1126731381
  },
  {
    "name": "residential",
    "category": "highway",
    "subcategory": "residential",
    "latitude": 34.216509699999996,
    "longitude": 71.55538326666665,
    "id": 1185363345
  },
  {
    "name": "residential",
    "category": "highway",
    "subcategory": "residential",
    "latitude": 34.216171522222226,
    "longitude": 71.55463046666667,
    "id": 1185363346
  },
  {
    "name": "residential",
    "category": "highway",
    "subcategory": "residential",
    "latitude": 34.216699385714286,
    "longitude": 71.55476587142857,
    "id": 1185363347
  },
  {
    "name": "residential",
    "category": "highway",
    "subcategory": "residential",
    "latitude": 34.22000485,
    "longitude": 71.55048364999999,
    "id": 1185363348
  },
  {
    "name": "residential",
    "category": "highway",
    "subcategory": "residential",
    "latitude": 34.219947499999996,
    "longitude": 71.55079343333334,
    "id": 1185363349
  },
  {
    "name": "residential",
    "category": "highway",
    "subcategory": "residential",
    "latitude": 34.219442220000005,
    "longitude": 71.55357289999999,
    "id": 1185363350
  },
  {
    "name": "residential",
    "category": "highway",
    "subcategory": "residential",
    "latitude": 34.217936225,
    "longitude": 71.5549830875,
    "id": 1185363351
  },
  {
    "name": "residential",
    "category": "highway",
    "subcategory": "residential",
    "latitude": 34.21770226666667,
    "longitude": 71.5521999,
    "id": 1185363352
  },
  {
    "name": "residential",
    "category": "highway",
    "subcategory": "residential",
    "latitude": 34.219871766666664,
    "longitude": 71.53946578333334,
    "id": 1190866167
  },
  {
    "name": "residential",
    "category": "highway",
    "subcategory": "residential",
    "latitude": 34.219668049999996,
    "longitude": 71.54251165,
    "id": 1190866168
  },
  {
    "name": "residential",
    "category": "highway",
    "subcategory": "residential",
    "latitude": 34.22016704285714,
    "longitude": 71.54152132857142,
    "id": 1190866169
  },
  {
    "name": "residential",
    "category": "highway",
    "subcategory": "residential",
    "latitude": 34.2200909,
    "longitude": 71.54564305,
    "id": 1190866170
  },
  {
    "name": "residential",
    "category": "highway",
    "subcategory": "residential",
    "latitude": 34.22038891666667,
    "longitude": 71.54488763333333,
    "id": 1190866171
  },
  {
    "name": "unclassified",
    "category": "highway",
    "subcategory": "unclassified",
    "latitude": 34.18451660952381,
    "longitude": 71.58893574761905,
    "id": 1220580365
  },
  {
    "name": "residential",
    "category": "highway",
    "subcategory": "residential",
    "latitude": 34.24808004285715,
    "longitude": 71.58781538571428,
    "id": 1227623746
  },
  {
    "name": "unclassified",
    "category": "highway",
    "subcategory": "unclassified",
    "latitude": 34.24877029350649,
    "longitude": 71.59271983116884,
    "id": 1227623747
  },
  {
    "name": "unclassified",
    "category": "highway",
    "subcategory": "unclassified",
    "latitude": 34.179591779999996,
    "longitude": 71.58154362,
    "id": 1227626754
  },
  {
    "name": "service",
    "category": "highway",
    "subcategory": "service",
    "latitude": 34.1921147,
    "longitude": 71.57546475000001,
    "id": 1242346481
  },
  {
    "name": "residential",
    "category": "highway",
    "subcategory": "residential",
    "latitude": 34.21209878333333,
    "longitude": 71.55271555,
    "id": 1244176428
  },
  {
    "name": "residential",
    "category": "highway",
    "subcategory": "residential",
    "latitude": 34.214774088888895,
    "longitude": 71.55348854444445,
    "id": 1244176429
  },
  {
    "name": "residential",
    "category": "highway",
    "subcategory": "residential",
    "latitude": 34.18763920000001,
    "longitude": 71.51597676666667,
    "id": 1246961149
  },
  {
    "name": "residential",
    "category": "highway",
    "subcategory": "residential",
    "latitude": 34.216088533333334,
    "longitude": 71.55402676666667,
    "id": 1247467384
  },
  {
    "name": "residential",
    "category": "highway",
    "subcategory": "residential",
    "latitude": 34.21487915,
    "longitude": 71.55307429999999,
    "id": 1247467385
  },
  {
    "name": "residential",
    "category": "highway",
    "subcategory": "residential",
    "latitude": 34.21310988571428,
    "longitude": 71.55465184285714,
    "id": 1247467386
  },
  {
    "name": "residential",
    "category": "highway",
    "subcategory": "residential",
    "latitude": 34.20887039473684,
    "longitude": 71.55397875789474,
    "id": 1247467387
  },
  {
    "name": "residential",
    "category": "highway",
    "subcategory": "residential",
    "latitude": 34.211532,
    "longitude": 71.5532706,
    "id": 1247467388
  },
  {
    "name": "residential",
    "category": "highway",
    "subcategory": "residential",
    "latitude": 34.21182033,
    "longitude": 71.55335877,
    "id": 1247467389
  },
  {
    "name": "residential",
    "category": "highway",
    "subcategory": "residential",
    "latitude": 34.21158705,
    "longitude": 71.554210575,
    "id": 1247467390
  },
  {
    "name": "residential",
    "category": "highway",
    "subcategory": "residential",
    "latitude": 34.212714160000004,
    "longitude": 71.55346052,
    "id": 1247467391
  },
  {
    "name": "residential",
    "category": "highway",
    "subcategory": "residential",
    "latitude": 34.25272483333333,
    "longitude": 71.5811945,
    "id": 1373898347
  },
  {
    "name": "residential",
    "category": "highway",
    "subcategory": "residential",
    "latitude": 34.25247095,
    "longitude": 71.581505225,
    "id": 1373898348
  },
  {
    "name": "unclassified",
    "category": "highway",
    "subcategory": "unclassified",
    "latitude": 34.25383968888889,
    "longitude": 71.58110391111111,
    "id": 1373898349
  },
  {
    "name": "residential",
    "category": "highway",
    "subcategory": "residential",
    "latitude": 34.2516041125,
    "longitude": 71.5823270125,
    "id": 1373898350
  },
  {
    "name": "trunk_link",
    "category": "highway",
    "subcategory": "trunk_link",
    "latitude": 34.21674695,
    "longitude": 71.56724405,
    "id": 1408709753
  },
  {
    "name": "trunk",
    "category": "highway",
    "subcategory": "trunk",
    "latitude": 34.22182185,
    "longitude": 71.56364447499999,
    "id": 1408709754
  },
  {
    "name": "trunk",
    "category": "highway",
    "subcategory": "trunk",
    "latitude": 34.221871325,
    "longitude": 71.563577375,
    "id": 1408709755
  },
  {
    "name": "trunk_link",
    "category": "highway",
    "subcategory": "trunk_link",
    "latitude": 34.2177693,
    "longitude": 71.56698225,
    "id": 1408709756
  },
  {
    "name": "trunk_link",
    "category": "highway",
    "subcategory": "trunk_link",
    "latitude": 34.20530415,
    "longitude": 71.57022055,
    "id": 1408709757
  },
  {
    "name": "trunk_link",
    "category": "highway",
    "subcategory": "trunk_link",
    "latitude": 34.19166405,
    "longitude": 71.57616765,
    "id": 1408709758
  },
  {
    "name": "unclassified",
    "category": "highway",
    "subcategory": "unclassified",
    "latitude": 34.18693233571428,
    "longitude": 71.57584357142858,
    "id": 1408709759
  },
  {
    "name": "trunk_link",
    "category": "highway",
    "subcategory": "trunk_link",
    "latitude": 34.18416875,
    "longitude": 71.5808054,
    "id": 1408709760
  },
  {
    "name": "Shabqadar Road",
    "category": "highway",
    "subcategory": "trunk",
    "latitude": 34.19108207058824,
    "longitude": 71.57919302941177,
    "id": 1408709762
  },
  {
    "name": "trunk",
    "category": "highway",
    "subcategory": "trunk",
    "latitude": 34.20851035,
    "longitude": 71.5422388,
    "id": 1408709935
  },
  {
    "name": "trunk",
    "category": "highway",
    "subcategory": "trunk",
    "latitude": 34.20314042,
    "longitude": 71.53554536666667,
    "id": 1408709936
  },
  {
    "name": "trunk",
    "category": "highway",
    "subcategory": "trunk",
    "latitude": 34.22245036842105,
    "longitude": 71.56568307894737,
    "id": 1408825116
  },
  {
    "name": "residential",
    "category": "highway",
    "subcategory": "residential",
    "latitude": 34.20888765,
    "longitude": 71.55836145,
    "id": 1415289265
  },
  {
    "name": "residential",
    "category": "highway",
    "subcategory": "residential",
    "latitude": 34.207263866666665,
    "longitude": 71.55873466666667,
    "id": 1415289266
  },
  {
    "name": "residential",
    "category": "highway",
    "subcategory": "residential",
    "latitude": 34.2078966,
    "longitude": 71.55909109999999,
    "id": 1415289267
  },
  {
    "name": "residential",
    "category": "highway",
    "subcategory": "residential",
    "latitude": 34.20658286666667,
    "longitude": 71.55750333333333,
    "id": 1415485964
  },
  {
    "name": "residential",
    "category": "highway",
    "subcategory": "residential",
    "latitude": 34.20674675,
    "longitude": 71.55758125,
    "id": 1415485965
  },
  {
    "name": "residential",
    "category": "highway",
    "subcategory": "residential",
    "latitude": 34.20684443333334,
    "longitude": 71.5578986,
    "id": 1415485966
  },
  {
    "name": "residential",
    "category": "highway",
    "subcategory": "residential",
    "latitude": 34.210053720000005,
    "longitude": 71.5602167,
    "id": 1415485967
  },
  {
    "name": "residential",
    "category": "highway",
    "subcategory": "residential",
    "latitude": 34.2097116,
    "longitude": 71.5594033,
    "id": 1415485968
  },
  {
    "name": "residential",
    "category": "highway",
    "subcategory": "residential",
    "latitude": 34.212510525,
    "longitude": 71.564217725,
    "id": 1415485969
  },
  {
    "name": "residential",
    "category": "highway",
    "subcategory": "residential",
    "latitude": 34.21255635,
    "longitude": 71.5647066,
    "id": 1415485970
  },
  {
    "name": "residential",
    "category": "highway",
    "subcategory": "residential",
    "latitude": 34.21175553333333,
    "longitude": 71.56521,
    "id": 1415485971
  },
  {
    "name": "residential",
    "category": "highway",
    "subcategory": "residential",
    "latitude": 34.21099082857143,
    "longitude": 71.56306864285715,
    "id": 1415485972
  },
  {
    "name": "residential",
    "category": "highway",
    "subcategory": "residential",
    "latitude": 34.2109636,
    "longitude": 71.56367399999999,
    "id": 1415485973
  },
  {
    "name": "residential",
    "category": "highway",
    "subcategory": "residential",
    "latitude": 34.210936014285714,
    "longitude": 71.56082424285714,
    "id": 1415485974
  },
  {
    "name": "residential",
    "category": "highway",
    "subcategory": "residential",
    "latitude": 34.2102133,
    "longitude": 71.56308855,
    "id": 1415485975
  },
  {
    "name": "residential",
    "category": "highway",
    "subcategory": "residential",
    "latitude": 34.21057345,
    "longitude": 71.5629077,
    "id": 1415485976
  },
  {
    "name": "residential",
    "category": "highway",
    "subcategory": "residential",
    "latitude": 34.1980808625,
    "longitude": 71.5668126625,
    "id": 1436755226
  },
  {
    "name": "residential",
    "category": "highway",
    "subcategory": "residential",
    "latitude": 34.19784178333333,
    "longitude": 71.56913581666667,
    "id": 1436755227
  },
  {
    "name": "islet",
    "category": "place",
    "subcategory": "islet",
    "latitude": 34.17155499550562,
    "longitude": 71.55591451123595,
    "id": 28087965
  },
  {
    "name": "islet",
    "category": "place",
    "subcategory": "islet",
    "latitude": 34.17555840588235,
    "longitude": 71.55517449411765,
    "id": 28087966
  },
  {
    "name": "islet",
    "category": "place",
    "subcategory": "islet",
    "latitude": 34.18063577916667,
    "longitude": 71.54166539166667,
    "id": 28088005
  },
  {
    "name": "islet",
    "category": "place",
    "subcategory": "islet",
    "latitude": 34.18144746666667,
    "longitude": 71.5349713382716,
    "id": 28088012
  },
  {
    "name": "residential",
    "category": "landuse",
    "subcategory": "residential",
    "latitude": 34.185794953846155,
    "longitude": 71.52690303846154,
    "id": 70980680
  },
  {
    "name": "residential",
    "category": "landuse",
    "subcategory": "residential",
    "latitude": 34.18748678441558,
    "longitude": 71.51340774545454,
    "id": 70980780
  },
  {
    "name": "residential",
    "category": "landuse",
    "subcategory": "residential",
    "latitude": 34.219057024719106,
    "longitude": 71.55971947977528,
    "id": 71818351
  },
  {
    "name": "residential",
    "category": "landuse",
    "subcategory": "residential",
    "latitude": 34.2478484,
    "longitude": 71.58672058181818,
    "id": 71818906
  },
  {
    "name": "residential",
    "category": "landuse",
    "subcategory": "residential",
    "latitude": 34.2443138,
    "longitude": 71.571436875,
    "id": 71819014
  },
  {
    "name": "residential",
    "category": "landuse",
    "subcategory": "residential",
    "latitude": 34.24142618333334,
    "longitude": 71.562225975,
    "id": 71819049
  },
  {
    "name": "residential",
    "category": "landuse",
    "subcategory": "residential",
    "latitude": 34.238756245454546,
    "longitude": 71.5832405,
    "id": 71819084
  },
  {
    "name": "residential",
    "category": "landuse",
    "subcategory": "residential",
    "latitude": 34.19068161081081,
    "longitude": 71.58464088378379,
    "id": 71890020
  },
  {
    "name": "residential",
    "category": "landuse",
    "subcategory": "residential",
    "latitude": 34.186530448,
    "longitude": 71.58440747600001,
    "id": 71890022
  },
  {
    "name": "residential",
    "category": "landuse",
    "subcategory": "residential",
    "latitude": 34.17741454509804,
    "longitude": 71.59392629411765,
    "id": 71890025
  },
  {
    "name": "residential",
    "category": "landuse",
    "subcategory": "residential",
    "latitude": 34.18547975,
    "longitude": 71.58997630714286,
    "id": 71890050
  },
  {
    "name": "residential",
    "category": "landuse",
    "subcategory": "residential",
    "latitude": 34.212844097142856,
    "longitude": 71.59277850857143,
    "id": 71926757
  },
  {
    "name": "residential",
    "category": "landuse",
    "subcategory": "residential",
    "latitude": 34.20411512978723,
    "longitude": 71.58391276382979,
    "id": 71926768
  },
  {
    "name": "residential",
    "category": "landuse",
    "subcategory": "residential",
    "latitude": 34.20188817368421,
    "longitude": 71.57768126842106,
    "id": 71926773
  },
  {
    "name": "residential",
    "category": "landuse",
    "subcategory": "residential",
    "latitude": 34.20538796428571,
    "longitude": 71.57817801428571,
    "id": 71926778
  },
  {
    "name": "residential",
    "category": "landuse",
    "subcategory": "residential",
    "latitude": 34.22869484117647,
    "longitude": 71.54754039411765,
    "id": 72236250
  },
  {
    "name": "residential",
    "category": "landuse",
    "subcategory": "residential",
    "latitude": 34.1921216060606,
    "longitude": 71.56538174242425,
    "id": 72237241
  },
  {
    "name": "residential",
    "category": "landuse",
    "subcategory": "residential",
    "latitude": 34.23159461428572,
    "longitude": 71.56718761428571,
    "id": 73054312
  },
  {
    "name": "residential",
    "category": "landuse",
    "subcategory": "residential",
    "latitude": 34.2368862125,
    "longitude": 71.5671951125,
    "id": 73054357
  },
  {
    "name": "residential",
    "category": "landuse",
    "subcategory": "residential",
    "latitude": 34.23738480714286,
    "longitude": 71.56966829285714,
    "id": 73054479
  },
  {
    "name": "residential",
    "category": "landuse",
    "subcategory": "residential",
    "latitude": 34.23862685,
    "longitude": 71.580167575,
    "id": 73055858
  },
  {
    "name": "residential",
    "category": "landuse",
    "subcategory": "residential",
    "latitude": 34.227613100000006,
    "longitude": 71.58399963157895,
    "id": 73056141
  },
  {
    "name": "residential",
    "category": "landuse",
    "subcategory": "residential",
    "latitude": 34.18231170714286,
    "longitude": 71.54920358571428,
    "id": 73445870
  },
  {
    "name": "residential",
    "category": "landuse",
    "subcategory": "residential",
    "latitude": 34.18466868,
    "longitude": 71.58094554,
    "id": 73445876
  },
  {
    "name": "residential",
    "category": "landuse",
    "subcategory": "residential",
    "latitude": 34.17672363125,
    "longitude": 71.58276698125,
    "id": 73445905
  },
  {
    "name": "residential",
    "category": "landuse",
    "subcategory": "residential",
    "latitude": 34.20347135714286,
    "longitude": 71.57199878571429,
    "id": 74837695
  },
  {
    "name": "residential",
    "category": "landuse",
    "subcategory": "residential",
    "latitude": 34.25009527619048,
    "longitude": 71.58835758095238,
    "id": 74837791
  },
  {
    "name": "residential",
    "category": "landuse",
    "subcategory": "residential",
    "latitude": 34.25277029523809,
    "longitude": 71.59411946190477,
    "id": 74839124
  },
  {
    "name": "residential",
    "category": "landuse",
    "subcategory": "residential",
    "latitude": 34.25507233571428,
    "longitude": 71.59106168571428,
    "id": 74839129
  },
  {
    "name": "residential",
    "category": "landuse",
    "subcategory": "residential",
    "latitude": 34.218675,
    "longitude": 71.58447522,
    "id": 74845825
  },
  {
    "name": "farmyard",
    "category": "landuse",
    "subcategory": "farmyard",
    "latitude": 34.20550265,
    "longitude": 71.59170602500001,
    "id": 74845833
  },
  {
    "name": "residential",
    "category": "landuse",
    "subcategory": "residential",
    "latitude": 34.21981588,
    "longitude": 71.58542475,
    "id": 74846081
  },
  {
    "name": "residential",
    "category": "landuse",
    "subcategory": "residential",
    "latitude": 34.22079852121212,
    "longitude": 71.58561626363637,
    "id": 74846082
  },
  {
    "name": "retail",
    "category": "landuse",
    "subcategory": "retail",
    "latitude": 34.22044150476191,
    "longitude": 71.58245453333333,
    "id": 74846085
  },
  {
    "name": "landfill",
    "category": "landuse",
    "subcategory": "landfill",
    "latitude": 34.22017072,
    "longitude": 71.58437222,
    "id": 74846086
  },
  {
    "name": "residential",
    "category": "landuse",
    "subcategory": "residential",
    "latitude": 34.223862319999995,
    "longitude": 71.58445579333333,
    "id": 74846160
  },
  {
    "name": "residential",
    "category": "landuse",
    "subcategory": "residential",
    "latitude": 34.22973612222222,
    "longitude": 71.58265574444445,
    "id": 74846394
  },
  {
    "name": "residential",
    "category": "landuse",
    "subcategory": "residential",
    "latitude": 34.25186426875,
    "longitude": 71.58258523125,
    "id": 75111053
  },
  {
    "name": "islet",
    "category": "place",
    "subcategory": "islet",
    "latitude": 34.182104085714286,
    "longitude": 71.52090612,
    "id": 78252865
  },
  {
    "name": "islet",
    "category": "place",
    "subcategory": "islet",
    "latitude": 34.181642376190474,
    "longitude": 71.51814635714285,
    "id": 78380626
  },
  {
    "name": "islet",
    "category": "place",
    "subcategory": "islet",
    "latitude": 34.17581876595745,
    "longitude": 71.52680921702128,
    "id": 78380627
  },
  {
    "name": "islet",
    "category": "place",
    "subcategory": "islet",
    "latitude": 34.178885613333335,
    "longitude": 71.51606417333333,
    "id": 78380628
  },
  {
    "name": "islet",
    "category": "place",
    "subcategory": "islet",
    "latitude": 34.17727434098361,
    "longitude": 71.5252493672131,
    "id": 78380630
  },
  {
    "name": "islet",
    "category": "place",
    "subcategory": "islet",
    "latitude": 34.17750431428571,
    "longitude": 71.52296528095238,
    "id": 78380713
  },
  {
    "name": "islet",
    "category": "place",
    "subcategory": "islet",
    "latitude": 34.17882626792453,
    "longitude": 71.51863296415094,
    "id": 78380721
  },
  {
    "name": "islet",
    "category": "place",
    "subcategory": "islet",
    "latitude": 34.17590973350516,
    "longitude": 71.5179339015464,
    "id": 78380774
  },
  {
    "name": "islet",
    "category": "place",
    "subcategory": "islet",
    "latitude": 34.1800593948052,
    "longitude": 71.51268052077923,
    "id": 78381541
  },
  {
    "name": "islet",
    "category": "place",
    "subcategory": "islet",
    "latitude": 34.180588406666665,
    "longitude": 71.53210866666667,
    "id": 78973686
  },
  {
    "name": "islet",
    "category": "place",
    "subcategory": "islet",
    "latitude": 34.18087381612903,
    "longitude": 71.52723495161291,
    "id": 78974010
  },
  {
    "name": "islet",
    "category": "place",
    "subcategory": "islet",
    "latitude": 34.174889417391306,
    "longitude": 71.5375624,
    "id": 78974012
  },
  {
    "name": "islet",
    "category": "place",
    "subcategory": "islet",
    "latitude": 34.17770630444444,
    "longitude": 71.53131295555555,
    "id": 78974015
  },
  {
    "name": "islet",
    "category": "place",
    "subcategory": "islet",
    "latitude": 34.18181942666667,
    "longitude": 71.52476823111111,
    "id": 78974711
  },
  {
    "name": "islet",
    "category": "place",
    "subcategory": "islet",
    "latitude": 34.178548469999996,
    "longitude": 71.520582055,
    "id": 78974713
  },
  {
    "name": "islet",
    "category": "place",
    "subcategory": "islet",
    "latitude": 34.182269472222224,
    "longitude": 71.52587133611111,
    "id": 78974716
  },
  {
    "name": "islet",
    "category": "place",
    "subcategory": "islet",
    "latitude": 34.17453996666667,
    "longitude": 71.56084182222223,
    "id": 78976321
  },
  {
    "name": "islet",
    "category": "place",
    "subcategory": "islet",
    "latitude": 34.17773669333334,
    "longitude": 71.5510059,
    "id": 79671020
  },
  {
    "name": "islet",
    "category": "place",
    "subcategory": "islet",
    "latitude": 34.17453870526316,
    "longitude": 71.56323288157894,
    "id": 79671099
  },
  {
    "name": "islet",
    "category": "place",
    "subcategory": "islet",
    "latitude": 34.175367605263155,
    "longitude": 71.56165575789474,
    "id": 79671102
  },
  {
    "name": "islet",
    "category": "place",
    "subcategory": "islet",
    "latitude": 34.176206934868425,
    "longitude": 71.54503603486842,
    "id": 79671103
  },
  {
    "name": "islet",
    "category": "place",
    "subcategory": "islet",
    "latitude": 34.17699555625,
    "longitude": 71.55082121875,
    "id": 79671115
  },
  {
    "name": "islet",
    "category": "place",
    "subcategory": "islet",
    "latitude": 34.17327905304348,
    "longitude": 71.5477559904348,
    "id": 79671117
  },
  {
    "name": "islet",
    "category": "place",
    "subcategory": "islet",
    "latitude": 34.17424458275862,
    "longitude": 71.55031319655173,
    "id": 79671118
  },
  {
    "name": "islet",
    "category": "place",
    "subcategory": "islet",
    "latitude": 34.17602418888889,
    "longitude": 71.55127293333334,
    "id": 79671120
  },
  {
    "name": "Madina Masjid",
    "category": "landuse",
    "subcategory": "religious",
    "latitude": 34.212440333333326,
    "longitude": 71.56669491666666,
    "id": 836295693
  },
  {
    "name": "residential",
    "category": "landuse",
    "subcategory": "residential",
    "latitude": 34.240612943589745,
    "longitude": 71.5502076923077,
    "id": 1037458167
  },
  {
    "name": "residential",
    "category": "landuse",
    "subcategory": "residential",
    "latitude": 34.26121179545454,
    "longitude": 71.54670354545455,
    "id": 1037468337
  },
  {
    "name": "trunk",
    "category": "highway",
    "subcategory": "trunk",
    "latitude": 34.222448715789476,
    "longitude": 71.56568257368421,
    "id": 1408825116
  }
]