[
  {
    "name": "Caltex Filling Station",
    "category": "amenity",
    "subcategory": "fuel",
    "latitude": 34.212996,
    "longitude": 71.5471947,
    "id": 310273499
  },
  {
    "name": "Shabqadar Police Station",
    "category": "amenity",
    "subcategory": "police",
    "latitude": 34.2229969,
    "longitude": 71.5743006,
    "id": 4456269589
  },
  {
    "name": "Police Check Point",
    "category": "amenity",
    "subcategory": "police",
    "latitude": 34.2140478,
    "longitude": 71.5488355,
    "id": 4456301889
  },
  {
    "name": "THQ Hospital Shabqadar",
    "category": "amenity",
    "subcategory": "clinic",
    "latitude": 34.2142895,
    "longitude": 71.5490902,
    "id": 4456305689
  },
  {
    "name": "Shabqadar Bus Station",
    "category": "amenity",
    "subcategory": "bus_station",
    "latitude": 34.2213408,
    "longitude": 71.5660226,
    "id": 4456973989
  },
  {
    "name": "پاکستان اسٹیٹ آئل",
    "category": "amenity",
    "subcategory": "fuel",
    "latitude": 34.2199191,
    "longitude": 71.5663966,
    "id": 4459143491
  },
  {
    "name": "Car work Shop",
    "category": "shop",
    "subcategory": "car_repair",
    "latitude": 34.2200003,
    "longitude": 71.5662946,
    "id": 4459187789
  },
  {
    "name": "Car Work Shop",
    "category": "shop",
    "subcategory": "car_repair",
    "latitude": 34.2199609,
    "longitude": 71.566549,
    "id": 4460012499
  },
  {
    "name": "DSP Office Shabqadar",
    "category": "amenity",
    "subcategory": "police",
    "latitude": 34.2198447,
    "longitude": 71.5663934,
    "id": 4460012500
  },
  {
    "name": "Abazai CNG",
    "category": "amenity",
    "subcategory": "fuel",
    "latitude": 34.2010634,
    "longitude": 71.5715071,
    "id": 4460012502
  },
  {
    "name": "Rim jhim Garments Collection",
    "category": "shop",
    "subcategory": "clothes",
    "latitude": 34.2102869,
    "longitude": 71.5689154,
    "id": 4460015298
  },
  {
    "name": "Wheels Balance",
    "category": "shop",
    "subcategory": "car_repair",
    "latitude": 34.2102173,
    "longitude": 71.569032,
    "id": 4460020205
  },
  {
    "name": "Car wash",
    "category": "amenity",
    "subcategory": "car_wash",
    "latitude": 34.201216,
    "longitude": 71.5715924,
    "id": 4460020796
  },
  {
    "name": "Abdullatif Sweet",
    "category": "shop",
    "subcategory": "confectionery",
    "latitude": 34.2126934,
    "longitude": 71.5682519,
    "id": 4460022596
  },
  {
    "name": "Muhammad Bilal CNG",
    "category": "amenity",
    "subcategory": "fuel",
    "latitude": 34.2010519,
    "longitude": 71.5713147,
    "id": 4460022598
  },
  {
    "name": "Car Work Shop",
    "category": "shop",
    "subcategory": "car_repair",
    "latitude": 34.2009291,
    "longitude": 71.571277,
    "id": 4460022599
  },
  {
    "name": "Universal CNG",
    "category": "amenity",
    "subcategory": "fuel",
    "latitude": 34.2102193,
    "longitude": 71.568931,
    "id": 4460022600
  },
  {
    "name": "Allied School",
    "category": "amenity",
    "subcategory": "school",
    "latitude": 34.2033148,
    "longitude": 71.5707025,
    "id": 4460023092
  },
  {
    "name": "Brain School",
    "category": "amenity",
    "subcategory": "school",
    "latitude": 34.2033222,
    "longitude": 71.5708414,
    "id": 4460023093
  },
  {
    "name": "شیل",
    "category": "amenity",
    "subcategory": "fuel",
    "latitude": 34.201963,
    "longitude": 71.5711063,
    "id": 4460066289
  },
  {
    "name": "FC Shabqdar",
    "category": "amenity",
    "subcategory": "police",
    "latitude": 34.2235043,
    "longitude": 71.5655703,
    "id": 4476637389
  },
  {
    "name": "Car Spare Parts",
    "category": "shop",
    "subcategory": "car_parts",
    "latitude": 34.2199248,
    "longitude": 71.5664603,
    "id": 4476637390
  },
  {
    "name": "TCS",
    "category": "shop",
    "subcategory": "mobile_phone",
    "latitude": 34.2217591,
    "longitude": 71.565997,
    "id": 4479301701
  },
  {
    "name": "ایچ بی ایل پاکستان",
    "category": "amenity",
    "subcategory": "bank",
    "latitude": 34.2213092,
    "longitude": 71.5661417,
    "id": 4479361996
  },
  {
    "name": "Taxi Stand",
    "category": "amenity",
    "subcategory": "car_rental",
    "latitude": 34.2212462,
    "longitude": 71.5653083,
    "id": 4479375391
  },
  {
    "name": "Madani Masjid",
    "category": "amenity",
    "subcategory": "place_of_worship",
    "latitude": 34.2156825,
    "longitude": 71.5601286,
    "id": 4479449489
  },
  {
    "name": "Iqra Public School",
    "category": "amenity",
    "subcategory": "school",
    "latitude": 34.2170145,
    "longitude": 71.5621049,
    "id": 4479449689
  },
  {
    "name": "COOL drinks and Ice Cream",
    "category": "amenity",
    "subcategory": "fast_food",
    "latitude": 34.2223709,
    "longitude": 71.5658147,
    "id": 4479449690
  },
  {
    "name": "Dairy Milk Shop",
    "category": "shop",
    "subcategory": "convenience",
    "latitude": 34.2217067,
    "longitude": 71.5652726,
    "id": 4479449789
  },
  {
    "name": "Butcher's",
    "category": "shop",
    "subcategory": "butcher",
    "latitude": 34.2226168,
    "longitude": 71.5662117,
    "id": 4479449790
  },
  {
    "name": "Raz Muhammed electronics",
    "category": "shop",
    "subcategory": "electronics",
    "latitude": 34.2226784,
    "longitude": 71.5664332,
    "id": 4479449989
  },
  {
    "name": "QMobile",
    "category": "shop",
    "subcategory": "mobile_phone",
    "latitude": 34.2216651,
    "longitude": 71.5660064,
    "id": 4481034698
  },
  {
    "name": "Masjid Humayoun",
    "category": "amenity",
    "subcategory": "place_of_worship",
    "latitude": 34.2139121,
    "longitude": 71.5555709,
    "id": 4484284698
  },
  {
    "name": "Clothes Shops",
    "category": "shop",
    "subcategory": "clothes",
    "latitude": 34.221736,
    "longitude": 71.5661758,
    "id": 4484309689
  },
  {
    "name": "Darul Uloom Rahmaniya",
    "category": "amenity",
    "subcategory": "place_of_worship",
    "latitude": 34.2126722,
    "longitude": 71.5555254,
    "id": 4484309789
  },
  {
    "name": "Masjid Molvi Farooq Shah",
    "category": "amenity",
    "subcategory": "place_of_worship",
    "latitude": 34.2139828,
    "longitude": 71.556462,
    "id": 4484309889
  },
  {
    "name": "Police Station Sru Kalai",
    "category": "amenity",
    "subcategory": "police",
    "latitude": 34.2139047,
    "longitude": 71.5160363,
    "id": 4494372796
  },
  {
    "name": "Police Station Pir Qila",
    "category": "amenity",
    "subcategory": "police",
    "latitude": 34.1990602,
    "longitude": 71.5303078,
    "id": 4494408091
  },
  {
    "name": "Govt High School Subhan Khwar",
    "category": "amenity",
    "subcategory": "school",
    "latitude": 34.2070851,
    "longitude": 71.5407455,
    "id": 4496438990
  },
  {
    "name": "Govt primary School",
    "category": "amenity",
    "subcategory": "school",
    "latitude": 34.2101436,
    "longitude": 71.5519831,
    "id": 4499753189
  },
  {
    "name": "Jeddah Travel Agency",
    "category": "shop",
    "subcategory": "travel_agency",
    "latitude": 34.2203338,
    "longitude": 71.5663979,
    "id": 4545860992
  },
  {
    "name": "Car Wash",
    "category": "amenity",
    "subcategory": "car_wash",
    "latitude": 34.2153507,
    "longitude": 71.5508304,
    "id": 4545976429
  },
  {
    "name": "Dr Nabila",
    "category": "amenity",
    "subcategory": "doctors",
    "latitude": 34.2161181,
    "longitude": 71.5502073,
    "id": 4546012289
  },
  {
    "name": "Car Wash",
    "category": "amenity",
    "subcategory": "car_wash",
    "latitude": 34.2158113,
    "longitude": 71.550602,
    "id": 4546012489
  },
  {
    "name": "Fire Brigade",
    "category": "amenity",
    "subcategory": "fire_station",
    "latitude": 34.2204256,
    "longitude": 71.5663714,
    "id": 4546395891
  },
  {
    "name": "یونائیٹڈ بینک لمیٹڈ",
    "category": "amenity",
    "subcategory": "bank",
    "latitude": 34.220302,
    "longitude": 71.566208,
    "id": 4546480889
  },
  {
    "name": "Seafood",
    "category": "shop",
    "subcategory": "seafood",
    "latitude": 34.2050759,
    "longitude": 71.5367679,
    "id": 4572621491
  },
  {
    "name": "Post Office Shabqadar",
    "category": "amenity",
    "subcategory": "post_box",
    "latitude": 34.2245604,
    "longitude": 71.5642996,
    "id": 4735644926
  },
  {
    "name": "Post Office Shabqadar Fort",
    "category": "amenity",
    "subcategory": "post_office",
    "latitude": 34.2245368,
    "longitude": 71.5643047,
    "id": 4735644927
  },
  {
    "name": "THQ Hospital Shabqadar",
    "category": "amenity",
    "subcategory": "hospital",
    "latitude": 34.2157671,
    "longitude": 71.548633,
    "id": 4807311321
  },
  {
    "name": "Shah Electric Shop",
    "category": "shop",
    "subcategory": "electronics",
    "latitude": 34.2209942,
    "longitude": 71.5665918,
    "id": 5265237723
  },
  {
    "name": "شفیع نائی خانہ",
    "category": "shop",
    "subcategory": "cosmetics",
    "latitude": 34.2198299,
    "longitude": 71.5688119,
    "id": 5287397523
  },
  {
    "name": "Sun light Hair Dresser",
    "category": "shop",
    "subcategory": "cosmetics",
    "latitude": 34.2220269,
    "longitude": 71.5662337,
    "id": 5290932022
  },
  {
    "name": "Malik Bargain",
    "category": "shop",
    "subcategory": "car",
    "latitude": 34.2111969,
    "longitude": 71.5684894,
    "id": 5542299021
  },
  {
    "name": "PEPSI Store",
    "category": "shop",
    "subcategory": "beverages",
    "latitude": 34.2095566,
    "longitude": 71.5688078,
    "id": 5963904487
  },
  {
    "name": "Petrol Station",
    "category": "amenity",
    "subcategory": "fuel",
    "latitude": 34.222962,
    "longitude": 71.5763689,
    "id": 6369642385
  },
  {
    "name": "Frontier Students Academy",
    "category": "amenity",
    "subcategory": "school",
    "latitude": 34.2232319,
    "longitude": 71.5764088,
    "id": 6369642485
  },
  {
    "name": "Alfalah Bank",
    "category": "amenity",
    "subcategory": "bank",
    "latitude": 34.2205575,
    "longitude": 71.5661388,
    "id": 6385698387
  },
  {
    "name": "Chaman Ice Cream",
    "category": "amenity",
    "subcategory": "ice_cream",
    "latitude": 34.2206637,
    "longitude": 71.566101,
    "id": 6385698388
  },
  {
    "name": "Dr Mohammad Zaib",
    "category": "amenity",
    "subcategory": "doctors",
    "latitude": 34.2214556,
    "longitude": 71.5663778,
    "id": 6459076385
  },
  {
    "name": "Ittifaq bargain",
    "category": "shop",
    "subcategory": "car_parts",
    "latitude": 34.203707,
    "longitude": 71.5704895,
    "id": 6919612487
  },
  {
    "name": "Puncture Shop",
    "category": "shop",
    "subcategory": "car_repair",
    "latitude": 34.2037488,
    "longitude": 71.5707856,
    "id": 6919612586
  },
  {
    "name": "Govt Girls Degree College Shabqadar",
    "category": "amenity",
    "subcategory": "college",
    "latitude": 34.2189589,
    "longitude": 71.5628554,
    "id": 7873866685
  },
  {
    "name": "Car work shop",
    "category": "shop",
    "subcategory": "car_repair",
    "latitude": 34.2112999,
    "longitude": 71.5680384,
    "id": 7904027285
  },
  {
    "name": "Qadir Tandoor (metal oven)",
    "category": "amenity",
    "subcategory": "restaurant",
    "latitude": 34.2137347,
    "longitude": 71.5563755,
    "id": 7972125485
  },
  {
    "name": "Shah Electric Decorator",
    "category": "shop",
    "subcategory": "electronics",
    "latitude": 34.2212138,
    "longitude": 71.5664466,
    "id": 8658814517
  }
]