[
  {
    "name": "Toor Mang",
    "category": "tourism",
    "subcategory": "attraction",
    "latitude": 34.9089817,
    "longitude": 71.9996097,
    "id": 6534025200
  },
  {
    "name": "شلفلام",
    "category": "place",
    "subcategory": "village",
    "latitude": 34.9142758,
    "longitude": 71.9936745,
    "id": 12511042606
  },
  {
    "name": "Malakand Chitral Road",
    "category": "highway",
    "subcategory": "trunk",
    "latitude": 34.8925438849624,
    "longitude": 71.97929746616542,
    "id": 27247223
  },
  {
    "name": "residential",
    "category": "highway",
    "subcategory": "residential",
    "latitude": 34.90064002795031,
    "longitude": 72.01347571863354,
    "id": 371512704
  },
  {
    "name": "tertiary",
    "category": "highway",
    "subcategory": "tertiary",
    "latitude": 34.93359319300699,
    "longitude": 71.964744411655,
    "id": 599981444
  },
  {
    "name": "tertiary",
    "category": "highway",
    "subcategory": "tertiary",
    "latitude": 34.90616358817204,
    "longitude": 71.99013147741935,
    "id": 599981445
  },
  {
    "name": "unclassified",
    "category": "highway",
    "subcategory": "unclassified",
    "latitude": 34.904539766666666,
    "longitude": 71.98421724666666,
    "id": 684677460
  },
  {
    "name": "tertiary",
    "category": "highway",
    "subcategory": "tertiary",
    "latitude": 34.91166876,
    "longitude": 71.9980199,
    "id": 698758838
  },
  {
    "name": "tertiary",
    "category": "highway",
    "subcategory": "tertiary",
    "latitude": 34.912257600000004,
    "longitude": 71.99775604999999,
    "id": 698758839
  },
  {
    "name": "tertiary",
    "category": "highway",
    "subcategory": "tertiary",
    "latitude": 34.92910644136808,
    "longitude": 71.99038246123779,
    "id": 968557959
  },
  {
    "name": "unclassified",
    "category": "highway",
    "subcategory": "unclassified",
    "latitude": 34.925627369999994,
    "longitude": 72.012059835,
    "id": 968562060
  },
  {
    "name": "wood",
    "category": "natural",
    "subcategory": "wood",
    "latitude": 34.911507778571426,
    "longitude": 71.9796062063492,
    "id": 1467935568
  },
  {
    "name": "wood",
    "category": "natural",
    "subcategory": "wood",
    "latitude": 34.911494446031746,
    "longitude": 71.97958624444445,
    "id": 1467935568
  }
]