[
  {
    "name": "ضلع لاڑکانہ",
    "category": "place",
    "subcategory": "county",
    "latitude": 27.5211066,
    "longitude": 68.1920865,
    "id": 316440872
  },
  {
    "name": "لاڑکانہ",
    "category": "place",
    "subcategory": "city",
    "latitude": 27.5564798,
    "longitude": 68.2101509,
    "id": 1934239893
  },
  {
    "name": "Tower",
    "category": "historic",
    "subcategory": "monument",
    "latitude": 27.5510446,
    "longitude": 68.2144975,
    "id": 2998741452
  },
  {
    "name": "fuel",
    "category": "amenity",
    "subcategory": "fuel",
    "latitude": 27.5637641,
    "longitude": 68.2036164,
    "id": 3868377902
  },
  {
    "name": "Main Bus Terminal",
    "category": "amenity",
    "subcategory": "bus_station",
    "latitude": 27.5809203,
    "longitude": 68.2226534,
    "id": 3868377903
  },
  {
    "name": "Bughio House Larkana",
    "category": "tourism",
    "subcategory": "guest_house",
    "latitude": 27.5535086,
    "longitude": 68.2164989,
    "id": 4324762395
  },
  {
    "name": "Provencial Highway circle larkana",
    "category": "office",
    "subcategory": "government",
    "latitude": 27.5550147,
    "longitude": 68.2031387,
    "id": 4438182189
  },
  {
    "name": "Bakrani Tower",
    "category": "historic",
    "subcategory": "monument",
    "latitude": 27.5431463,
    "longitude": 68.2121916,
    "id": 4681231791
  },
  {
    "name": "police",
    "category": "amenity",
    "subcategory": "police",
    "latitude": 27.5513332,
    "longitude": 68.2151415,
    "id": 4681231991
  },
  {
    "name": "پاکستانی چوک",
    "category": "tourism",
    "subcategory": "information",
    "latitude": 27.55284,
    "longitude": 68.215302,
    "id": 4681231993
  },
  {
    "name": "Sucarno Tower PPP Tower",
    "category": "historic",
    "subcategory": "monument",
    "latitude": 27.5580881,
    "longitude": 68.2095321,
    "id": 4806523224
  },
  {
    "name": "Leading Institute of Science and Technology Larkana",
    "category": "amenity",
    "subcategory": "school",
    "latitude": 27.5579191,
    "longitude": 68.210915,
    "id": 4806575821
  },
  {
    "name": "Jamia Mosque",
    "category": "amenity",
    "subcategory": "place_of_worship",
    "latitude": 27.5639234,
    "longitude": 68.2230818,
    "id": 4926641601
  },
  {
    "name": "Dua Ultrasound",
    "category": "amenity",
    "subcategory": "hospital",
    "latitude": 27.5609161,
    "longitude": 68.2213161,
    "id": 4926641602
  },
  {
    "name": "Noudero Chowk",
    "category": "historic",
    "subcategory": "monument",
    "latitude": 27.560696,
    "longitude": 68.2212154,
    "id": 4926641603
  },
  {
    "name": "Bargah Qamar Bani Hashim",
    "category": "amenity",
    "subcategory": "place_of_worship",
    "latitude": 27.5600803,
    "longitude": 68.221048,
    "id": 4926641605
  },
  {
    "name": "Sultania Masjid",
    "category": "amenity",
    "subcategory": "place_of_worship",
    "latitude": 27.5605036,
    "longitude": 68.22021,
    "id": 4926641606
  },
  {
    "name": "Rustam Ali Petroliem Service Larkana",
    "category": "amenity",
    "subcategory": "fuel",
    "latitude": 27.5590669,
    "longitude": 68.2212637,
    "id": 4926641607
  },
  {
    "name": "ٹوٹل",
    "category": "amenity",
    "subcategory": "fuel",
    "latitude": 27.5588019,
    "longitude": 68.2207676,
    "id": 4926641608
  },
  {
    "name": "یونائیٹڈ بینک لمیٹڈ",
    "category": "amenity",
    "subcategory": "bank",
    "latitude": 27.5584769,
    "longitude": 68.2203794,
    "id": 4926641609
  },
  {
    "name": "Tameer Microfinace Bank",
    "category": "amenity",
    "subcategory": "bank",
    "latitude": 27.5585889,
    "longitude": 68.2201576,
    "id": 4926641610
  },
  {
    "name": "ایم سی بی بینک",
    "category": "amenity",
    "subcategory": "bank",
    "latitude": 27.5590287,
    "longitude": 68.2193812,
    "id": 4926641611
  },
  {
    "name": "Madina Masjid",
    "category": "amenity",
    "subcategory": "place_of_worship",
    "latitude": 27.5579552,
    "longitude": 68.2197324,
    "id": 4926641612
  },
  {
    "name": "Apna Bank",
    "category": "amenity",
    "subcategory": "bank",
    "latitude": 27.559859,
    "longitude": 68.2186017,
    "id": 4926641613
  },
  {
    "name": "Mujahid Masjid",
    "category": "amenity",
    "subcategory": "place_of_worship",
    "latitude": 27.5604954,
    "longitude": 68.2176527,
    "id": 4926641616
  },
  {
    "name": "Premi Cafe",
    "category": "amenity",
    "subcategory": "cafe",
    "latitude": 27.5603698,
    "longitude": 68.2186694,
    "id": 4926641617
  },
  {
    "name": "Imran Tea Shop",
    "category": "amenity",
    "subcategory": "cafe",
    "latitude": 27.5547084,
    "longitude": 68.2201712,
    "id": 4926641618
  },
  {
    "name": "Marvi Restaurant and BBQ",
    "category": "amenity",
    "subcategory": "restaurant",
    "latitude": 27.5543068,
    "longitude": 68.2198916,
    "id": 4926641619
  },
  {
    "name": "Jaffri Imam Bargah Larkana",
    "category": "amenity",
    "subcategory": "place_of_worship",
    "latitude": 27.5538675,
    "longitude": 68.2188581,
    "id": 4926641620
  },
  {
    "name": "فیصل بینک",
    "category": "amenity",
    "subcategory": "bank",
    "latitude": 27.5524727,
    "longitude": 68.2167637,
    "id": 4926647821
  },
  {
    "name": "National Savings Center",
    "category": "amenity",
    "subcategory": "bank",
    "latitude": 27.5534538,
    "longitude": 68.2172484,
    "id": 4926647822
  },
  {
    "name": "سمٹ بینک",
    "category": "amenity",
    "subcategory": "bank",
    "latitude": 27.5525987,
    "longitude": 68.2162621,
    "id": 4926647823
  },
  {
    "name": "Silk Bank",
    "category": "amenity",
    "subcategory": "bank",
    "latitude": 27.5526463,
    "longitude": 68.2160663,
    "id": 4926647824
  },
  {
    "name": "ایم سی بی بینک",
    "category": "amenity",
    "subcategory": "bank",
    "latitude": 27.5527105,
    "longitude": 68.2157311,
    "id": 4926647825
  },
  {
    "name": "یونائیٹڈ بینک لمیٹڈ",
    "category": "amenity",
    "subcategory": "bank",
    "latitude": 27.5531409,
    "longitude": 68.2152858,
    "id": 4926647826
  },
  {
    "name": "Bank AL Habib",
    "category": "amenity",
    "subcategory": "bank",
    "latitude": 27.5534477,
    "longitude": 68.2154843,
    "id": 4926647827
  },
  {
    "name": "Khichi Imam Bargah & Eid Gah",
    "category": "amenity",
    "subcategory": "place_of_worship",
    "latitude": 27.5515478,
    "longitude": 68.2182447,
    "id": 4926647828
  },
  {
    "name": "New Sindh Science College",
    "category": "amenity",
    "subcategory": "college",
    "latitude": 27.5501955,
    "longitude": 68.2185021,
    "id": 4926647829
  },
  {
    "name": "تھانہ",
    "category": "amenity",
    "subcategory": "police",
    "latitude": 27.5494137,
    "longitude": 68.2197154,
    "id": 4926647830
  },
  {
    "name": "Husnain Hotel Larakna",
    "category": "tourism",
    "subcategory": "hotel",
    "latitude": 27.5502533,
    "longitude": 68.2182284,
    "id": 4926647831
  },
  {
    "name": "Khahawar Hotel",
    "category": "tourism",
    "subcategory": "hotel",
    "latitude": 27.5486174,
    "longitude": 68.210472,
    "id": 4930510997
  },
  {
    "name": "یونائیٹڈ بینک لمیٹڈ",
    "category": "amenity",
    "subcategory": "bank",
    "latitude": 27.551162,
    "longitude": 68.2118453,
    "id": 4930510998
  },
  {
    "name": "Askari CNG Station",
    "category": "amenity",
    "subcategory": "fuel",
    "latitude": 27.5510716,
    "longitude": 68.2117327,
    "id": 4930510999
  },
  {
    "name": "مسجد",
    "category": "amenity",
    "subcategory": "place_of_worship",
    "latitude": 27.5521417,
    "longitude": 68.2092006,
    "id": 4930511000
  },
  {
    "name": "Cafe Al Abbas",
    "category": "amenity",
    "subcategory": "cafe",
    "latitude": 27.5521084,
    "longitude": 68.2125695,
    "id": 4930511001
  },
  {
    "name": "Paris Inn",
    "category": "tourism",
    "subcategory": "hotel",
    "latitude": 27.5519657,
    "longitude": 68.2127143,
    "id": 4930511002
  },
  {
    "name": "Green Palace Hotel",
    "category": "tourism",
    "subcategory": "hotel",
    "latitude": 27.5521417,
    "longitude": 68.2134171,
    "id": 4930511003
  },
  {
    "name": "Qamiya Jamia Mosque",
    "category": "amenity",
    "subcategory": "place_of_worship",
    "latitude": 27.5540061,
    "longitude": 68.2139803,
    "id": 4930511004
  },
  {
    "name": "Government Girls College Larkana",
    "category": "amenity",
    "subcategory": "college",
    "latitude": 27.5544531,
    "longitude": 68.2137336,
    "id": 4930511005
  },
  {
    "name": "الرحیم ہوٹل",
    "category": "tourism",
    "subcategory": "hotel",
    "latitude": 27.5532499,
    "longitude": 68.2138194,
    "id": 4930511006
  },
  {
    "name": "Farooq Medical & Dental Centre Larkana",
    "category": "amenity",
    "subcategory": "hospital",
    "latitude": 27.5553234,
    "longitude": 68.2115342,
    "id": 4930511007
  },
  {
    "name": "لیڈیز جیل",
    "category": "amenity",
    "subcategory": "prison",
    "latitude": 27.5556706,
    "longitude": 68.2114913,
    "id": 4930511008
  },
  {
    "name": "دبئی اسلامی بینک",
    "category": "amenity",
    "subcategory": "bank",
    "latitude": 27.5555137,
    "longitude": 68.2148226,
    "id": 4930511009
  },
  {
    "name": "Bank Al Falah",
    "category": "amenity",
    "subcategory": "bank",
    "latitude": 27.5551617,
    "longitude": 68.2157613,
    "id": 4930511010
  },
  {
    "name": "جے ایس بینک",
    "category": "amenity",
    "subcategory": "bank",
    "latitude": 27.5549858,
    "longitude": 68.215713,
    "id": 4930511011
  },
  {
    "name": "عسکری بینک",
    "category": "amenity",
    "subcategory": "bank",
    "latitude": 27.5559988,
    "longitude": 68.2160725,
    "id": 4930511012
  },
  {
    "name": "First Women Bank",
    "category": "amenity",
    "subcategory": "bank",
    "latitude": 27.5571619,
    "longitude": 68.2162309,
    "id": 4930511013
  },
  {
    "name": "نیشنل بینک آف پاکستان",
    "category": "amenity",
    "subcategory": "bank",
    "latitude": 27.5575824,
    "longitude": 68.2163052,
    "id": 4930511014
  },
  {
    "name": "NIB Bank",
    "category": "amenity",
    "subcategory": "bank",
    "latitude": 27.5574537,
    "longitude": 68.2163618,
    "id": 4930511015
  },
  {
    "name": "یونائیٹڈ بینک لمیٹڈ",
    "category": "amenity",
    "subcategory": "bank",
    "latitude": 27.5576451,
    "longitude": 68.2164043,
    "id": 4930511016
  },
  {
    "name": "الائیڈ بینک لمیٹڈ",
    "category": "amenity",
    "subcategory": "bank",
    "latitude": 27.5578177,
    "longitude": 68.2163406,
    "id": 4930511017
  },
  {
    "name": "ایچ بی ایل پاکستان",
    "category": "amenity",
    "subcategory": "bank",
    "latitude": 27.557915,
    "longitude": 68.216514,
    "id": 4930511018
  },
  {
    "name": "بینک اسلامی",
    "category": "amenity",
    "subcategory": "bank",
    "latitude": 27.5580279,
    "longitude": 68.2166945,
    "id": 4930511019
  },
  {
    "name": "The First Microfinance Bank Ltd",
    "category": "amenity",
    "subcategory": "bank",
    "latitude": 27.557997,
    "longitude": 68.2167883,
    "id": 4930511020
  },
  {
    "name": "National Savings Centre",
    "category": "amenity",
    "subcategory": "bank",
    "latitude": 27.5582088,
    "longitude": 68.2170489,
    "id": 4930511021
  },
  {
    "name": "Al Baraka Bank",
    "category": "amenity",
    "subcategory": "bank",
    "latitude": 27.5584034,
    "longitude": 68.2171627,
    "id": 4930511022
  },
  {
    "name": "Telenor Microfinance Bank",
    "category": "amenity",
    "subcategory": "bank",
    "latitude": 27.5584376,
    "longitude": 68.2173213,
    "id": 4930511023
  },
  {
    "name": "New Raja Electronics",
    "category": "shop",
    "subcategory": "electronics",
    "latitude": 27.5528278,
    "longitude": 68.2153193,
    "id": 5100443821
  },
  {
    "name": "Police training school larkana",
    "category": "amenity",
    "subcategory": "school",
    "latitude": 27.5656826,
    "longitude": 68.1915488,
    "id": 5513898121
  },
  {
    "name": "Classic Academy of Computer Science Larkana",
    "category": "amenity",
    "subcategory": "school",
    "latitude": 27.5558028,
    "longitude": 68.2146313,
    "id": 5516599022
  },
  {
    "name": "New Mashal High Scool & College Larkana",
    "category": "amenity",
    "subcategory": "school",
    "latitude": 27.5421861,
    "longitude": 68.212996,
    "id": 5516608321
  },
  {
    "name": "مریم ہاؤس",
    "category": "tourism",
    "subcategory": "guest_house",
    "latitude": 27.5555413,
    "longitude": 68.208739,
    "id": 5519074837
  },
  {
    "name": "Rahila Research & Reference Lab Larkana",
    "category": "amenity",
    "subcategory": "hospital",
    "latitude": 27.5578624,
    "longitude": 68.2093243,
    "id": 5606565821
  },
  {
    "name": "رائل فٹنس جم لاڑکانہ",
    "category": "leisure",
    "subcategory": "fitness_centre",
    "latitude": 27.5557894,
    "longitude": 68.2088978,
    "id": 5736740971
  },
  {
    "name": "Al-Madina Bus",
    "category": "amenity",
    "subcategory": "bus_station",
    "latitude": 27.5635369,
    "longitude": 68.191155,
    "id": 5760113821
  },
  {
    "name": "Daewoo Express Larkana",
    "category": "amenity",
    "subcategory": "bus_station",
    "latitude": 27.5636428,
    "longitude": 68.1920962,
    "id": 5760113822
  },
  {
    "name": "Kashtkar Rice Mill",
    "category": "office",
    "subcategory": "company",
    "latitude": 27.5800785,
    "longitude": 68.2129947,
    "id": 6567222986
  },
  {
    "name": "Sambara Inn",
    "category": "tourism",
    "subcategory": "hotel",
    "latitude": 27.5504178,
    "longitude": 68.2045952,
    "id": 7119569386
  },
  {
    "name": "fuel",
    "category": "amenity",
    "subcategory": "fuel",
    "latitude": 27.5744666,
    "longitude": 68.2295368,
    "id": 7358431540
  },
  {
    "name": "fuel",
    "category": "amenity",
    "subcategory": "fuel",
    "latitude": 27.5738612,
    "longitude": 68.22919,
    "id": 7358431541
  },
  {
    "name": "Royal City",
    "category": "tourism",
    "subcategory": "hotel",
    "latitude": 27.5529125,
    "longitude": 68.2128531,
    "id": 8636380718
  },
  {
    "name": "Dadae Sangi",
    "category": "place",
    "subcategory": "village",
    "latitude": 27.5903614,
    "longitude": 68.2380033,
    "id": 10005419449
  },
  {
    "name": "Aitbar Dahani",
    "category": "place",
    "subcategory": "village",
    "latitude": 27.5751928,
    "longitude": 68.2479917,
    "id": 10005419474
  },
  {
    "name": "Goth Udha",
    "category": "place",
    "subcategory": "village",
    "latitude": 27.5775357,
    "longitude": 68.2433892,
    "id": 10005419487
  },
  {
    "name": "ماسوگنج",
    "category": "place",
    "subcategory": "village",
    "latitude": 27.5430923,
    "longitude": 68.2313394,
    "id": 10080871091
  },
  {
    "name": "بھیل جول",
    "category": "place",
    "subcategory": "village",
    "latitude": 27.5444799,
    "longitude": 68.2326975,
    "id": 10080871097
  },
  {
    "name": "گوٹھ گلاب بھٹو",
    "category": "place",
    "subcategory": "village",
    "latitude": 27.5476102,
    "longitude": 68.2332386,
    "id": 10080871098
  },
  {
    "name": "Ghoth Nandha Phull",
    "category": "place",
    "subcategory": "village",
    "latitude": 27.5453731,
    "longitude": 68.2414106,
    "id": 10080871099
  },
  {
    "name": "Bheda Goth",
    "category": "place",
    "subcategory": "village",
    "latitude": 27.5572748,
    "longitude": 68.2491629,
    "id": 10080884621
  },
  {
    "name": "شیر محمد جمالی",
    "category": "place",
    "subcategory": "village",
    "latitude": 27.5606213,
    "longitude": 68.2413887,
    "id": 10080884623
  },
  {
    "name": "Goth Kotai Bhutto",
    "category": "place",
    "subcategory": "hamlet",
    "latitude": 27.5586088,
    "longitude": 68.2477011,
    "id": 10080884624
  },
  {
    "name": "سیری بازو",
    "category": "place",
    "subcategory": "village",
    "latitude": 27.5372979,
    "longitude": 68.2344886,
    "id": 10080884627
  },
  {
    "name": "زمان گوٹھ",
    "category": "place",
    "subcategory": "village",
    "latitude": 27.5287291,
    "longitude": 68.2391517,
    "id": 10080884628
  },
  {
    "name": "مهر وڏا",
    "category": "place",
    "subcategory": "village",
    "latitude": 27.518913,
    "longitude": 68.2331952,
    "id": 10080884629
  },
  {
    "name": "Goth Mole Dino Machi",
    "category": "place",
    "subcategory": "village",
    "latitude": 27.5224807,
    "longitude": 68.2291935,
    "id": 10080884630
  },
  {
    "name": "بقاپور",
    "category": "place",
    "subcategory": "village",
    "latitude": 27.5213967,
    "longitude": 68.2186735,
    "id": 10080884631
  },
  {
    "name": "Goth Syed Juman Shah",
    "category": "place",
    "subcategory": "village",
    "latitude": 27.5267272,
    "longitude": 68.2462179,
    "id": 10080884632
  },
  {
    "name": "اسوٹ کوٹ",
    "category": "place",
    "subcategory": "village",
    "latitude": 27.5186357,
    "longitude": 68.2467266,
    "id": 10080884633
  },
  {
    "name": "ہاشم آباد",
    "category": "place",
    "subcategory": "village",
    "latitude": 27.5793136,
    "longitude": 68.1765215,
    "id": 10080884873
  },
  {
    "name": "Khedkar",
    "category": "place",
    "subcategory": "village",
    "latitude": 27.5807981,
    "longitude": 68.1833846,
    "id": 10080884874
  },
  {
    "name": "Relan",
    "category": "place",
    "subcategory": "village",
    "latitude": 27.569712,
    "longitude": 68.1839533,
    "id": 10080884875
  },
  {
    "name": "Jara Wah",
    "category": "place",
    "subcategory": "village",
    "latitude": 27.5488298,
    "longitude": 68.1705267,
    "id": 10093507808
  },
  {
    "name": "Jongal Khakhrani",
    "category": "place",
    "subcategory": "village",
    "latitude": 27.5232076,
    "longitude": 68.1725234,
    "id": 10093507814
  },
  {
    "name": "Suba Khan Nuhani",
    "category": "place",
    "subcategory": "village",
    "latitude": 27.5172482,
    "longitude": 68.1918333,
    "id": 10093507815
  },
  {
    "name": "Primary School Rahmatpur",
    "category": "amenity",
    "subcategory": "school",
    "latitude": 27.5461702,
    "longitude": 68.2062397,
    "id": 10647031373
  },
  {
    "name": "park",
    "category": "leisure",
    "subcategory": "park",
    "latitude": 27.5505606,
    "longitude": 68.2062051,
    "id": 11289767411
  },
  {
    "name": "park",
    "category": "leisure",
    "subcategory": "park",
    "latitude": 27.5503818,
    "longitude": 68.2065165,
    "id": 11289767412
  },
  {
    "name": "place_of_worship",
    "category": "amenity",
    "subcategory": "place_of_worship",
    "latitude": 27.5502742,
    "longitude": 68.1994872,
    "id": 11730494602
  },
  {
    "name": "Al Qasmia estate agency",
    "category": "office",
    "subcategory": "estate_agent",
    "latitude": 27.5713085,
    "longitude": 68.2223053,
    "id": 12484394368
  },
  {
    "name": "Larkana Bypass Chowk",
    "category": "historic",
    "subcategory": "monument",
    "latitude": 27.6049058,
    "longitude": 68.2085793,
    "id": 12491719121
  },
  {
    "name": "New Stop",
    "category": "amenity",
    "subcategory": "taxi",
    "latitude": 27.5785669,
    "longitude": 68.2237303,
    "id": 12522417741
  },
  {
    "name": "Fruit Vendors",
    "category": "shop",
    "subcategory": "supermarket",
    "latitude": 27.5662229,
    "longitude": 68.2128461,
    "id": 12522433968
  },
  {
    "name": "Miro Khan Chowk",
    "category": "tourism",
    "subcategory": "attraction",
    "latitude": 27.5817764,
    "longitude": 68.2193382,
    "id": 12522443927
  },
  {
    "name": "Brohi Phattak Area",
    "category": "leisure",
    "subcategory": "common",
    "latitude": 27.5644176,
    "longitude": 68.2151521,
    "id": 12522450051
  },
  {
    "name": "Yasmeen Beauty Parlour",
    "category": "shop",
    "subcategory": "beauty",
    "latitude": 27.5547009,
    "longitude": 68.2180004,
    "id": 13622456501
  },
  {
    "name": "VIP Road",
    "category": "highway",
    "subcategory": "primary",
    "latitude": 27.567371642857143,
    "longitude": 68.20978854642857,
    "id": 26391447
  },
  {
    "name": "ھسپتال روڈ",
    "category": "highway",
    "subcategory": "tertiary",
    "latitude": 27.560804363636365,
    "longitude": 68.20418443636363,
    "id": 241995545
  },
  {
    "name": "secondary",
    "category": "highway",
    "subcategory": "secondary",
    "latitude": 27.550918439999997,
    "longitude": 68.21537166,
    "id": 241995547
  },
  {
    "name": "لاڑکانہ - نوڈیرو - لاکھی روڈ",
    "category": "highway",
    "subcategory": "trunk",
    "latitude": 27.565365904444445,
    "longitude": 68.22424816222222,
    "id": 241995550
  },
  {
    "name": "Larkana Naudero Lakhi Highway",
    "category": "highway",
    "subcategory": "secondary",
    "latitude": 27.55409435625,
    "longitude": 68.21902051875,
    "id": 241995552
  },
  {
    "name": "Shah Nawaz Road",
    "category": "highway",
    "subcategory": "primary",
    "latitude": 27.5582372875,
    "longitude": 68.20056232499999,
    "id": 241995556
  },
  {
    "name": "residential",
    "category": "highway",
    "subcategory": "residential",
    "latitude": 27.553841855555554,
    "longitude": 68.20849612222223,
    "id": 241995560
  },
  {
    "name": "primary",
    "category": "highway",
    "subcategory": "primary",
    "latitude": 27.57877395,
    "longitude": 68.22334115,
    "id": 241995561
  },
  {
    "name": "secondary",
    "category": "highway",
    "subcategory": "secondary",
    "latitude": 27.5617126,
    "longitude": 68.20610988,
    "id": 241995564
  },
  {
    "name": "secondary",
    "category": "highway",
    "subcategory": "secondary",
    "latitude": 27.56568715,
    "longitude": 68.21358280000001,
    "id": 241995565
  },
  {
    "name": "Allama Mashriqi Road",
    "category": "highway",
    "subcategory": "secondary",
    "latitude": 27.5592359625,
    "longitude": 68.2032713125,
    "id": 241995567
  },
  {
    "name": "Akil Road",
    "category": "highway",
    "subcategory": "tertiary",
    "latitude": 27.569001308163266,
    "longitude": 68.23738593469388,
    "id": 241995570
  },
  {
    "name": "Station Road",
    "category": "highway",
    "subcategory": "primary",
    "latitude": 27.54546963333333,
    "longitude": 68.20905663333333,
    "id": 241995571
  },
  {
    "name": "secondary",
    "category": "highway",
    "subcategory": "secondary",
    "latitude": 27.57583635789474,
    "longitude": 68.2031762605263,
    "id": 241995573
  },
  {
    "name": "primary",
    "category": "highway",
    "subcategory": "primary",
    "latitude": 27.580214766666668,
    "longitude": 68.221427425,
    "id": 241995575
  },
  {
    "name": "residential",
    "category": "highway",
    "subcategory": "residential",
    "latitude": 27.5555526,
    "longitude": 68.21481272000001,
    "id": 241995579
  },
  {
    "name": "Bunder Road",
    "category": "highway",
    "subcategory": "tertiary",
    "latitude": 27.5541788,
    "longitude": 68.21559776363637,
    "id": 241995580
  },
  {
    "name": "Qambar Road",
    "category": "highway",
    "subcategory": "primary",
    "latitude": 27.564536566666664,
    "longitude": 68.20185365555557,
    "id": 241995581
  },
  {
    "name": "جیل روڈ",
    "category": "highway",
    "subcategory": "residential",
    "latitude": 27.554142833333334,
    "longitude": 68.21104751666667,
    "id": 241995583
  },
  {
    "name": "primary",
    "category": "highway",
    "subcategory": "primary",
    "latitude": 27.578313925,
    "longitude": 68.22400379999999,
    "id": 241995584
  },
  {
    "name": "residential",
    "category": "highway",
    "subcategory": "residential",
    "latitude": 27.552697666666667,
    "longitude": 68.21598762,
    "id": 241995585
  },
  {
    "name": "Shah Nawaz Bhutto Road",
    "category": "highway",
    "subcategory": "secondary",
    "latitude": 27.561629959999998,
    "longitude": 68.21715249,
    "id": 241995590
  },
  {
    "name": "residential",
    "category": "highway",
    "subcategory": "residential",
    "latitude": 27.5604472125,
    "longitude": 68.2129498125,
    "id": 241995591
  },
  {
    "name": "primary",
    "category": "highway",
    "subcategory": "primary",
    "latitude": 27.563468436363635,
    "longitude": 68.1975653590909,
    "id": 241995592
  },
  {
    "name": "Bakrani Road",
    "category": "highway",
    "subcategory": "tertiary",
    "latitude": 27.547634019354838,
    "longitude": 68.21361916451613,
    "id": 293968167
  },
  {
    "name": "ایئر پورٹ روڈ",
    "category": "highway",
    "subcategory": "primary",
    "latitude": 27.518541359375,
    "longitude": 68.204354578125,
    "id": 293968168
  },
  {
    "name": "secondary",
    "category": "highway",
    "subcategory": "secondary",
    "latitude": 27.5381755,
    "longitude": 68.18807050000001,
    "id": 295849109
  },
  {
    "name": "Larkana - Nasirabad Road",
    "category": "highway",
    "subcategory": "secondary",
    "latitude": 27.54534261375,
    "longitude": 68.2000874125,
    "id": 295849110
  },
  {
    "name": "tertiary",
    "category": "highway",
    "subcategory": "tertiary",
    "latitude": 27.58875305,
    "longitude": 68.155097575,
    "id": 296100146
  },
  {
    "name": "residential",
    "category": "highway",
    "subcategory": "residential",
    "latitude": 27.554365416666666,
    "longitude": 68.2123179,
    "id": 296103478
  },
  {
    "name": "Shah Nawaz Road",
    "category": "highway",
    "subcategory": "primary",
    "latitude": 27.553656805555555,
    "longitude": 68.20186036111112,
    "id": 296103479
  },
  {
    "name": "residential",
    "category": "highway",
    "subcategory": "residential",
    "latitude": 27.55020885,
    "longitude": 68.212078825,
    "id": 296103480
  },
  {
    "name": "Murad Wahan Road",
    "category": "highway",
    "subcategory": "tertiary",
    "latitude": 27.5362799084507,
    "longitude": 68.22548715211268,
    "id": 296103481
  },
  {
    "name": "secondary",
    "category": "highway",
    "subcategory": "secondary",
    "latitude": 27.551653023076923,
    "longitude": 68.2136187,
    "id": 296103482
  },
  {
    "name": "secondary",
    "category": "highway",
    "subcategory": "secondary",
    "latitude": 27.557492,
    "longitude": 68.2151276125,
    "id": 296103484
  },
  {
    "name": "residential",
    "category": "highway",
    "subcategory": "residential",
    "latitude": 27.55871959285714,
    "longitude": 68.21757345,
    "id": 296103485
  },
  {
    "name": "Shah Nawaz Road",
    "category": "highway",
    "subcategory": "primary",
    "latitude": 27.547509960000003,
    "longitude": 68.20551172,
    "id": 296103486
  },
  {
    "name": "secondary",
    "category": "highway",
    "subcategory": "secondary",
    "latitude": 27.54759146666667,
    "longitude": 68.20316483333333,
    "id": 296103487
  },
  {
    "name": "primary",
    "category": "highway",
    "subcategory": "primary",
    "latitude": 27.548980455,
    "longitude": 68.20417869,
    "id": 296103488
  },
  {
    "name": "Shah Nawaz Road",
    "category": "highway",
    "subcategory": "primary",
    "latitude": 27.559333485714287,
    "longitude": 68.19957430714285,
    "id": 296106949
  },
  {
    "name": "کینال روڈ",
    "category": "highway",
    "subcategory": "secondary",
    "latitude": 27.572988661538464,
    "longitude": 68.2197190076923,
    "id": 296106950
  },
  {
    "name": "secondary",
    "category": "highway",
    "subcategory": "secondary",
    "latitude": 27.56534175,
    "longitude": 68.21393865,
    "id": 296106951
  },
  {
    "name": "اسٹیشن روڈ",
    "category": "highway",
    "subcategory": "primary",
    "latitude": 27.55371,
    "longitude": 68.213162775,
    "id": 296106952
  },
  {
    "name": "secondary",
    "category": "highway",
    "subcategory": "secondary",
    "latitude": 27.558780030769228,
    "longitude": 68.21817921538462,
    "id": 296106953
  },
  {
    "name": "ذوالفقار پارک",
    "category": "leisure",
    "subcategory": "park",
    "latitude": 27.559546490000002,
    "longitude": 68.21540679,
    "id": 296107180
  },
  {
    "name": "service",
    "category": "highway",
    "subcategory": "service",
    "latitude": 27.563413580000002,
    "longitude": 68.20569688,
    "id": 296114466
  },
  {
    "name": "tertiary",
    "category": "highway",
    "subcategory": "tertiary",
    "latitude": 27.562022425000002,
    "longitude": 68.206296575,
    "id": 296114467
  },
  {
    "name": "tertiary",
    "category": "highway",
    "subcategory": "tertiary",
    "latitude": 27.5639921,
    "longitude": 68.2105604,
    "id": 296114468
  },
  {
    "name": "tertiary",
    "category": "highway",
    "subcategory": "tertiary",
    "latitude": 27.55151907962963,
    "longitude": 68.23676372962963,
    "id": 296114555
  },
  {
    "name": "residential",
    "category": "highway",
    "subcategory": "residential",
    "latitude": 27.56307718,
    "longitude": 68.19447588,
    "id": 296334730
  },
  {
    "name": "residential",
    "category": "highway",
    "subcategory": "residential",
    "latitude": 27.56210069,
    "longitude": 68.19438932,
    "id": 296334731
  },
  {
    "name": "residential",
    "category": "highway",
    "subcategory": "residential",
    "latitude": 27.561052944444445,
    "longitude": 68.1944484888889,
    "id": 296334732
  },
  {
    "name": "residential",
    "category": "highway",
    "subcategory": "residential",
    "latitude": 27.55805312142857,
    "longitude": 68.19484803571429,
    "id": 296334734
  },
  {
    "name": "residential",
    "category": "highway",
    "subcategory": "residential",
    "latitude": 27.560326925,
    "longitude": 68.195969,
    "id": 296334735
  },
  {
    "name": "residential",
    "category": "highway",
    "subcategory": "residential",
    "latitude": 27.560471216666667,
    "longitude": 68.19543973333333,
    "id": 296334736
  },
  {
    "name": "residential",
    "category": "highway",
    "subcategory": "residential",
    "latitude": 27.559886140000003,
    "longitude": 68.19645888,
    "id": 296334738
  },
  {
    "name": "residential",
    "category": "highway",
    "subcategory": "residential",
    "latitude": 27.558482216666665,
    "longitude": 68.19727928333333,
    "id": 296334740
  },
  {
    "name": "residential",
    "category": "highway",
    "subcategory": "residential",
    "latitude": 27.55688305,
    "longitude": 68.195393625,
    "id": 296334743
  },
  {
    "name": "residential",
    "category": "highway",
    "subcategory": "residential",
    "latitude": 27.5601657,
    "longitude": 68.193635025,
    "id": 296334744
  },
  {
    "name": "residential",
    "category": "highway",
    "subcategory": "residential",
    "latitude": 27.56152015,
    "longitude": 68.19374225,
    "id": 296334745
  },
  {
    "name": "residential",
    "category": "highway",
    "subcategory": "residential",
    "latitude": 27.5627244,
    "longitude": 68.19388699999999,
    "id": 296334746
  },
  {
    "name": "residential",
    "category": "highway",
    "subcategory": "residential",
    "latitude": 27.56268156666667,
    "longitude": 68.19586693333333,
    "id": 296334747
  },
  {
    "name": "residential",
    "category": "highway",
    "subcategory": "residential",
    "latitude": 27.561146575000002,
    "longitude": 68.19674892500001,
    "id": 296334748
  },
  {
    "name": "residential",
    "category": "highway",
    "subcategory": "residential",
    "latitude": 27.56140965,
    "longitude": 68.19611065000001,
    "id": 296334749
  },
  {
    "name": "residential",
    "category": "highway",
    "subcategory": "residential",
    "latitude": 27.559254266666667,
    "longitude": 68.19867823333334,
    "id": 296336755
  },
  {
    "name": "residential",
    "category": "highway",
    "subcategory": "residential",
    "latitude": 27.5588793,
    "longitude": 68.19878233333333,
    "id": 296336757
  },
  {
    "name": "residential",
    "category": "highway",
    "subcategory": "residential",
    "latitude": 27.558511,
    "longitude": 68.1981152,
    "id": 296336759
  },
  {
    "name": "unclassified",
    "category": "highway",
    "subcategory": "unclassified",
    "latitude": 27.557223108333332,
    "longitude": 68.19831354166666,
    "id": 296336760
  },
  {
    "name": "residential",
    "category": "highway",
    "subcategory": "residential",
    "latitude": 27.55774046666667,
    "longitude": 68.19774843333333,
    "id": 296336762
  },
  {
    "name": "residential",
    "category": "highway",
    "subcategory": "residential",
    "latitude": 27.557350550000002,
    "longitude": 68.19779395,
    "id": 296336763
  },
  {
    "name": "residential",
    "category": "highway",
    "subcategory": "residential",
    "latitude": 27.55698915,
    "longitude": 68.19757815,
    "id": 296336764
  },
  {
    "name": "residential",
    "category": "highway",
    "subcategory": "residential",
    "latitude": 27.55814296666667,
    "longitude": 68.1979377,
    "id": 296336765
  },
  {
    "name": "residential",
    "category": "highway",
    "subcategory": "residential",
    "latitude": 27.557654166666666,
    "longitude": 68.19661626666665,
    "id": 296336767
  },
  {
    "name": "residential",
    "category": "highway",
    "subcategory": "residential",
    "latitude": 27.5631770125,
    "longitude": 68.1982473125,
    "id": 296336768
  },
  {
    "name": "residential",
    "category": "highway",
    "subcategory": "residential",
    "latitude": 27.561591657142856,
    "longitude": 68.1988606,
    "id": 296336769
  },
  {
    "name": "residential",
    "category": "highway",
    "subcategory": "residential",
    "latitude": 27.5616459875,
    "longitude": 68.1983946125,
    "id": 296336772
  },
  {
    "name": "residential",
    "category": "highway",
    "subcategory": "residential",
    "latitude": 27.561682066666666,
    "longitude": 68.1977124,
    "id": 296336773
  },
  {
    "name": "residential",
    "category": "highway",
    "subcategory": "residential",
    "latitude": 27.5608218,
    "longitude": 68.1976741,
    "id": 296336774
  },
  {
    "name": "جناح باغ",
    "category": "leisure",
    "subcategory": "park",
    "latitude": 27.55387566,
    "longitude": 68.21272828,
    "id": 296338366
  },
  {
    "name": "Railway Park",
    "category": "leisure",
    "subcategory": "park",
    "latitude": 27.55257034,
    "longitude": 68.21076192000001,
    "id": 296338367
  },
  {
    "name": "park",
    "category": "leisure",
    "subcategory": "park",
    "latitude": 27.55307302,
    "longitude": 68.21190436,
    "id": 296338368
  },
  {
    "name": "residential",
    "category": "highway",
    "subcategory": "residential",
    "latitude": 27.554023666666666,
    "longitude": 68.20835616666666,
    "id": 296338370
  },
  {
    "name": "residential",
    "category": "highway",
    "subcategory": "residential",
    "latitude": 27.554001633333332,
    "longitude": 68.20972095,
    "id": 296338371
  },
  {
    "name": "residential",
    "category": "highway",
    "subcategory": "residential",
    "latitude": 27.554428966666666,
    "longitude": 68.2099753,
    "id": 296338372
  },
  {
    "name": "residential",
    "category": "highway",
    "subcategory": "residential",
    "latitude": 27.55423045,
    "longitude": 68.2097708,
    "id": 296338374
  },
  {
    "name": "residential",
    "category": "highway",
    "subcategory": "residential",
    "latitude": 27.553797833333334,
    "longitude": 68.20984829999999,
    "id": 296338375
  },
  {
    "name": "قومی شاہراہ 55",
    "category": "highway",
    "subcategory": "trunk",
    "latitude": 27.60195017142857,
    "longitude": 68.20884930952381,
    "id": 383554007
  },
  {
    "name": "VIP Road",
    "category": "highway",
    "subcategory": "primary",
    "latitude": 27.56377181666667,
    "longitude": 68.204529,
    "id": 383554009
  },
  {
    "name": "water",
    "category": "natural",
    "subcategory": "water",
    "latitude": 27.551298134126984,
    "longitude": 68.19844660952381,
    "id": 383557378
  },
  {
    "name": "Sheikh Zaed Children Hospital",
    "category": "amenity",
    "subcategory": "hospital",
    "latitude": 27.563066975,
    "longitude": 68.2052743,
    "id": 383558406
  },
  {
    "name": "Sheikh Zaed Women Hospital",
    "category": "amenity",
    "subcategory": "hospital",
    "latitude": 27.561942116666668,
    "longitude": 68.203478775,
    "id": 383558407
  },
  {
    "name": "Larkana Institute of Nuclear Medicine and Radiotherapy",
    "category": "amenity",
    "subcategory": "hospital",
    "latitude": 27.56106135,
    "longitude": 68.2021475125,
    "id": 383558408
  },
  {
    "name": "residential",
    "category": "highway",
    "subcategory": "residential",
    "latitude": 27.54497346818182,
    "longitude": 68.22821976818182,
    "id": 387411711
  },
  {
    "name": "residential",
    "category": "highway",
    "subcategory": "residential",
    "latitude": 27.563043045454545,
    "longitude": 68.21249543636364,
    "id": 398438507
  },
  {
    "name": "residential",
    "category": "highway",
    "subcategory": "residential",
    "latitude": 27.573222508333334,
    "longitude": 68.20378425833333,
    "id": 398438508
  },
  {
    "name": "residential",
    "category": "highway",
    "subcategory": "residential",
    "latitude": 27.572939184615386,
    "longitude": 68.20446820000001,
    "id": 398438509
  },
  {
    "name": "residential",
    "category": "highway",
    "subcategory": "residential",
    "latitude": 27.5630845625,
    "longitude": 68.21337063125,
    "id": 398438510
  },
  {
    "name": "residential",
    "category": "highway",
    "subcategory": "residential",
    "latitude": 27.55421475,
    "longitude": 68.20614889999999,
    "id": 398438511
  },
  {
    "name": "residential",
    "category": "highway",
    "subcategory": "residential",
    "latitude": 27.56213175,
    "longitude": 68.21309185000001,
    "id": 398438512
  },
  {
    "name": "residential",
    "category": "highway",
    "subcategory": "residential",
    "latitude": 27.57323635,
    "longitude": 68.20226935,
    "id": 398438513
  },
  {
    "name": "residential",
    "category": "highway",
    "subcategory": "residential",
    "latitude": 27.5731567,
    "longitude": 68.20287005,
    "id": 398438514
  },
  {
    "name": "unclassified",
    "category": "highway",
    "subcategory": "unclassified",
    "latitude": 27.554195399999998,
    "longitude": 68.20467256666666,
    "id": 398438515
  },
  {
    "name": "residential",
    "category": "highway",
    "subcategory": "residential",
    "latitude": 27.57330785,
    "longitude": 68.20170205,
    "id": 398438516
  },
  {
    "name": "unclassified",
    "category": "highway",
    "subcategory": "unclassified",
    "latitude": 27.55346146,
    "longitude": 68.20380292,
    "id": 398438517
  },
  {
    "name": "residential",
    "category": "highway",
    "subcategory": "residential",
    "latitude": 27.5715962,
    "longitude": 68.20672449999999,
    "id": 398438518
  },
  {
    "name": "unclassified",
    "category": "highway",
    "subcategory": "unclassified",
    "latitude": 27.554926066666667,
    "longitude": 68.20199475,
    "id": 398438519
  },
  {
    "name": "residential",
    "category": "highway",
    "subcategory": "residential",
    "latitude": 27.572187133333333,
    "longitude": 68.2055148,
    "id": 398438520
  },
  {
    "name": "residential",
    "category": "highway",
    "subcategory": "residential",
    "latitude": 27.570796069565215,
    "longitude": 68.20556595869566,
    "id": 398438521
  },
  {
    "name": "residential",
    "category": "highway",
    "subcategory": "residential",
    "latitude": 27.57303215,
    "longitude": 68.205365075,
    "id": 398438522
  },
  {
    "name": "residential",
    "category": "highway",
    "subcategory": "residential",
    "latitude": 27.56388332857143,
    "longitude": 68.21319312857143,
    "id": 398438523
  },
  {
    "name": "residential",
    "category": "highway",
    "subcategory": "residential",
    "latitude": 27.56202892,
    "longitude": 68.2132608,
    "id": 398438524
  },
  {
    "name": "residential",
    "category": "highway",
    "subcategory": "residential",
    "latitude": 27.563316266666668,
    "longitude": 68.21196478888889,
    "id": 398438525
  },
  {
    "name": "secondary",
    "category": "highway",
    "subcategory": "secondary",
    "latitude": 27.598296264285715,
    "longitude": 68.20985252142857,
    "id": 398438973
  },
  {
    "name": "residential",
    "category": "highway",
    "subcategory": "residential",
    "latitude": 27.561427133333336,
    "longitude": 68.19125243333333,
    "id": 482492929
  },
  {
    "name": "residential",
    "category": "highway",
    "subcategory": "residential",
    "latitude": 27.561859400000003,
    "longitude": 68.19191373333334,
    "id": 482492930
  },
  {
    "name": "residential",
    "category": "highway",
    "subcategory": "residential",
    "latitude": 27.5620922125,
    "longitude": 68.1914178,
    "id": 482492931
  },
  {
    "name": "residential",
    "category": "highway",
    "subcategory": "residential",
    "latitude": 27.561215125,
    "longitude": 68.192979925,
    "id": 482492932
  },
  {
    "name": "park",
    "category": "leisure",
    "subcategory": "park",
    "latitude": 27.550240728571428,
    "longitude": 68.20798435714286,
    "id": 581928154
  },
  {
    "name": "place_of_worship",
    "category": "amenity",
    "subcategory": "place_of_worship",
    "latitude": 27.544105360000003,
    "longitude": 68.20487378,
    "id": 584732710
  },
  {
    "name": "Dargah Rahmatpur Sharif",
    "category": "amenity",
    "subcategory": "place_of_worship",
    "latitude": 27.54435738,
    "longitude": 68.20481354,
    "id": 584732711
  },
  {
    "name": "residential",
    "category": "highway",
    "subcategory": "residential",
    "latitude": 27.54636036818182,
    "longitude": 68.21009941818183,
    "id": 584734154
  },
  {
    "name": "residential",
    "category": "highway",
    "subcategory": "residential",
    "latitude": 27.540613188888887,
    "longitude": 68.20052038888889,
    "id": 584734155
  },
  {
    "name": "residential",
    "category": "highway",
    "subcategory": "residential",
    "latitude": 27.5395922,
    "longitude": 68.20242755000001,
    "id": 584734156
  },
  {
    "name": "residential",
    "category": "highway",
    "subcategory": "residential",
    "latitude": 27.540115633333333,
    "longitude": 68.20258673333335,
    "id": 584734157
  },
  {
    "name": "residential",
    "category": "highway",
    "subcategory": "residential",
    "latitude": 27.541468308333332,
    "longitude": 68.20202118333333,
    "id": 584734158
  },
  {
    "name": "tertiary",
    "category": "highway",
    "subcategory": "tertiary",
    "latitude": 27.539121283333333,
    "longitude": 68.19696720416667,
    "id": 584734159
  },
  {
    "name": "residential",
    "category": "highway",
    "subcategory": "residential",
    "latitude": 27.53840154761905,
    "longitude": 68.20190419761904,
    "id": 584734160
  },
  {
    "name": "residential",
    "category": "highway",
    "subcategory": "residential",
    "latitude": 27.545069471428572,
    "longitude": 68.20584015714286,
    "id": 584734161
  },
  {
    "name": "residential",
    "category": "highway",
    "subcategory": "residential",
    "latitude": 27.541955625,
    "longitude": 68.20317615,
    "id": 584735026
  },
  {
    "name": "residential",
    "category": "highway",
    "subcategory": "residential",
    "latitude": 27.54192168333333,
    "longitude": 68.20377646666667,
    "id": 584735027
  },
  {
    "name": "residential",
    "category": "highway",
    "subcategory": "residential",
    "latitude": 27.54552380714286,
    "longitude": 68.20486525714286,
    "id": 584735028
  },
  {
    "name": "residential",
    "category": "highway",
    "subcategory": "residential",
    "latitude": 27.544464755555556,
    "longitude": 68.20357984444445,
    "id": 584735029
  },
  {
    "name": "residential",
    "category": "highway",
    "subcategory": "residential",
    "latitude": 27.54398785714286,
    "longitude": 68.20229861428571,
    "id": 584735030
  },
  {
    "name": "residential",
    "category": "highway",
    "subcategory": "residential",
    "latitude": 27.5438869,
    "longitude": 68.20224510000001,
    "id": 584735031
  },
  {
    "name": "residential",
    "category": "highway",
    "subcategory": "residential",
    "latitude": 27.54441555,
    "longitude": 68.203190125,
    "id": 584735032
  },
  {
    "name": "residential",
    "category": "highway",
    "subcategory": "residential",
    "latitude": 27.545519433333336,
    "longitude": 68.20388,
    "id": 584735033
  },
  {
    "name": "residential",
    "category": "highway",
    "subcategory": "residential",
    "latitude": 27.545346000000002,
    "longitude": 68.20273522,
    "id": 584735034
  },
  {
    "name": "residential",
    "category": "highway",
    "subcategory": "residential",
    "latitude": 27.544706066666667,
    "longitude": 68.20224673333333,
    "id": 584735035
  },
  {
    "name": "residential",
    "category": "highway",
    "subcategory": "residential",
    "latitude": 27.544247849999998,
    "longitude": 68.20143285,
    "id": 584735036
  },
  {
    "name": "residential",
    "category": "highway",
    "subcategory": "residential",
    "latitude": 27.543755275,
    "longitude": 68.20157425,
    "id": 584735037
  },
  {
    "name": "residential",
    "category": "highway",
    "subcategory": "residential",
    "latitude": 27.557822299999998,
    "longitude": 68.20798495,
    "id": 604657368
  },
  {
    "name": "residential",
    "category": "highway",
    "subcategory": "residential",
    "latitude": 27.557306625000002,
    "longitude": 68.20743195,
    "id": 604657369
  },
  {
    "name": "residential",
    "category": "highway",
    "subcategory": "residential",
    "latitude": 27.5571850625,
    "longitude": 68.20666407499999,
    "id": 604657370
  },
  {
    "name": "residential",
    "category": "highway",
    "subcategory": "residential",
    "latitude": 27.557277720000002,
    "longitude": 68.20840446,
    "id": 604657371
  },
  {
    "name": "residential",
    "category": "highway",
    "subcategory": "residential",
    "latitude": 27.55536285,
    "longitude": 68.2108011,
    "id": 604657372
  },
  {
    "name": "residential",
    "category": "highway",
    "subcategory": "residential",
    "latitude": 27.554665800000002,
    "longitude": 68.20982545000001,
    "id": 604657373
  },
  {
    "name": "residential",
    "category": "highway",
    "subcategory": "residential",
    "latitude": 27.555562600000002,
    "longitude": 68.20957304,
    "id": 604657374
  },
  {
    "name": "residential",
    "category": "highway",
    "subcategory": "residential",
    "latitude": 27.554885549999998,
    "longitude": 68.20957255,
    "id": 604657375
  },
  {
    "name": "residential",
    "category": "highway",
    "subcategory": "residential",
    "latitude": 27.58130415,
    "longitude": 68.18288655,
    "id": 620924795
  },
  {
    "name": "residential",
    "category": "highway",
    "subcategory": "residential",
    "latitude": 27.5810443125,
    "longitude": 68.1840814875,
    "id": 620924796
  },
  {
    "name": "residential",
    "category": "highway",
    "subcategory": "residential",
    "latitude": 27.5800884,
    "longitude": 68.18343695,
    "id": 620924797
  },
  {
    "name": "residential",
    "category": "highway",
    "subcategory": "residential",
    "latitude": 27.580498805555557,
    "longitude": 68.18364430555556,
    "id": 620924798
  },
  {
    "name": "residential",
    "category": "highway",
    "subcategory": "residential",
    "latitude": 27.580466916666666,
    "longitude": 68.18278398333332,
    "id": 620924799
  },
  {
    "name": "residential",
    "category": "highway",
    "subcategory": "residential",
    "latitude": 27.581351694444447,
    "longitude": 68.18339978888889,
    "id": 620924800
  },
  {
    "name": "residential",
    "category": "highway",
    "subcategory": "residential",
    "latitude": 27.580843545,
    "longitude": 68.1821944,
    "id": 620924801
  },
  {
    "name": "residential",
    "category": "highway",
    "subcategory": "residential",
    "latitude": 27.57920025,
    "longitude": 68.18072005,
    "id": 620924802
  },
  {
    "name": "residential",
    "category": "highway",
    "subcategory": "residential",
    "latitude": 27.57953525,
    "longitude": 68.1810401,
    "id": 620924803
  },
  {
    "name": "unclassified",
    "category": "highway",
    "subcategory": "unclassified",
    "latitude": 27.58457330425532,
    "longitude": 68.18644302553191,
    "id": 620924804
  },
  {
    "name": "Larkana Bypass Road",
    "category": "highway",
    "subcategory": "primary",
    "latitude": 27.5222981,
    "longitude": 68.17650499999999,
    "id": 624779238
  },
  {
    "name": "Larkana Bypass Road",
    "category": "highway",
    "subcategory": "primary",
    "latitude": 27.536116271428572,
    "longitude": 68.16403258571428,
    "id": 624779239
  },
  {
    "name": "primary",
    "category": "highway",
    "subcategory": "primary",
    "latitude": 27.522414599999998,
    "longitude": 68.17661154999999,
    "id": 624779241
  },
  {
    "name": "primary_link",
    "category": "highway",
    "subcategory": "primary_link",
    "latitude": 27.520172444444444,
    "longitude": 68.18236282222223,
    "id": 624779246
  },
  {
    "name": "primary",
    "category": "highway",
    "subcategory": "primary",
    "latitude": 27.52013175,
    "longitude": 68.18228375,
    "id": 624779248
  },
  {
    "name": "primary",
    "category": "highway",
    "subcategory": "primary",
    "latitude": 27.5202846,
    "longitude": 68.18237675,
    "id": 624779249
  },
  {
    "name": "لاڑکانہ رنگ روڈ",
    "category": "highway",
    "subcategory": "primary",
    "latitude": 27.54933250792079,
    "longitude": 68.24224824455446,
    "id": 624779252
  },
  {
    "name": "tertiary",
    "category": "highway",
    "subcategory": "tertiary",
    "latitude": 27.5257894625,
    "longitude": 68.1857337,
    "id": 624779260
  },
  {
    "name": "Larkana - Nasirabad Road",
    "category": "highway",
    "subcategory": "secondary",
    "latitude": 27.53465202413793,
    "longitude": 68.18227543103448,
    "id": 624779262
  },
  {
    "name": "قومی شاہراہ 55",
    "category": "highway",
    "subcategory": "trunk",
    "latitude": 27.56793237435897,
    "longitude": 68.15644566410256,
    "id": 624779277
  },
  {
    "name": "قومی شاہراہ 55",
    "category": "highway",
    "subcategory": "trunk",
    "latitude": 27.583589099999998,
    "longitude": 68.17136765000001,
    "id": 624779278
  },
  {
    "name": "residential",
    "category": "landuse",
    "subcategory": "residential",
    "latitude": 27.55281077142857,
    "longitude": 68.20766141296296,
    "id": 624786927
  },
  {
    "name": "residential",
    "category": "highway",
    "subcategory": "residential",
    "latitude": 27.564820320000003,
    "longitude": 68.22961008,
    "id": 624786930
  },
  {
    "name": "residential",
    "category": "highway",
    "subcategory": "residential",
    "latitude": 27.570099566666666,
    "longitude": 68.22583730000001,
    "id": 624786931
  },
  {
    "name": "Lohhr Colony Road",
    "category": "highway",
    "subcategory": "residential",
    "latitude": 27.573499869565218,
    "longitude": 68.22387346521738,
    "id": 624786932
  },
  {
    "name": "residential",
    "category": "highway",
    "subcategory": "residential",
    "latitude": 27.569770013333333,
    "longitude": 68.22230639333333,
    "id": 624786933
  },
  {
    "name": "Phull Road",
    "category": "highway",
    "subcategory": "tertiary",
    "latitude": 27.54763073809524,
    "longitude": 68.23724187619048,
    "id": 624786934
  },
  {
    "name": "residential",
    "category": "highway",
    "subcategory": "residential",
    "latitude": 27.5524093,
    "longitude": 68.21476390000001,
    "id": 624786935
  },
  {
    "name": "residential",
    "category": "highway",
    "subcategory": "residential",
    "latitude": 27.55190081,
    "longitude": 68.21459257000001,
    "id": 624786936
  },
  {
    "name": "residential",
    "category": "highway",
    "subcategory": "residential",
    "latitude": 27.55211886,
    "longitude": 68.21574097999999,
    "id": 624786937
  },
  {
    "name": "residential",
    "category": "highway",
    "subcategory": "residential",
    "latitude": 27.55211015,
    "longitude": 68.214701925,
    "id": 624786938
  },
  {
    "name": "residential",
    "category": "highway",
    "subcategory": "residential",
    "latitude": 27.553246344444446,
    "longitude": 68.21380392222221,
    "id": 624786939
  },
  {
    "name": "residential",
    "category": "highway",
    "subcategory": "residential",
    "latitude": 27.554445994117646,
    "longitude": 68.2142316,
    "id": 624786940
  },
  {
    "name": "residential",
    "category": "highway",
    "subcategory": "residential",
    "latitude": 27.551233949999997,
    "longitude": 68.2158967,
    "id": 624786941
  },
  {
    "name": "residential",
    "category": "highway",
    "subcategory": "residential",
    "latitude": 27.5526613,
    "longitude": 68.21622066666667,
    "id": 624786943
  },
  {
    "name": "residential",
    "category": "highway",
    "subcategory": "residential",
    "latitude": 27.550041800000002,
    "longitude": 68.21581911666667,
    "id": 624786944
  },
  {
    "name": "residential",
    "category": "highway",
    "subcategory": "residential",
    "latitude": 27.54940487142857,
    "longitude": 68.21576504285714,
    "id": 624786945
  },
  {
    "name": "residential",
    "category": "highway",
    "subcategory": "residential",
    "latitude": 27.549894966666667,
    "longitude": 68.21721255,
    "id": 624786947
  },
  {
    "name": "اسٹیشن روڈ",
    "category": "highway",
    "subcategory": "primary",
    "latitude": 27.55001035,
    "longitude": 68.21113465,
    "id": 624788600
  },
  {
    "name": "Shah Nawaz Road",
    "category": "highway",
    "subcategory": "primary",
    "latitude": 27.54318705,
    "longitude": 68.2119165,
    "id": 624788602
  },
  {
    "name": "Shah Nawaz Road",
    "category": "highway",
    "subcategory": "primary",
    "latitude": 27.54482183,
    "longitude": 68.20889462,
    "id": 624788604
  },
  {
    "name": "Qambar Road",
    "category": "highway",
    "subcategory": "primary",
    "latitude": 27.570604808333332,
    "longitude": 68.18962199166667,
    "id": 624788606
  },
  {
    "name": "وی آئی پی روڈ",
    "category": "highway",
    "subcategory": "primary",
    "latitude": 27.55613215,
    "longitude": 68.2078168423077,
    "id": 624791950
  },
  {
    "name": "residential",
    "category": "highway",
    "subcategory": "residential",
    "latitude": 27.562081733333333,
    "longitude": 68.21089846666666,
    "id": 624791953
  },
  {
    "name": "tertiary",
    "category": "highway",
    "subcategory": "tertiary",
    "latitude": 27.570597258139536,
    "longitude": 68.21584274651163,
    "id": 624791954
  },
  {
    "name": "tertiary",
    "category": "highway",
    "subcategory": "tertiary",
    "latitude": 27.562306749999998,
    "longitude": 68.20672435,
    "id": 624791957
  },
  {
    "name": "residential",
    "category": "highway",
    "subcategory": "residential",
    "latitude": 27.5687815,
    "longitude": 68.20520694736842,
    "id": 624791958
  },
  {
    "name": "pitch",
    "category": "leisure",
    "subcategory": "pitch",
    "latitude": 27.569808549999998,
    "longitude": 68.20585113,
    "id": 624791959
  },
  {
    "name": "primary",
    "category": "highway",
    "subcategory": "primary",
    "latitude": 27.56139285,
    "longitude": 68.20662039999999,
    "id": 624791960
  },
  {
    "name": "Qambar Road",
    "category": "highway",
    "subcategory": "primary",
    "latitude": 27.56168445,
    "longitude": 68.206384375,
    "id": 624791961
  },
  {
    "name": "Allama Mashriqi Road",
    "category": "highway",
    "subcategory": "secondary",
    "latitude": 27.56104285,
    "longitude": 68.20666275,
    "id": 624791962
  },
  {
    "name": "residential",
    "category": "highway",
    "subcategory": "residential",
    "latitude": 27.57754152857143,
    "longitude": 68.219279,
    "id": 624791963
  },
  {
    "name": "residential",
    "category": "highway",
    "subcategory": "residential",
    "latitude": 27.576796771428572,
    "longitude": 68.2188448,
    "id": 624791964
  },
  {
    "name": "residential",
    "category": "highway",
    "subcategory": "residential",
    "latitude": 27.575932022222222,
    "longitude": 68.2176052388889,
    "id": 624791965
  },
  {
    "name": "residential",
    "category": "highway",
    "subcategory": "residential",
    "latitude": 27.575114916666667,
    "longitude": 68.2175689,
    "id": 624791966
  },
  {
    "name": "residential",
    "category": "highway",
    "subcategory": "residential",
    "latitude": 27.57442853157895,
    "longitude": 68.21753306842105,
    "id": 624792253
  },
  {
    "name": "residential",
    "category": "highway",
    "subcategory": "residential",
    "latitude": 27.576532685714284,
    "longitude": 68.2183793,
    "id": 624792254
  },
  {
    "name": "residential",
    "category": "highway",
    "subcategory": "residential",
    "latitude": 27.574287650000002,
    "longitude": 68.21324808333334,
    "id": 624792255
  },
  {
    "name": "residential",
    "category": "highway",
    "subcategory": "residential",
    "latitude": 27.575192525,
    "longitude": 68.21131845,
    "id": 624792256
  },
  {
    "name": "residential",
    "category": "highway",
    "subcategory": "residential",
    "latitude": 27.575629175000003,
    "longitude": 68.21239865,
    "id": 624792257
  },
  {
    "name": "residential",
    "category": "highway",
    "subcategory": "residential",
    "latitude": 27.575498133333337,
    "longitude": 68.21203986666667,
    "id": 624792258
  },
  {
    "name": "residential",
    "category": "highway",
    "subcategory": "residential",
    "latitude": 27.577872,
    "longitude": 68.215760375,
    "id": 624792259
  },
  {
    "name": "residential",
    "category": "highway",
    "subcategory": "residential",
    "latitude": 27.556665916666663,
    "longitude": 68.21480736666666,
    "id": 624793589
  },
  {
    "name": "Allama Mashriqi Road",
    "category": "highway",
    "subcategory": "secondary",
    "latitude": 27.563392555555556,
    "longitude": 68.21111646666667,
    "id": 624793590
  },
  {
    "name": "residential",
    "category": "highway",
    "subcategory": "residential",
    "latitude": 27.573477210344826,
    "longitude": 68.22219424827587,
    "id": 624793591
  },
  {
    "name": "residential",
    "category": "highway",
    "subcategory": "residential",
    "latitude": 27.573133875,
    "longitude": 68.22283955,
    "id": 624793592
  },
  {
    "name": "residential",
    "category": "highway",
    "subcategory": "residential",
    "latitude": 27.5748146,
    "longitude": 68.22606825,
    "id": 624793593
  },
  {
    "name": "residential",
    "category": "highway",
    "subcategory": "residential",
    "latitude": 27.57528395,
    "longitude": 68.2260818,
    "id": 624793594
  },
  {
    "name": "residential",
    "category": "highway",
    "subcategory": "residential",
    "latitude": 27.5730751,
    "longitude": 68.22701653333334,
    "id": 624793596
  },
  {
    "name": "residential",
    "category": "highway",
    "subcategory": "residential",
    "latitude": 27.571986383333336,
    "longitude": 68.2262501,
    "id": 624793597
  },
  {
    "name": "VIP Road",
    "category": "highway",
    "subcategory": "primary",
    "latitude": 27.597650091666665,
    "longitude": 68.22624765416667,
    "id": 624794677
  },
  {
    "name": "residential",
    "category": "highway",
    "subcategory": "residential",
    "latitude": 27.547106271428568,
    "longitude": 68.22924909999999,
    "id": 625095106
  },
  {
    "name": "residential",
    "category": "highway",
    "subcategory": "residential",
    "latitude": 27.547561799999997,
    "longitude": 68.2298987,
    "id": 625095107
  },
  {
    "name": "residential",
    "category": "highway",
    "subcategory": "residential",
    "latitude": 27.547462866666667,
    "longitude": 68.22819306666666,
    "id": 625095108
  },
  {
    "name": "residential",
    "category": "highway",
    "subcategory": "residential",
    "latitude": 27.54708592,
    "longitude": 68.22746356,
    "id": 625095109
  },
  {
    "name": "residential",
    "category": "highway",
    "subcategory": "residential",
    "latitude": 27.54608884545455,
    "longitude": 68.22770314545454,
    "id": 625095110
  },
  {
    "name": "residential",
    "category": "highway",
    "subcategory": "residential",
    "latitude": 27.545222116666665,
    "longitude": 68.22799926666666,
    "id": 625095111
  },
  {
    "name": "residential",
    "category": "highway",
    "subcategory": "residential",
    "latitude": 27.547403659999997,
    "longitude": 68.22611272,
    "id": 625095112
  },
  {
    "name": "residential",
    "category": "highway",
    "subcategory": "residential",
    "latitude": 27.548149366666667,
    "longitude": 68.22609686666667,
    "id": 625095113
  },
  {
    "name": "residential",
    "category": "highway",
    "subcategory": "residential",
    "latitude": 27.548596333333336,
    "longitude": 68.2269099,
    "id": 625095114
  },
  {
    "name": "residential",
    "category": "highway",
    "subcategory": "residential",
    "latitude": 27.546542266666666,
    "longitude": 68.22408755,
    "id": 625095115
  },
  {
    "name": "residential",
    "category": "highway",
    "subcategory": "residential",
    "latitude": 27.54575203846154,
    "longitude": 68.22369530769231,
    "id": 625095116
  },
  {
    "name": "residential",
    "category": "highway",
    "subcategory": "residential",
    "latitude": 27.545696699999997,
    "longitude": 68.22162113333333,
    "id": 625095117
  },
  {
    "name": "residential",
    "category": "highway",
    "subcategory": "residential",
    "latitude": 27.5444612,
    "longitude": 68.22242748,
    "id": 625095118
  },
  {
    "name": "residential",
    "category": "highway",
    "subcategory": "residential",
    "latitude": 27.54545613333333,
    "longitude": 68.22201853333333,
    "id": 625095119
  },
  {
    "name": "residential",
    "category": "highway",
    "subcategory": "residential",
    "latitude": 27.5455872,
    "longitude": 68.22233353333333,
    "id": 625095120
  },
  {
    "name": "residential",
    "category": "highway",
    "subcategory": "residential",
    "latitude": 27.544350525,
    "longitude": 68.2229465,
    "id": 625095121
  },
  {
    "name": "residential",
    "category": "highway",
    "subcategory": "residential",
    "latitude": 27.545728333333333,
    "longitude": 68.22258196666667,
    "id": 625095122
  },
  {
    "name": "residential",
    "category": "highway",
    "subcategory": "residential",
    "latitude": 27.54596064242424,
    "longitude": 68.2206584,
    "id": 625095123
  },
  {
    "name": "residential",
    "category": "highway",
    "subcategory": "residential",
    "latitude": 27.548577745454544,
    "longitude": 68.22201983636363,
    "id": 625095124
  },
  {
    "name": "residential",
    "category": "highway",
    "subcategory": "residential",
    "latitude": 27.546762049999998,
    "longitude": 68.222048375,
    "id": 625095125
  },
  {
    "name": "Soomra Road",
    "category": "highway",
    "subcategory": "residential",
    "latitude": 27.552235680000003,
    "longitude": 68.22083065,
    "id": 625095126
  },
  {
    "name": "residential",
    "category": "highway",
    "subcategory": "residential",
    "latitude": 27.553347466666665,
    "longitude": 68.22095328333333,
    "id": 625095127
  },
  {
    "name": "residential",
    "category": "highway",
    "subcategory": "residential",
    "latitude": 27.553921000000003,
    "longitude": 68.22083475,
    "id": 625095128
  },
  {
    "name": "residential",
    "category": "highway",
    "subcategory": "residential",
    "latitude": 27.551276568749998,
    "longitude": 68.222639175,
    "id": 625095129
  },
  {
    "name": "residential",
    "category": "highway",
    "subcategory": "residential",
    "latitude": 27.553070459999997,
    "longitude": 68.22168102,
    "id": 625095130
  },
  {
    "name": "residential",
    "category": "highway",
    "subcategory": "residential",
    "latitude": 27.552830627272726,
    "longitude": 68.22403659999999,
    "id": 625095131
  },
  {
    "name": "residential",
    "category": "highway",
    "subcategory": "residential",
    "latitude": 27.554195274999998,
    "longitude": 68.220550475,
    "id": 625095132
  },
  {
    "name": "residential",
    "category": "highway",
    "subcategory": "residential",
    "latitude": 27.55381934,
    "longitude": 68.22083998,
    "id": 625095133
  },
  {
    "name": "residential",
    "category": "highway",
    "subcategory": "residential",
    "latitude": 27.5504262,
    "longitude": 68.2195098,
    "id": 625095134
  },
  {
    "name": "residential",
    "category": "highway",
    "subcategory": "residential",
    "latitude": 27.55137105,
    "longitude": 68.22002845,
    "id": 625095135
  },
  {
    "name": "residential",
    "category": "highway",
    "subcategory": "residential",
    "latitude": 27.5501966,
    "longitude": 68.2207365,
    "id": 625095136
  },
  {
    "name": "residential",
    "category": "highway",
    "subcategory": "residential",
    "latitude": 27.55057166923077,
    "longitude": 68.22456341538462,
    "id": 625095137
  },
  {
    "name": "residential",
    "category": "highway",
    "subcategory": "residential",
    "latitude": 27.55161677142857,
    "longitude": 68.2239892,
    "id": 625095138
  },
  {
    "name": "residential",
    "category": "highway",
    "subcategory": "residential",
    "latitude": 27.5531932125,
    "longitude": 68.224549075,
    "id": 625095139
  },
  {
    "name": "residential",
    "category": "highway",
    "subcategory": "residential",
    "latitude": 27.55135045,
    "longitude": 68.22165755,
    "id": 625095140
  },
  {
    "name": "residential",
    "category": "highway",
    "subcategory": "residential",
    "latitude": 27.5452032,
    "longitude": 68.22102746666667,
    "id": 625095141
  },
  {
    "name": "residential",
    "category": "highway",
    "subcategory": "residential",
    "latitude": 27.544646800000002,
    "longitude": 68.22104300000001,
    "id": 625095142
  },
  {
    "name": "residential",
    "category": "highway",
    "subcategory": "residential",
    "latitude": 27.545528775,
    "longitude": 68.22077622500001,
    "id": 625095143
  },
  {
    "name": "residential",
    "category": "highway",
    "subcategory": "residential",
    "latitude": 27.544754299999997,
    "longitude": 68.22052040000001,
    "id": 625095144
  },
  {
    "name": "residential",
    "category": "highway",
    "subcategory": "residential",
    "latitude": 27.546966183333335,
    "longitude": 68.21444578333333,
    "id": 625095145
  },
  {
    "name": "residential",
    "category": "highway",
    "subcategory": "residential",
    "latitude": 27.54583033,
    "longitude": 68.216555295,
    "id": 625095146
  },
  {
    "name": "residential",
    "category": "highway",
    "subcategory": "residential",
    "latitude": 27.546365629411767,
    "longitude": 68.21704253529413,
    "id": 625095147
  },
  {
    "name": "residential",
    "category": "highway",
    "subcategory": "residential",
    "latitude": 27.544737485714286,
    "longitude": 68.21732172857143,
    "id": 625095148
  },
  {
    "name": "residential",
    "category": "highway",
    "subcategory": "residential",
    "latitude": 27.546596899999997,
    "longitude": 68.2163024,
    "id": 625095149
  },
  {
    "name": "residential",
    "category": "highway",
    "subcategory": "residential",
    "latitude": 27.548353266666666,
    "longitude": 68.21721653333333,
    "id": 625095150
  },
  {
    "name": "residential",
    "category": "highway",
    "subcategory": "residential",
    "latitude": 27.547968585714283,
    "longitude": 68.21558067142857,
    "id": 625095151
  },
  {
    "name": "residential",
    "category": "highway",
    "subcategory": "residential",
    "latitude": 27.548602542857143,
    "longitude": 68.21458434285714,
    "id": 625095152
  },
  {
    "name": "residential",
    "category": "highway",
    "subcategory": "residential",
    "latitude": 27.5493597875,
    "longitude": 68.2176967,
    "id": 625095153
  },
  {
    "name": "residential",
    "category": "highway",
    "subcategory": "residential",
    "latitude": 27.549248555555558,
    "longitude": 68.21833043333334,
    "id": 625095154
  },
  {
    "name": "residential",
    "category": "highway",
    "subcategory": "residential",
    "latitude": 27.54648292222222,
    "longitude": 68.21873973333334,
    "id": 625095156
  },
  {
    "name": "residential",
    "category": "highway",
    "subcategory": "residential",
    "latitude": 27.5462056,
    "longitude": 68.22012365,
    "id": 625095157
  },
  {
    "name": "residential",
    "category": "highway",
    "subcategory": "residential",
    "latitude": 27.545004685714282,
    "longitude": 68.21985290714285,
    "id": 625095158
  },
  {
    "name": "residential",
    "category": "highway",
    "subcategory": "residential",
    "latitude": 27.54224385,
    "longitude": 68.221787675,
    "id": 625095159
  },
  {
    "name": "residential",
    "category": "highway",
    "subcategory": "residential",
    "latitude": 27.543170659999998,
    "longitude": 68.2217058,
    "id": 625095160
  },
  {
    "name": "residential",
    "category": "highway",
    "subcategory": "residential",
    "latitude": 27.544552883333335,
    "longitude": 68.21769311666667,
    "id": 625095161
  },
  {
    "name": "residential",
    "category": "highway",
    "subcategory": "residential",
    "latitude": 27.548999600000002,
    "longitude": 68.216443425,
    "id": 625095162
  },
  {
    "name": "residential",
    "category": "highway",
    "subcategory": "residential",
    "latitude": 27.5385751,
    "longitude": 68.21179980000001,
    "id": 625096856
  },
  {
    "name": "residential",
    "category": "highway",
    "subcategory": "residential",
    "latitude": 27.536549652941176,
    "longitude": 68.21305148235294,
    "id": 625096857
  },
  {
    "name": "residential",
    "category": "highway",
    "subcategory": "residential",
    "latitude": 27.53543517142857,
    "longitude": 68.21322074285715,
    "id": 625096858
  },
  {
    "name": "residential",
    "category": "highway",
    "subcategory": "residential",
    "latitude": 27.535156483333335,
    "longitude": 68.21281806666667,
    "id": 625096859
  },
  {
    "name": "residential",
    "category": "highway",
    "subcategory": "residential",
    "latitude": 27.534697128571427,
    "longitude": 68.21283032857143,
    "id": 625096860
  },
  {
    "name": "residential",
    "category": "highway",
    "subcategory": "residential",
    "latitude": 27.53532078888889,
    "longitude": 68.21365268888889,
    "id": 625096861
  },
  {
    "name": "residential",
    "category": "highway",
    "subcategory": "residential",
    "latitude": 27.53545551,
    "longitude": 68.21179212,
    "id": 625096862
  },
  {
    "name": "residential",
    "category": "highway",
    "subcategory": "residential",
    "latitude": 27.5353274,
    "longitude": 68.21247574285714,
    "id": 625096863
  },
  {
    "name": "residential",
    "category": "highway",
    "subcategory": "residential",
    "latitude": 27.535017500000002,
    "longitude": 68.21301220000001,
    "id": 625096864
  },
  {
    "name": "residential",
    "category": "highway",
    "subcategory": "residential",
    "latitude": 27.53617255,
    "longitude": 68.21238095,
    "id": 625096865
  },
  {
    "name": "residential",
    "category": "highway",
    "subcategory": "residential",
    "latitude": 27.53282182,
    "longitude": 68.21137200000001,
    "id": 625096866
  },
  {
    "name": "residential",
    "category": "highway",
    "subcategory": "residential",
    "latitude": 27.533015145454545,
    "longitude": 68.21353584545454,
    "id": 625096867
  },
  {
    "name": "residential",
    "category": "highway",
    "subcategory": "residential",
    "latitude": 27.53271868,
    "longitude": 68.21325394,
    "id": 625096868
  },
  {
    "name": "residential",
    "category": "highway",
    "subcategory": "residential",
    "latitude": 27.53335555714286,
    "longitude": 68.2120568,
    "id": 625096869
  },
  {
    "name": "residential",
    "category": "highway",
    "subcategory": "residential",
    "latitude": 27.534329516666663,
    "longitude": 68.21284383333334,
    "id": 625096870
  },
  {
    "name": "residential",
    "category": "highway",
    "subcategory": "residential",
    "latitude": 27.533420425,
    "longitude": 68.21355936249999,
    "id": 625096871
  },
  {
    "name": "residential",
    "category": "highway",
    "subcategory": "residential",
    "latitude": 27.53198805,
    "longitude": 68.211698575,
    "id": 625096872
  },
  {
    "name": "residential",
    "category": "highway",
    "subcategory": "residential",
    "latitude": 27.53227963333333,
    "longitude": 68.21360373333333,
    "id": 625096873
  },
  {
    "name": "residential",
    "category": "highway",
    "subcategory": "residential",
    "latitude": 27.531112049999997,
    "longitude": 68.2142677875,
    "id": 625096874
  },
  {
    "name": "residential",
    "category": "highway",
    "subcategory": "residential",
    "latitude": 27.5318758625,
    "longitude": 68.2137777125,
    "id": 625096875
  },
  {
    "name": "residential",
    "category": "highway",
    "subcategory": "residential",
    "latitude": 27.53099625,
    "longitude": 68.21191463333334,
    "id": 625096876
  },
  {
    "name": "residential",
    "category": "highway",
    "subcategory": "residential",
    "latitude": 27.532356925000002,
    "longitude": 68.211526625,
    "id": 625096877
  },
  {
    "name": "residential",
    "category": "highway",
    "subcategory": "residential",
    "latitude": 27.532732499999998,
    "longitude": 68.2113949,
    "id": 625096878
  },
  {
    "name": "residential",
    "category": "highway",
    "subcategory": "residential",
    "latitude": 27.53461995,
    "longitude": 68.20830805,
    "id": 625097138
  },
  {
    "name": "residential",
    "category": "highway",
    "subcategory": "residential",
    "latitude": 27.547240499999997,
    "longitude": 68.23215906,
    "id": 625097988
  },
  {
    "name": "residential",
    "category": "highway",
    "subcategory": "residential",
    "latitude": 27.547550360000002,
    "longitude": 68.23298114,
    "id": 625097989
  },
  {
    "name": "residential",
    "category": "highway",
    "subcategory": "residential",
    "latitude": 27.5478387,
    "longitude": 68.2336287,
    "id": 625097991
  },
  {
    "name": "قومی شاہراہ 55",
    "category": "highway",
    "subcategory": "trunk",
    "latitude": 27.60288763090909,
    "longitude": 68.20994085818182,
    "id": 625103070
  },
  {
    "name": "قومی شاہراہ 55",
    "category": "highway",
    "subcategory": "trunk",
    "latitude": 27.5836567,
    "longitude": 68.1712484,
    "id": 625103072
  },
  {
    "name": "secondary",
    "category": "highway",
    "subcategory": "secondary",
    "latitude": 27.5611370625,
    "longitude": 68.15938154999999,
    "id": 625103077
  },
  {
    "name": "residential",
    "category": "landuse",
    "subcategory": "residential",
    "latitude": 27.595674172727275,
    "longitude": 68.21026706363637,
    "id": 625103099
  },
  {
    "name": "residential",
    "category": "highway",
    "subcategory": "residential",
    "latitude": 27.59489865652174,
    "longitude": 68.21229823913043,
    "id": 625103100
  },
  {
    "name": "residential",
    "category": "highway",
    "subcategory": "residential",
    "latitude": 27.594810375,
    "longitude": 68.21128035,
    "id": 625103101
  },
  {
    "name": "residential",
    "category": "highway",
    "subcategory": "residential",
    "latitude": 27.594680099999998,
    "longitude": 68.2113035,
    "id": 625103102
  },
  {
    "name": "residential",
    "category": "highway",
    "subcategory": "residential",
    "latitude": 27.595132433333333,
    "longitude": 68.21086671666667,
    "id": 625103103
  },
  {
    "name": "residential",
    "category": "highway",
    "subcategory": "residential",
    "latitude": 27.59513791666667,
    "longitude": 68.2116261,
    "id": 625103104
  },
  {
    "name": "residential",
    "category": "highway",
    "subcategory": "residential",
    "latitude": 27.594118575,
    "longitude": 68.21246125,
    "id": 625103105
  },
  {
    "name": "residential",
    "category": "highway",
    "subcategory": "residential",
    "latitude": 27.5949799,
    "longitude": 68.21332945714286,
    "id": 625103106
  },
  {
    "name": "residential",
    "category": "highway",
    "subcategory": "residential",
    "latitude": 27.5940459,
    "longitude": 68.2129923,
    "id": 625103107
  },
  {
    "name": "residential",
    "category": "highway",
    "subcategory": "residential",
    "latitude": 27.594435,
    "longitude": 68.21291755,
    "id": 625103108
  },
  {
    "name": "residential",
    "category": "highway",
    "subcategory": "residential",
    "latitude": 27.5953716,
    "longitude": 68.2127285,
    "id": 625103109
  },
  {
    "name": "residential",
    "category": "highway",
    "subcategory": "residential",
    "latitude": 27.59574375,
    "longitude": 68.2126575,
    "id": 625103110
  },
  {
    "name": "residential",
    "category": "highway",
    "subcategory": "residential",
    "latitude": 27.5954767,
    "longitude": 68.2111815,
    "id": 625103111
  },
  {
    "name": "residential",
    "category": "highway",
    "subcategory": "residential",
    "latitude": 27.5958592,
    "longitude": 68.21110870000001,
    "id": 625103112
  },
  {
    "name": "residential",
    "category": "highway",
    "subcategory": "residential",
    "latitude": 27.594925449999998,
    "longitude": 68.21299465000001,
    "id": 625103113
  },
  {
    "name": "residential",
    "category": "highway",
    "subcategory": "residential",
    "latitude": 27.559476400000005,
    "longitude": 68.20497956666667,
    "id": 639134872
  },
  {
    "name": "residential",
    "category": "highway",
    "subcategory": "residential",
    "latitude": 27.559343540000004,
    "longitude": 68.20484,
    "id": 639134875
  },
  {
    "name": "residential",
    "category": "highway",
    "subcategory": "residential",
    "latitude": 27.5592483,
    "longitude": 68.204615425,
    "id": 639134876
  },
  {
    "name": "residential",
    "category": "highway",
    "subcategory": "residential",
    "latitude": 27.55860435,
    "longitude": 68.20370213333334,
    "id": 639134878
  },
  {
    "name": "residential",
    "category": "highway",
    "subcategory": "residential",
    "latitude": 27.55915086,
    "longitude": 68.20408114,
    "id": 639134880
  },
  {
    "name": "residential",
    "category": "highway",
    "subcategory": "residential",
    "latitude": 27.55871185,
    "longitude": 68.2042903,
    "id": 639134882
  },
  {
    "name": "residential",
    "category": "highway",
    "subcategory": "residential",
    "latitude": 27.558295299999997,
    "longitude": 68.20448375000001,
    "id": 639134883
  },
  {
    "name": "residential",
    "category": "highway",
    "subcategory": "residential",
    "latitude": 27.55805395,
    "longitude": 68.2043651,
    "id": 639134885
  },
  {
    "name": "residential",
    "category": "highway",
    "subcategory": "residential",
    "latitude": 27.557857300000002,
    "longitude": 68.20417334999999,
    "id": 639134886
  },
  {
    "name": "residential",
    "category": "highway",
    "subcategory": "residential",
    "latitude": 27.55759865,
    "longitude": 68.2040571,
    "id": 639134888
  },
  {
    "name": "residential",
    "category": "highway",
    "subcategory": "residential",
    "latitude": 27.557545544444444,
    "longitude": 68.20511253333332,
    "id": 639134889
  },
  {
    "name": "residential",
    "category": "highway",
    "subcategory": "residential",
    "latitude": 27.560338,
    "longitude": 68.2073343,
    "id": 639134891
  },
  {
    "name": "residential",
    "category": "highway",
    "subcategory": "residential",
    "latitude": 27.55931153125,
    "longitude": 68.20617379375,
    "id": 639134892
  },
  {
    "name": "residential",
    "category": "highway",
    "subcategory": "residential",
    "latitude": 27.56076155,
    "longitude": 68.20737650000001,
    "id": 639134894
  },
  {
    "name": "residential",
    "category": "highway",
    "subcategory": "residential",
    "latitude": 27.558160633333333,
    "longitude": 68.2024988,
    "id": 639134895
  },
  {
    "name": "residential",
    "category": "highway",
    "subcategory": "residential",
    "latitude": 27.55786226,
    "longitude": 68.20249774,
    "id": 639134897
  },
  {
    "name": "residential",
    "category": "highway",
    "subcategory": "residential",
    "latitude": 27.55767856,
    "longitude": 68.20171058,
    "id": 639134898
  },
  {
    "name": "residential",
    "category": "highway",
    "subcategory": "residential",
    "latitude": 27.55787614,
    "longitude": 68.20215184,
    "id": 639134900
  },
  {
    "name": "residential",
    "category": "highway",
    "subcategory": "residential",
    "latitude": 27.55720031304348,
    "longitude": 68.20438273913044,
    "id": 639134902
  },
  {
    "name": "residential",
    "category": "highway",
    "subcategory": "residential",
    "latitude": 27.557614875000002,
    "longitude": 68.20215247499999,
    "id": 639134904
  },
  {
    "name": "Shah Nawaz Road",
    "category": "highway",
    "subcategory": "primary",
    "latitude": 27.55827302,
    "longitude": 68.2004858,
    "id": 639136074
  },
  {
    "name": "residential",
    "category": "landuse",
    "subcategory": "residential",
    "latitude": 27.55159248,
    "longitude": 68.20673914,
    "id": 650814767
  },
  {
    "name": "residential",
    "category": "landuse",
    "subcategory": "residential",
    "latitude": 27.552545166666665,
    "longitude": 68.2081345,
    "id": 650814770
  },
  {
    "name": "residential",
    "category": "highway",
    "subcategory": "residential",
    "latitude": 27.556442349999998,
    "longitude": 68.1945839,
    "id": 659565242
  },
  {
    "name": "residential",
    "category": "highway",
    "subcategory": "residential",
    "latitude": 27.555268333333334,
    "longitude": 68.1928274,
    "id": 659565243
  },
  {
    "name": "residential",
    "category": "highway",
    "subcategory": "residential",
    "latitude": 27.55611705,
    "longitude": 68.1928076,
    "id": 659565244
  },
  {
    "name": "residential",
    "category": "highway",
    "subcategory": "residential",
    "latitude": 27.555435369999998,
    "longitude": 68.19342139,
    "id": 659565245
  },
  {
    "name": "residential",
    "category": "highway",
    "subcategory": "residential",
    "latitude": 27.55751005,
    "longitude": 68.19335525,
    "id": 659565246
  },
  {
    "name": "residential",
    "category": "highway",
    "subcategory": "residential",
    "latitude": 27.556397945454545,
    "longitude": 68.19377202727273,
    "id": 659565247
  },
  {
    "name": "residential",
    "category": "highway",
    "subcategory": "residential",
    "latitude": 27.55700916666667,
    "longitude": 68.1967955,
    "id": 659565248
  },
  {
    "name": "residential",
    "category": "highway",
    "subcategory": "residential",
    "latitude": 27.557480599999998,
    "longitude": 68.1946097,
    "id": 659565249
  },
  {
    "name": "residential",
    "category": "highway",
    "subcategory": "residential",
    "latitude": 27.55782345,
    "longitude": 68.19461785,
    "id": 659565250
  },
  {
    "name": "residential",
    "category": "highway",
    "subcategory": "residential",
    "latitude": 27.5571588,
    "longitude": 68.1946021,
    "id": 659565251
  },
  {
    "name": "residential",
    "category": "highway",
    "subcategory": "residential",
    "latitude": 27.556825585714286,
    "longitude": 68.19339894285714,
    "id": 659565252
  },
  {
    "name": "Larkana Circular Road",
    "category": "highway",
    "subcategory": "primary",
    "latitude": 27.524611033333333,
    "longitude": 68.17053943333333,
    "id": 661429276
  },
  {
    "name": "قومی شاہراہ 55",
    "category": "highway",
    "subcategory": "trunk",
    "latitude": 27.531401832450335,
    "longitude": 68.06815045364239,
    "id": 661721311
  },
  {
    "name": "Bahirshah Road",
    "category": "highway",
    "subcategory": "tertiary",
    "latitude": 27.5503892,
    "longitude": 68.21775207142858,
    "id": 663245852
  },
  {
    "name": "Larkana Circular Road",
    "category": "highway",
    "subcategory": "primary",
    "latitude": 27.521356625,
    "longitude": 68.179468775,
    "id": 681695107
  },
  {
    "name": "Larkana Bypass Road",
    "category": "highway",
    "subcategory": "primary",
    "latitude": 27.52104496,
    "longitude": 68.17989187999999,
    "id": 681695108
  },
  {
    "name": "secondary",
    "category": "highway",
    "subcategory": "secondary",
    "latitude": 27.557087199999998,
    "longitude": 68.2135344,
    "id": 684208272
  },
  {
    "name": "primary",
    "category": "highway",
    "subcategory": "primary",
    "latitude": 27.557614075,
    "longitude": 68.2114219,
    "id": 684208273
  },
  {
    "name": "primary",
    "category": "highway",
    "subcategory": "primary",
    "latitude": 27.581571200000003,
    "longitude": 68.21948848,
    "id": 684217200
  },
  {
    "name": "secondary",
    "category": "highway",
    "subcategory": "secondary",
    "latitude": 27.581895366666668,
    "longitude": 68.21617552000001,
    "id": 684217201
  },
  {
    "name": "secondary",
    "category": "highway",
    "subcategory": "secondary",
    "latitude": 27.58186905,
    "longitude": 68.2130383,
    "id": 684217202
  },
  {
    "name": "tertiary",
    "category": "highway",
    "subcategory": "tertiary",
    "latitude": 27.576714014285717,
    "longitude": 68.21401894761905,
    "id": 684217203
  },
  {
    "name": "residential",
    "category": "highway",
    "subcategory": "residential",
    "latitude": 27.57001952,
    "longitude": 68.2245276,
    "id": 684217204
  },
  {
    "name": "unclassified",
    "category": "highway",
    "subcategory": "unclassified",
    "latitude": 27.556972275,
    "longitude": 68.23225095000001,
    "id": 684217205
  },
  {
    "name": "residential",
    "category": "highway",
    "subcategory": "residential",
    "latitude": 27.559055175,
    "longitude": 68.23125437499999,
    "id": 684217206
  },
  {
    "name": "track",
    "category": "highway",
    "subcategory": "track",
    "latitude": 27.55329938,
    "longitude": 68.23245105999999,
    "id": 684217207
  },
  {
    "name": "tertiary",
    "category": "highway",
    "subcategory": "tertiary",
    "latitude": 27.541576876190476,
    "longitude": 68.21784905714286,
    "id": 684217208
  },
  {
    "name": "primary_link",
    "category": "highway",
    "subcategory": "primary_link",
    "latitude": 27.56791765,
    "longitude": 68.21178246666666,
    "id": 684434902
  },
  {
    "name": "secondary",
    "category": "highway",
    "subcategory": "secondary",
    "latitude": 27.562816050000002,
    "longitude": 68.20447899999999,
    "id": 684453301
  },
  {
    "name": "residential",
    "category": "highway",
    "subcategory": "residential",
    "latitude": 27.547398980000004,
    "longitude": 68.2198888,
    "id": 691522750
  },
  {
    "name": "residential",
    "category": "highway",
    "subcategory": "residential",
    "latitude": 27.54732746666667,
    "longitude": 68.2188336,
    "id": 691522752
  },
  {
    "name": "residential",
    "category": "highway",
    "subcategory": "residential",
    "latitude": 27.54772885,
    "longitude": 68.21857155000001,
    "id": 691522754
  },
  {
    "name": "residential",
    "category": "highway",
    "subcategory": "residential",
    "latitude": 27.5476946,
    "longitude": 68.21963456666667,
    "id": 691522756
  },
  {
    "name": "residential",
    "category": "highway",
    "subcategory": "residential",
    "latitude": 27.54773812222222,
    "longitude": 68.21867032222222,
    "id": 691522757
  },
  {
    "name": "residential",
    "category": "highway",
    "subcategory": "residential",
    "latitude": 27.54661625,
    "longitude": 68.21785134999999,
    "id": 691522759
  },
  {
    "name": "residential",
    "category": "highway",
    "subcategory": "residential",
    "latitude": 27.54546315,
    "longitude": 68.2180973,
    "id": 691522761
  },
  {
    "name": "residential",
    "category": "highway",
    "subcategory": "residential",
    "latitude": 27.547374833333333,
    "longitude": 68.21664763333332,
    "id": 691522762
  },
  {
    "name": "residential",
    "category": "highway",
    "subcategory": "residential",
    "latitude": 27.549369666666667,
    "longitude": 68.21898573333333,
    "id": 691522764
  },
  {
    "name": "residential",
    "category": "highway",
    "subcategory": "residential",
    "latitude": 27.54796623333333,
    "longitude": 68.21453146666666,
    "id": 691522766
  },
  {
    "name": "residential",
    "category": "highway",
    "subcategory": "residential",
    "latitude": 27.54799045,
    "longitude": 68.21608545,
    "id": 691522767
  },
  {
    "name": "residential",
    "category": "highway",
    "subcategory": "residential",
    "latitude": 27.548659649999998,
    "longitude": 68.21603619999999,
    "id": 691522769
  },
  {
    "name": "residential",
    "category": "highway",
    "subcategory": "residential",
    "latitude": 27.549056271428572,
    "longitude": 68.21838354285714,
    "id": 691522771
  },
  {
    "name": "residential",
    "category": "highway",
    "subcategory": "residential",
    "latitude": 27.560462133333335,
    "longitude": 68.21445346666667,
    "id": 693083209
  },
  {
    "name": "residential",
    "category": "highway",
    "subcategory": "residential",
    "latitude": 27.55929026,
    "longitude": 68.21441774,
    "id": 693083210
  },
  {
    "name": "residential",
    "category": "highway",
    "subcategory": "residential",
    "latitude": 27.558214916666667,
    "longitude": 68.21530226666667,
    "id": 693083211
  },
  {
    "name": "residential",
    "category": "highway",
    "subcategory": "residential",
    "latitude": 27.557446566666666,
    "longitude": 68.2139658,
    "id": 693083212
  },
  {
    "name": "residential",
    "category": "highway",
    "subcategory": "residential",
    "latitude": 27.5574456,
    "longitude": 68.21370155,
    "id": 693083213
  },
  {
    "name": "residential",
    "category": "highway",
    "subcategory": "residential",
    "latitude": 27.55805617142857,
    "longitude": 68.21348314285714,
    "id": 693083214
  },
  {
    "name": "residential",
    "category": "highway",
    "subcategory": "residential",
    "latitude": 27.5578990375,
    "longitude": 68.21509005,
    "id": 693083215
  },
  {
    "name": "residential",
    "category": "highway",
    "subcategory": "residential",
    "latitude": 27.55849885454546,
    "longitude": 68.21588222727273,
    "id": 693083216
  },
  {
    "name": "residential",
    "category": "highway",
    "subcategory": "residential",
    "latitude": 27.560836966666667,
    "longitude": 68.21031553333333,
    "id": 714511806
  },
  {
    "name": "residential",
    "category": "highway",
    "subcategory": "residential",
    "latitude": 27.561670433333333,
    "longitude": 68.21038593333333,
    "id": 714511807
  },
  {
    "name": "residential",
    "category": "highway",
    "subcategory": "residential",
    "latitude": 27.560564425,
    "longitude": 68.20993545,
    "id": 714511808
  },
  {
    "name": "residential",
    "category": "highway",
    "subcategory": "residential",
    "latitude": 27.5605495,
    "longitude": 68.21121522,
    "id": 714511809
  },
  {
    "name": "residential",
    "category": "highway",
    "subcategory": "residential",
    "latitude": 27.559247454545456,
    "longitude": 68.21074027272728,
    "id": 714511810
  },
  {
    "name": "cemetery",
    "category": "landuse",
    "subcategory": "cemetery",
    "latitude": 27.541372098113207,
    "longitude": 68.2096548490566,
    "id": 743059569
  },
  {
    "name": "residential",
    "category": "highway",
    "subcategory": "residential",
    "latitude": 27.536323636842106,
    "longitude": 68.20755543157895,
    "id": 743059570
  },
  {
    "name": "residential",
    "category": "highway",
    "subcategory": "residential",
    "latitude": 27.536678233333333,
    "longitude": 68.2096078,
    "id": 743059571
  },
  {
    "name": "residential",
    "category": "highway",
    "subcategory": "residential",
    "latitude": 27.536905100000002,
    "longitude": 68.20961797999999,
    "id": 743059572
  },
  {
    "name": "residential",
    "category": "highway",
    "subcategory": "residential",
    "latitude": 27.53314847142857,
    "longitude": 68.20788457142858,
    "id": 743059573
  },
  {
    "name": "residential",
    "category": "highway",
    "subcategory": "residential",
    "latitude": 27.53367845714286,
    "longitude": 68.20812005714285,
    "id": 743059574
  },
  {
    "name": "residential",
    "category": "highway",
    "subcategory": "residential",
    "latitude": 27.53349328888889,
    "longitude": 68.20668332222222,
    "id": 743059575
  },
  {
    "name": "residential",
    "category": "highway",
    "subcategory": "residential",
    "latitude": 27.53337115,
    "longitude": 68.20599580000001,
    "id": 743059576
  },
  {
    "name": "residential",
    "category": "highway",
    "subcategory": "residential",
    "latitude": 27.53310621111111,
    "longitude": 68.20536917777777,
    "id": 743059577
  },
  {
    "name": "residential",
    "category": "highway",
    "subcategory": "residential",
    "latitude": 27.532707000000002,
    "longitude": 68.20611547499999,
    "id": 743059578
  },
  {
    "name": "residential",
    "category": "highway",
    "subcategory": "residential",
    "latitude": 27.53307798,
    "longitude": 68.20608336000001,
    "id": 743059579
  },
  {
    "name": "residential",
    "category": "highway",
    "subcategory": "residential",
    "latitude": 27.53366475,
    "longitude": 68.2060396,
    "id": 743059580
  },
  {
    "name": "residential",
    "category": "highway",
    "subcategory": "residential",
    "latitude": 27.531768330769232,
    "longitude": 68.18222504615385,
    "id": 775392941
  },
  {
    "name": "service",
    "category": "highway",
    "subcategory": "service",
    "latitude": 27.533044580000002,
    "longitude": 68.1810081,
    "id": 775392942
  },
  {
    "name": "unclassified",
    "category": "highway",
    "subcategory": "unclassified",
    "latitude": 27.55513502,
    "longitude": 68.19544412,
    "id": 775392943
  },
  {
    "name": "unclassified",
    "category": "highway",
    "subcategory": "unclassified",
    "latitude": 27.557422008333333,
    "longitude": 68.198813175,
    "id": 775392944
  },
  {
    "name": "unclassified",
    "category": "highway",
    "subcategory": "unclassified",
    "latitude": 27.540240075,
    "longitude": 68.187779159375,
    "id": 775392945
  },
  {
    "name": "residential",
    "category": "highway",
    "subcategory": "residential",
    "latitude": 27.550216733333333,
    "longitude": 68.20730823333334,
    "id": 775978252
  },
  {
    "name": "residential",
    "category": "highway",
    "subcategory": "residential",
    "latitude": 27.54960758888889,
    "longitude": 68.20596213333334,
    "id": 775978253
  },
  {
    "name": "unclassified",
    "category": "highway",
    "subcategory": "unclassified",
    "latitude": 27.549531736666665,
    "longitude": 68.19348161666667,
    "id": 775986369
  },
  {
    "name": "service",
    "category": "highway",
    "subcategory": "service",
    "latitude": 27.5534468375,
    "longitude": 68.1997183625,
    "id": 775986370
  },
  {
    "name": "unclassified",
    "category": "highway",
    "subcategory": "unclassified",
    "latitude": 27.55269945,
    "longitude": 68.19758945000001,
    "id": 775986371
  },
  {
    "name": "service",
    "category": "highway",
    "subcategory": "service",
    "latitude": 27.55118642,
    "longitude": 68.2021603,
    "id": 775986372
  },
  {
    "name": "unclassified",
    "category": "highway",
    "subcategory": "unclassified",
    "latitude": 27.552613533333332,
    "longitude": 68.19912091666667,
    "id": 775986373
  },
  {
    "name": "unclassified",
    "category": "highway",
    "subcategory": "unclassified",
    "latitude": 27.55515564,
    "longitude": 68.19993678,
    "id": 775986374
  },
  {
    "name": "unclassified",
    "category": "highway",
    "subcategory": "unclassified",
    "latitude": 27.5538866375,
    "longitude": 68.199111575,
    "id": 775986375
  },
  {
    "name": "service",
    "category": "highway",
    "subcategory": "service",
    "latitude": 27.550470750000002,
    "longitude": 68.1972542,
    "id": 775986376
  },
  {
    "name": "unclassified",
    "category": "highway",
    "subcategory": "unclassified",
    "latitude": 27.552331074074075,
    "longitude": 68.19903336666667,
    "id": 775986377
  },
  {
    "name": "unclassified",
    "category": "highway",
    "subcategory": "unclassified",
    "latitude": 27.5524091,
    "longitude": 68.20052132,
    "id": 775986378
  },
  {
    "name": "unclassified",
    "category": "highway",
    "subcategory": "unclassified",
    "latitude": 27.5529893,
    "longitude": 68.20079785,
    "id": 775986379
  },
  {
    "name": "service",
    "category": "highway",
    "subcategory": "service",
    "latitude": 27.551320381818183,
    "longitude": 68.2010341,
    "id": 775986380
  },
  {
    "name": "unclassified",
    "category": "highway",
    "subcategory": "unclassified",
    "latitude": 27.55027395,
    "longitude": 68.1984896,
    "id": 775986381
  },
  {
    "name": "unclassified",
    "category": "highway",
    "subcategory": "unclassified",
    "latitude": 27.549959700000002,
    "longitude": 68.19849389999999,
    "id": 775986382
  },
  {
    "name": "unclassified",
    "category": "highway",
    "subcategory": "unclassified",
    "latitude": 27.549954585185187,
    "longitude": 68.20045222962963,
    "id": 775986383
  },
  {
    "name": "unclassified",
    "category": "highway",
    "subcategory": "unclassified",
    "latitude": 27.551889333333335,
    "longitude": 68.20361676666666,
    "id": 775986384
  },
  {
    "name": "service",
    "category": "highway",
    "subcategory": "service",
    "latitude": 27.55050966470588,
    "longitude": 68.20443558235294,
    "id": 775986385
  },
  {
    "name": "residential",
    "category": "highway",
    "subcategory": "residential",
    "latitude": 27.5621977,
    "longitude": 68.19107650000001,
    "id": 775991275
  },
  {
    "name": "service",
    "category": "highway",
    "subcategory": "service",
    "latitude": 27.563475975,
    "longitude": 68.1912827125,
    "id": 775991276
  },
  {
    "name": "residential",
    "category": "highway",
    "subcategory": "residential",
    "latitude": 27.558206733333332,
    "longitude": 68.187805,
    "id": 775991277
  },