[
  {
    "name": "Main Bus Terminal",
    "category": "amenity",
    "subcategory": "bus_station",
    "latitude": 27.5809203,
    "longitude": 68.2226534,
    "id": 3868377903
  },
  {
    "name": "Bughio House Larkana",
    "category": "tourism",
    "subcategory": "guest_house",
    "latitude": 27.5535086,
    "longitude": 68.2164989,
    "id": 4324762395
  },
  {
    "name": "پاکستانی چوک",
    "category": "tourism",
    "subcategory": "information",
    "latitude": 27.55284,
    "longitude": 68.215302,
    "id": 4681231993
  },
  {
    "name": "Leading Institute of Science and Technology Larkana",
    "category": "amenity",
    "subcategory": "school",
    "latitude": 27.5579191,
    "longitude": 68.210915,
    "id": 4806575821
  },
  {
    "name": "Jamia Mosque",
    "category": "amenity",
    "subcategory": "place_of_worship",
    "latitude": 27.5639234,
    "longitude": 68.2230818,
    "id": 4926641601
  },
  {
    "name": "Dua Ultrasound",
    "category": "amenity",
    "subcategory": "hospital",
    "latitude": 27.5609161,
    "longitude": 68.2213161,
    "id": 4926641602
  },
  {
    "name": "Bargah Qamar Bani Hashim",
    "category": "amenity",
    "subcategory": "place_of_worship",
    "latitude": 27.5600803,
    "longitude": 68.221048,
    "id": 4926641605
  },
  {
    "name": "Sultania Masjid",
    "category": "amenity",
    "subcategory": "place_of_worship",
    "latitude": 27.5605036,
    "longitude": 68.22021,
    "id": 4926641606
  },
  {
    "name": "Rustam Ali Petroliem Service Larkana",
    "category": "amenity",
    "subcategory": "fuel",
    "latitude": 27.5590669,
    "longitude": 68.2212637,
    "id": 4926641607
  },
  {
    "name": "ٹوٹل",
    "category": "amenity",
    "subcategory": "fuel",
    "latitude": 27.5588019,
    "longitude": 68.2207676,
    "id": 4926641608
  },
  {
    "name": "یونائیٹڈ بینک لمیٹڈ",
    "category": "amenity",
    "subcategory": "bank",
    "latitude": 27.5584769,
    "longitude": 68.2203794,
    "id": 4926641609
  },
  {
    "name": "Tameer Microfinace Bank",
    "category": "amenity",
    "subcategory": "bank",
    "latitude": 27.5585889,
    "longitude": 68.2201576,
    "id": 4926641610
  },
  {
    "name": "ایم سی بی بینک",
    "category": "amenity",
    "subcategory": "bank",
    "latitude": 27.5590287,
    "longitude": 68.2193812,
    "id": 4926641611
  },
  {
    "name": "Madina Masjid",
    "category": "amenity",
    "subcategory": "place_of_worship",
    "latitude": 27.5579552,
    "longitude": 68.2197324,
    "id": 4926641612
  },
  {
    "name": "Apna Bank",
    "category": "amenity",
    "subcategory": "bank",
    "latitude": 27.559859,
    "longitude": 68.2186017,
    "id": 4926641613
  },
  {
    "name": "Mujahid Masjid",
    "category": "amenity",
    "subcategory": "place_of_worship",
    "latitude": 27.5604954,
    "longitude": 68.2176527,
    "id": 4926641616
  },
  {
    "name": "Premi Cafe",
    "category": "amenity",
    "subcategory": "cafe",
    "latitude": 27.5603698,
    "longitude": 68.2186694,
    "id": 4926641617
  },
  {
    "name": "Imran Tea Shop",
    "category": "amenity",
    "subcategory": "cafe",
    "latitude": 27.5547084,
    "longitude": 68.2201712,
    "id": 4926641618
  },
  {
    "name": "Marvi Restaurant and BBQ",
    "category": "amenity",
    "subcategory": "restaurant",
    "latitude": 27.5543068,
    "longitude": 68.2198916,
    "id": 4926641619
  },
  {
    "name": "Jaffri Imam Bargah Larkana",
    "category": "amenity",
    "subcategory": "place_of_worship",
    "latitude": 27.5538675,
    "longitude": 68.2188581,
    "id": 4926641620
  },
  {
    "name": "فیصل بینک",
    "category": "amenity",
    "subcategory": "bank",
    "latitude": 27.5524727,
    "longitude": 68.2167637,
    "id": 4926647821
  },
  {
    "name": "National Savings Center",
    "category": "amenity",
    "subcategory": "bank",
    "latitude": 27.5534538,
    "longitude": 68.2172484,
    "id": 4926647822
  },
  {
    "name": "سمٹ بینک",
    "category": "amenity",
    "subcategory": "bank",
    "latitude": 27.5525987,
    "longitude": 68.2162621,
    "id": 4926647823
  },
  {
    "name": "Silk Bank",
    "category": "amenity",
    "subcategory": "bank",
    "latitude": 27.5526463,
    "longitude": 68.2160663,
    "id": 4926647824
  },
  {
    "name": "ایم سی بی بینک",
    "category": "amenity",
    "subcategory": "bank",
    "latitude": 27.5527105,
    "longitude": 68.2157311,
    "id": 4926647825
  },
  {
    "name": "یونائیٹڈ بینک لمیٹڈ",
    "category": "amenity",
    "subcategory": "bank",
    "latitude": 27.5531409,
    "longitude": 68.2152858,
    "id": 4926647826
  },
  {
    "name": "Bank AL Habib",
    "category": "amenity",
    "subcategory": "bank",
    "latitude": 27.5534477,
    "longitude": 68.2154843,
    "id": 4926647827
  },
  {
    "name": "Khichi Imam Bargah & Eid Gah",
    "category": "amenity",
    "subcategory": "place_of_worship",
    "latitude": 27.5515478,
    "longitude": 68.2182447,
    "id": 4926647828
  },
  {
    "name": "New Sindh Science College",
    "category": "amenity",
    "subcategory": "college",
    "latitude": 27.5501955,
    "longitude": 68.2185021,
    "id": 4926647829
  },
  {
    "name": "تھانہ",
    "category": "amenity",
    "subcategory": "police",
    "latitude": 27.5494137,
    "longitude": 68.2197154,
    "id": 4926647830
  },
  {
    "name": "Husnain Hotel Larakna",
    "category": "tourism",
    "subcategory": "hotel",
    "latitude": 27.5502533,
    "longitude": 68.2182284,
    "id": 4926647831
  },
  {
    "name": "Khahawar Hotel",
    "category": "tourism",
    "subcategory": "hotel",
    "latitude": 27.5486174,
    "longitude": 68.210472,
    "id": 4930510997
  },
  {
    "name": "یونائیٹڈ بینک لمیٹڈ",
    "category": "amenity",
    "subcategory": "bank",
    "latitude": 27.551162,
    "longitude": 68.2118453,
    "id": 4930510998
  },
  {
    "name": "Askari CNG Station",
    "category": "amenity",
    "subcategory": "fuel",
    "latitude": 27.5510716,
    "longitude": 68.2117327,
    "id": 4930510999
  },
  {
    "name": "مسجد",
    "category": "amenity",
    "subcategory": "place_of_worship",
    "latitude": 27.5521417,
    "longitude": 68.2092006,
    "id": 4930511000
  },
  {
    "name": "Cafe Al Abbas",
    "category": "amenity",
    "subcategory": "cafe",
    "latitude": 27.5521084,
    "longitude": 68.2125695,
    "id": 4930511001
  },
  {
    "name": "Paris Inn",
    "category": "tourism",
    "subcategory": "hotel",
    "latitude": 27.5519657,
    "longitude": 68.2127143,
    "id": 4930511002
  },
  {
    "name": "Green Palace Hotel",
    "category": "tourism",
    "subcategory": "hotel",
    "latitude": 27.5521417,
    "longitude": 68.2134171,
    "id": 4930511003
  },
  {
    "name": "Qamiya Jamia Mosque",
    "category": "amenity",
    "subcategory": "place_of_worship",
    "latitude": 27.5540061,
    "longitude": 68.2139803,
    "id": 4930511004
  },
  {
    "name": "Government Girls College Larkana",
    "category": "amenity",
    "subcategory": "college",
    "latitude": 27.5544531,
    "longitude": 68.2137336,
    "id": 4930511005
  },
  {
    "name": "الرحیم ہوٹل",
    "category": "tourism",
    "subcategory": "hotel",
    "latitude": 27.5532499,
    "longitude": 68.2138194,
    "id": 4930511006
  },
  {
    "name": "Farooq Medical & Dental Centre Larkana",
    "category": "amenity",
    "subcategory": "hospital",
    "latitude": 27.5553234,
    "longitude": 68.2115342,
    "id": 4930511007
  },
  {
    "name": "لیڈیز جیل",
    "category": "amenity",
    "subcategory": "prison",
    "latitude": 27.5556706,
    "longitude": 68.2114913,
    "id": 4930511008
  },
  {
    "name": "دبئی اسلامی بینک",
    "category": "amenity",
    "subcategory": "bank",
    "latitude": 27.5555137,
    "longitude": 68.2148226,
    "id": 4930511009
  },
  {
    "name": "Bank Al Falah",
    "category": "amenity",
    "subcategory": "bank",
    "latitude": 27.5551617,
    "longitude": 68.2157613,
    "id": 4930511010
  },
  {
    "name": "جے ایس بینک",
    "category": "amenity",
    "subcategory": "bank",
    "latitude": 27.5549858,
    "longitude": 68.215713,
    "id": 4930511011
  },
  {
    "name": "عسکری بینک",
    "category": "amenity",
    "subcategory": "bank",
    "latitude": 27.5559988,
    "longitude": 68.2160725,
    "id": 4930511012
  },
  {
    "name": "First Women Bank",
    "category": "amenity",
    "subcategory": "bank",
    "latitude": 27.5571619,
    "longitude": 68.2162309,
    "id": 4930511013
  },
  {
    "name": "نیشنل بینک آف پاکستان",
    "category": "amenity",
    "subcategory": "bank",
    "latitude": 27.5575824,
    "longitude": 68.2163052,
    "id": 4930511014
  },
  {
    "name": "NIB Bank",
    "category": "amenity",
    "subcategory": "bank",
    "latitude": 27.5574537,
    "longitude": 68.2163618,
    "id": 4930511015
  },
  {
    "name": "یونائیٹڈ بینک لمیٹڈ",
    "category": "amenity",
    "subcategory": "bank",
    "latitude": 27.5576451,
    "longitude": 68.2164043,
    "id": 4930511016
  },
  {
    "name": "الائیڈ بینک لمیٹڈ",
    "category": "amenity",
    "subcategory": "bank",
    "latitude": 27.5578177,
    "longitude": 68.2163406,
    "id": 4930511017
  },
  {
    "name": "ایچ بی ایل پاکستان",
    "category": "amenity",
    "subcategory": "bank",
    "latitude": 27.557915,
    "longitude": 68.216514,
    "id": 4930511018
  },
  {
    "name": "بینک اسلامی",
    "category": "amenity",
    "subcategory": "bank",
    "latitude": 27.5580279,
    "longitude": 68.2166945,
    "id": 4930511019
  },
  {
    "name": "The First Microfinance Bank Ltd",
    "category": "amenity",
    "subcategory": "bank",
    "latitude": 27.557997,
    "longitude": 68.2167883,
    "id": 4930511020
  },
  {
    "name": "National Savings Centre",
    "category": "amenity",
    "subcategory": "bank",
    "latitude": 27.5582088,
    "longitude": 68.2170489,
    "id": 4930511021
  },
  {
    "name": "Al Baraka Bank",
    "category": "amenity",
    "subcategory": "bank",
    "latitude": 27.5584034,
    "longitude": 68.2171627,
    "id": 4930511022
  },
  {
    "name": "Telenor Microfinance Bank",
    "category": "amenity",
    "subcategory": "bank",
    "latitude": 27.5584376,
    "longitude": 68.2173213,
    "id": 4930511023
  },
  {
    "name": "New Raja Electronics",
    "category": "shop",
    "subcategory": "electronics",
    "latitude": 27.5528278,
    "longitude": 68.2153193,
    "id": 5100443821
  },
  {
    "name": "Police training school larkana",
    "category": "amenity",
    "subcategory": "school",
    "latitude": 27.5656826,
    "longitude": 68.1915488,
    "id": 5513898121
  },
  {
    "name": "Classic Academy of Computer Science Larkana",
    "category": "amenity",
    "subcategory": "school",
    "latitude": 27.5558028,
    "longitude": 68.2146313,
    "id": 5516599022
  },
  {
    "name": "New Mashal High Scool & College Larkana",
    "category": "amenity",
    "subcategory": "school",
    "latitude": 27.5421861,
    "longitude": 68.212996,
    "id": 5516608321
  },
  {
    "name": "مریم ہاؤس",
    "category": "tourism",
    "subcategory": "guest_house",
    "latitude": 27.5555413,
    "longitude": 68.208739,
    "id": 5519074837
  },
  {
    "name": "Rahila Research & Reference Lab Larkana",
    "category": "amenity",
    "subcategory": "hospital",
    "latitude": 27.5578624,
    "longitude": 68.2093243,
    "id": 5606565821
  },
  {
    "name": "رائل فٹنس جم لاڑکانہ",
    "category": "leisure",
    "subcategory": "fitness_centre",
    "latitude": 27.5557894,
    "longitude": 68.2088978,
    "id": 5736740971
  },
  {
    "name": "Al-Madina Bus",
    "category": "amenity",
    "subcategory": "bus_station",
    "latitude": 27.5635369,
    "longitude": 68.191155,
    "id": 5760113821
  },
  {
    "name": "Daewoo Express Larkana",
    "category": "amenity",
    "subcategory": "bus_station",
    "latitude": 27.5636428,
    "longitude": 68.1920962,
    "id": 5760113822
  },
  {
    "name": "Sambara Inn",
    "category": "tourism",
    "subcategory": "hotel",
    "latitude": 27.5504178,
    "longitude": 68.2045952,
    "id": 7119569386
  },
  {
    "name": "Royal City",
    "category": "tourism",
    "subcategory": "hotel",
    "latitude": 27.5529125,
    "longitude": 68.2128531,
    "id": 8636380718
  },
  {
    "name": "Primary School Rahmatpur",
    "category": "amenity",
    "subcategory": "school",
    "latitude": 27.5461702,
    "longitude": 68.2062397,
    "id": 10647031373
  },
  {
    "name": "New Stop",
    "category": "amenity",
    "subcategory": "taxi",
    "latitude": 27.5785669,
    "longitude": 68.2237303,
    "id": 12522417741
  },
  {
    "name": "Fruit Vendors",
    "category": "shop",
    "subcategory": "supermarket",
    "latitude": 27.5662229,
    "longitude": 68.2128461,
    "id": 12522433968
  },
  {
    "name": "Miro Khan Chowk",
    "category": "tourism",
    "subcategory": "attraction",
    "latitude": 27.5817764,
    "longitude": 68.2193382,
    "id": 12522443927
  },
  {
    "name": "Brohi Phattak Area",
    "category": "leisure",
    "subcategory": "common",
    "latitude": 27.5644176,
    "longitude": 68.2151521,
    "id": 12522450051
  },
  {
    "name": "Yasmeen Beauty Parlour",
    "category": "shop",
    "subcategory": "beauty",
    "latitude": 27.5547009,
    "longitude": 68.2180004,
    "id": 13622456501
  }
]