[
  {
    "name": "PTDC Restaurant",
    "category": "amenity",
    "subcategory": "restaurant",
    "latitude": 34.6321315,
    "longitude": 72.005344,
    "id": 746250537
  },
  {
    "name": "Camping at the restaurant",
    "category": "tourism",
    "subcategory": "camp_site",
    "latitude": 34.6322343,
    "longitude": 72.0052393,
    "id": 746250570
  },
  {
    "name": "Gumbat Road",
    "category": "tourism",
    "subcategory": "attraction",
    "latitude": 34.6104996,
    "longitude": 71.9596187,
    "id": 5308599821
  },
  {
    "name": "MASJID-E-AQSAA (مسجداقصیٰ)",
    "category": "amenity",
    "subcategory": "school",
    "latitude": 34.6101544,
    "longitude": 71.9566065,
    "id": 5312404121
  },
  {
    "name": "SHELL PETROL PUMP",
    "category": "amenity",
    "subcategory": "fuel",
    "latitude": 34.61055,
    "longitude": 71.9570246,
    "id": 5312404221
  },
  {
    "name": "Bus Station Batkhela",
    "category": "amenity",
    "subcategory": "bus_station",
    "latitude": 34.6092377,
    "longitude": 71.9557015,
    "id": 5312404321
  },
  {
    "name": "DHQ Hospital Btk",
    "category": "amenity",
    "subcategory": "hospital",
    "latitude": 34.6120271,
    "longitude": 71.959769,
    "id": 5312407027
  },
  {
    "name": "PIRAN پيران",
    "category": "tourism",
    "subcategory": "viewpoint",
    "latitude": 34.5825037,
    "longitude": 71.9336243,
    "id": 5312435590
  },
  {
    "name": "TOTAKAN CHOWK طوطاکان چوک",
    "category": "tourism",
    "subcategory": "information",
    "latitude": 34.6150594,
    "longitude": 71.9643404,
    "id": 5312435591
  },
  {
    "name": "Old Levi Post",
    "category": "amenity",
    "subcategory": "community_centre",
    "latitude": 34.6109452,
    "longitude": 71.9579271,
    "id": 5312436428
  },
  {
    "name": "SAJID MEDICAL STORE",
    "category": "amenity",
    "subcategory": "pharmacy",
    "latitude": 34.5817723,
    "longitude": 71.9336372,
    "id": 5312436429
  },
  {
    "name": "RAHMAN PARAMEDICAL COLLEGE Batkhela",
    "category": "amenity",
    "subcategory": "college",
    "latitude": 34.6086508,
    "longitude": 71.9571047,
    "id": 5312436430
  },
  {
    "name": "DHQ Hospital Btk",
    "category": "amenity",
    "subcategory": "hospital",
    "latitude": 34.6109397,
    "longitude": 71.9579149,
    "id": 5312465421
  },
  {
    "name": "ZAFAR PARK ظفرپارک",
    "category": "tourism",
    "subcategory": "attraction",
    "latitude": 34.6211264,
    "longitude": 71.9807194,
    "id": 5312465721
  },
  {
    "name": "masjid",
    "category": "amenity",
    "subcategory": "drinking_water",
    "latitude": 34.6310838,
    "longitude": 72.0039745,
    "id": 6216643785
  },
  {
    "name": "Pakistan State Oil filling station",
    "category": "amenity",
    "subcategory": "fuel",
    "latitude": 34.6136041,
    "longitude": 71.9620667,
    "id": 6216645297
  },
  {
    "name": "aitemaad bank اعتماد بینک",
    "category": "amenity",
    "subcategory": "bank",
    "latitude": 34.6155711,
    "longitude": 71.973843,
    "id": 6216645298
  },
  {
    "name": "askari bank عسکری بینک",
    "category": "amenity",
    "subcategory": "bank",
    "latitude": 34.6156132,
    "longitude": 71.9709858,
    "id": 6216645299
  },
  {
    "name": "bank alislaami بینک الاسلامی",
    "category": "amenity",
    "subcategory": "bank",
    "latitude": 34.6153822,
    "longitude": 71.9704944,
    "id": 6216647292
  },
  {
    "name": "Khyber Bank خیبر بینک",
    "category": "amenity",
    "subcategory": "bank",
    "latitude": 34.6153689,
    "longitude": 71.9676692,
    "id": 6216647293
  },
  {
    "name": "matkani adda",
    "category": "tourism",
    "subcategory": "information",
    "latitude": 34.6154988,
    "longitude": 71.9624487,
    "id": 6216647294
  },
  {
    "name": "Meela",
    "category": "shop",
    "subcategory": "supermarket",
    "latitude": 34.6104308,
    "longitude": 71.9543418,
    "id": 6918641385
  },
  {
    "name": "Matkani cloth house",
    "category": "shop",
    "subcategory": "clothes",
    "latitude": 34.6139239,
    "longitude": 71.9613431,
    "id": 6984327891
  },
  {
    "name": "Chai hotel",
    "category": "amenity",
    "subcategory": "cafe",
    "latitude": 34.6157208,
    "longitude": 71.9627643,
    "id": 6984425386
  },
  {
    "name": "Surkhab market",
    "category": "shop",
    "subcategory": "supermarket",
    "latitude": 34.6144053,
    "longitude": 71.9617509,
    "id": 7011237286
  },
  {
    "name": "National bank batkhela",
    "category": "amenity",
    "subcategory": "bank",
    "latitude": 34.6156166,
    "longitude": 71.9740144,
    "id": 7011249685
  },
  {
    "name": "Khan zareen market",
    "category": "shop",
    "subcategory": "supermarket",
    "latitude": 34.6134385,
    "longitude": 71.9608106,
    "id": 7011249686
  },
  {
    "name": "Super market",
    "category": "shop",
    "subcategory": "supermarket",
    "latitude": 34.6139017,
    "longitude": 71.9607795,
    "id": 7011250185
  },
  {
    "name": "Shams cloth house",
    "category": "shop",
    "subcategory": "supermarket",
    "latitude": 34.6144546,
    "longitude": 71.9618013,
    "id": 7011250186
  },
  {
    "name": "Pakistan Post office",
    "category": "amenity",
    "subcategory": "post_office",
    "latitude": 34.6140587,
    "longitude": 71.9610118,
    "id": 7011250285
  },
  {
    "name": "New shoba market",
    "category": "shop",
    "subcategory": "car_repair",
    "latitude": 34.6055348,
    "longitude": 71.9517454,
    "id": 7197170485
  },
  {
    "name": "Khurak Mahal",
    "category": "amenity",
    "subcategory": "restaurant",
    "latitude": 34.6271959,
    "longitude": 71.997911,
    "id": 8286347320
  },
  {
    "name": "Mahfil Restaurant",
    "category": "amenity",
    "subcategory": "restaurant",
    "latitude": 34.6342211,
    "longitude": 72.0084698,
    "id": 8286356417
  },
  {
    "name": "Fruits and Sabzi Mandi",
    "category": "amenity",
    "subcategory": "marketplace",
    "latitude": 34.6202971,
    "longitude": 71.9781859,
    "id": 8933868112
  }
]