[
  {
    "name": "Mansoor Abad",
    "category": "tourism",
    "subcategory": "camp_site",
    "latitude": 34.8972734,
    "longitude": 71.9933059,
    "id": 6534025096
  },
  {
    "name": "Hotel",
    "category": "tourism",
    "subcategory": "hotel",
    "latitude": 34.9366713,
    "longitude": 72.0232469,
    "id": 6534025197
  },
  {
    "name": "Government School",
    "category": "amenity",
    "subcategory": "school",
    "latitude": 34.9344652,
    "longitude": 72.012877,
    "id": 6534025198
  },
  {
    "name": "Filling Station",
    "category": "amenity",
    "subcategory": "fuel",
    "latitude": 34.9243676,
    "longitude": 72.0167395,
    "id": 6534025199
  },
  {
    "name": "Toor Mang",
    "category": "tourism",
    "subcategory": "attraction",
    "latitude": 34.9089817,
    "longitude": 71.9996097,
    "id": 6534025200
  },
  {
    "name": "Market",
    "category": "shop",
    "subcategory": "supermarket",
    "latitude": 34.9044629,
    "longitude": 71.9990156,
    "id": 6534025201
  }
]