[
  {
    "name": "Khalid Hotal",
    "category": "amenity",
    "subcategory": "restaurant",
    "latitude": 33.5638589,
    "longitude": 72.6424118,
    "id": 2627877572
  },
  {
    "name": "Bata & Servis Shop",
    "category": "shop",
    "subcategory": "supermarket",
    "latitude": 33.5665946,
    "longitude": 72.6439532,
    "id": 10006104586
  },
  {
    "name": "Dhok Syedan SB",
    "category": "amenity",
    "subcategory": "weighbridge",
    "latitude": 33.5277446,
    "longitude": 72.6420034,
    "id": 10768192008
  },
  {
    "name": "Dhok Syedan NB",
    "category": "amenity",
    "subcategory": "weighbridge",
    "latitude": 33.5347502,
    "longitude": 72.6422192,
    "id": 10768192049
  },
  {
    "name": "Khizar House",
    "category": "tourism",
    "subcategory": "chalet",
    "latitude": 33.5578869,
    "longitude": 72.63366,
    "id": 13607070401
  }
]