[
  {
    "name": "پپلی",
    "category": "place",
    "subcategory": "village",
    "latitude": 32.6776447,
    "longitude": 73.3652222,
    "id": 9411309530
  },
  {
    "name": "رتوال",
    "category": "place",
    "subcategory": "village",
    "latitude": 32.6741395,
    "longitude": 73.3702779,
    "id": 9411309545
  },
  {
    "name": "پیرغوث شاہ",
    "category": "historic",
    "subcategory": "tomb",
    "latitude": 32.6781214,
    "longitude": 73.3719872,
    "id": 9411309546
  },
  {
    "name": "residential",
    "category": "landuse",
    "subcategory": "residential",
    "latitude": 32.67447996,
    "longitude": 73.36929594,
    "id": 547985671
  },
  {
    "name": "residential",
    "category": "landuse",
    "subcategory": "residential",
    "latitude": 32.67758282857143,
    "longitude": 73.36408468571429,
    "id": 547985672
  },
  {
    "name": "Pipli road",
    "category": "highway",
    "subcategory": "tertiary",
    "latitude": 32.67543334285715,
    "longitude": 73.36771375,
    "id": 1035038807
  },
  {
    "name": "Ratwal Road",
    "category": "highway",
    "subcategory": "unclassified",
    "latitude": 32.67075522222222,
    "longitude": 73.37734947777777,
    "id": 1035038810
  },
  {
    "name": "Pir chak",
    "category": "place",
    "subcategory": "village",
    "latitude": 32.68013626,
    "longitude": 73.3589458,
    "id": 1055092186
  },
  {
    "name": "Goomtan wali ban",
    "category": "natural",
    "subcategory": "water",
    "latitude": 32.684111025,
    "longitude": 73.35788289999999,
    "id": 1055611834
  },
  {
    "name": "Dr Haseeb Mirza St",
    "category": "highway",
    "subcategory": "living_street",
    "latitude": 32.6734421125,
    "longitude": 73.3701553875,
    "id": 1272703510
  },
  {
    "name": "Pir Chak Rd",
    "category": "highway",
    "subcategory": "tertiary",
    "latitude": 32.67897242,
    "longitude": 73.35897808,
    "id": 1396731469
  },
  {
    "name": "residential",
    "category": "landuse",
    "subcategory": "residential",
    "latitude": 32.67447996,
    "longitude": 73.36929594,
    "id": 547985671
  },
  {
    "name": "residential",
    "category": "landuse",
    "subcategory": "residential",
    "latitude": 32.67758282857143,
    "longitude": 73.36408468571429,
    "id": 547985672
  },
  {
    "name": "Pir chak",
    "category": "place",
    "subcategory": "village",
    "latitude": 32.6793682,
    "longitude": 73.35859194,
    "id": 1055092186
  },
  {
    "name": "Goomtan wali ban",
    "category": "natural",
    "subcategory": "water",
    "latitude": 32.684111025,
    "longitude": 73.35788289999999,
    "id": 1055611834
  }
]