[
  {
    "name": "Satghara Walled City",
    "category": "tourism",
    "subcategory": "attraction",
    "latitude": 30.9164941,
    "longitude": 73.5135795,
    "id": 9244372148
  },
  {
    "name": "ستگھرہ",
    "category": "amenity",
    "subcategory": "place_of_worship",
    "latitude": 30.9165562,
    "longitude": 73.515196,
    "id": 9244417003
  },
  {
    "name": "Khawja Filling Station",
    "category": "amenity",
    "subcategory": "fuel",
    "latitude": 30.9189527,
    "longitude": 73.5121626,
    "id": 9244417029
  },
  {
    "name": "Rehan Filling Station",
    "category": "amenity",
    "subcategory": "fuel",
    "latitude": 30.8905455,
    "longitude": 73.5070958,
    "id": 9244417032
  },
  {
    "name": "Bilal Mosque Chak 14 Gd Tehsildar",
    "category": "amenity",
    "subcategory": "place_of_worship",
    "latitude": 30.9468684,
    "longitude": 73.4899086,
    "id": 13275360171
  },
  {
    "name": "Arshad snooker and Karyana Shop",
    "category": "shop",
    "subcategory": "supermarket",
    "latitude": 30.945926,
    "longitude": 73.4900993,
    "id": 13732678224
  },
  {
    "name": "Ali Mosque Raza Abad",
    "category": "amenity",
    "subcategory": "place_of_worship",
    "latitude": 30.9562588,
    "longitude": 73.5010444,
    "id": 13733063095
  },
  {
    "name": "Tiba Tehsildar",
    "category": "amenity",
    "subcategory": "place_of_worship",
    "latitude": 30.9459244,
    "longitude": 73.4991338,
    "id": 13733142205
  }
]