[
  {
    "name": "Karakoram Hotel & Restaurant",
    "category": "amenity",
    "subcategory": "restaurant",
    "latitude": 34.3150449,
    "longitude": 73.2108351,
    "id": 2533260599
  },
  {
    "name": "Ashoka Rocks",
    "category": "tourism",
    "subcategory": "attraction",
    "latitude": 34.3411036,
    "longitude": 73.1998453,
    "id": 2758276370
  },
  {
    "name": "Jamal Khan House. Shellpump Mohallah Madina Colony Dab no 2",
    "category": "amenity",
    "subcategory": "courthouse",
    "latitude": 34.3185787,
    "longitude": 73.1961055,
    "id": 5078076321
  },
  {
    "name": "Mansehra Bus Stand",
    "category": "amenity",
    "subcategory": "bus_station",
    "latitude": 34.3489383,
    "longitude": 73.2000136,
    "id": 5690468721
  },
  {
    "name": "One Stop Burger Shop",
    "category": "shop",
    "subcategory": "beverages",
    "latitude": 34.3099185,
    "longitude": 73.2112301,
    "id": 6432358987
  },
  {
    "name": "Al Qayom Hotel & Marriage Hall",
    "category": "tourism",
    "subcategory": "hotel",
    "latitude": 34.3271416,
    "longitude": 73.2171173,
    "id": 6432371586
  },
  {
    "name": "Al Qayom Restaurant",
    "category": "amenity",
    "subcategory": "restaurant",
    "latitude": 34.3271767,
    "longitude": 73.2169617,
    "id": 6432371587
  },
  {
    "name": "Hilltop Hotel & Restaurant",
    "category": "tourism",
    "subcategory": "hotel",
    "latitude": 34.336498,
    "longitude": 73.2121828,
    "id": 6432371588
  },
  {
    "name": "FWO GUESTHOUSE",
    "category": "tourism",
    "subcategory": "guest_house",
    "latitude": 34.3465575,
    "longitude": 73.2302033,
    "id": 6604097085
  },
  {
    "name": "Sabzi Mandi",
    "category": "amenity",
    "subcategory": "marketplace",
    "latitude": 34.3481282,
    "longitude": 73.1977594,
    "id": 8933803846
  },
  {
    "name": "Faisal Movers",
    "category": "amenity",
    "subcategory": "bus_station",
    "latitude": 34.34577,
    "longitude": 73.1981089,
    "id": 10772719494
  },
  {
    "name": "HBL Bank",
    "category": "amenity",
    "subcategory": "atm",
    "latitude": 34.3459168,
    "longitude": 73.1981132,
    "id": 10772719496
  },
  {
    "name": "Biggest Landa Bazar",
    "category": "shop",
    "subcategory": "second_hand",
    "latitude": 34.330769,
    "longitude": 73.2012338,
    "id": 11129833605
  },
  {
    "name": "جامع مسجد تبلیغی مرکز مانسہرہ",
    "category": "amenity",
    "subcategory": "place_of_worship",
    "latitude": 34.3454754,
    "longitude": 73.1977525,
    "id": 13808049773
  }
]