[
  {
    "name": "جل کھنڈ",
    "category": "place",
    "subcategory": "village",
    "latitude": 34.9997757,
    "longitude": 73.9372105,
    "id": 2622025432
  },
  {
    "name": "restaurant",
    "category": "amenity",
    "subcategory": "restaurant",
    "latitude": 34.9966933,
    "longitude": 73.9361797,
    "id": 4997546921
  },
  {
    "name": "restaurant",
    "category": "amenity",
    "subcategory": "restaurant",
    "latitude": 35.0012743,
    "longitude": 73.9388627,
    "id": 12729436806
  },
  {
    "name": "Pakka 71 Lake",
    "category": "natural",
    "subcategory": "water",
    "latitude": 35.007532626315786,
    "longitude": 73.94146097894736,
    "id": 235261590
  },
  {
    "name": "ساہراہِ بابوسر",
    "category": "highway",
    "subcategory": "trunk",
    "latitude": 34.991936394126284,
    "longitude": 73.92324716857563,
    "id": 283845842
  },
  {
    "name": "Jalkhad - Sharda Road",
    "category": "highway",
    "subcategory": "tertiary",
    "latitude": 35.00469601935484,
    "longitude": 73.94107568387098,
    "id": 1154507903
  },
  {
    "name": "Pakka 71 Lake",
    "category": "natural",
    "subcategory": "water",
    "latitude": 35.007522415789474,
    "longitude": 73.94145536842105,
    "id": 235261590
  }
]