[
  {
    "name": "شیل",
    "category": "amenity",
    "subcategory": "fuel",
    "latitude": 24.8727787,
    "longitude": 67.1967338,
    "id": 283372430
  },
  {
    "name": "Kala Board",
    "category": "amenity",
    "subcategory": "bus_station",
    "latitude": 24.8827634,
    "longitude": 67.1822471,
    "id": 1609081126
  },
  {
    "name": "Liaquat Market",
    "category": "shop",
    "subcategory": "convenience",
    "latitude": 24.8925873,
    "longitude": 67.1948553,
    "id": 1640164796
  },
  {
    "name": "Gulzar E Muhammadi Masjid",
    "category": "amenity",
    "subcategory": "place_of_worship",
    "latitude": 24.9110642,
    "longitude": 67.1903624,
    "id": 2293795489
  },
  {
    "name": "Exit Parking",
    "category": "amenity",
    "subcategory": "parking",
    "latitude": 24.9338567,
    "longitude": 67.1776621,
    "id": 2794866128
  },
  {
    "name": "Royal CNG pump",
    "category": "amenity",
    "subcategory": "fuel",
    "latitude": 24.8709853,
    "longitude": 67.1992645,
    "id": 2849742248
  },
  {
    "name": "Muhabbat Nagar",
    "category": "amenity",
    "subcategory": "bus_station",
    "latitude": 24.883384,
    "longitude": 67.1922803,
    "id": 2962964834
  },
  {
    "name": "مکڈونلڈز",
    "category": "amenity",
    "subcategory": "fast_food",
    "latitude": 24.8990384,
    "longitude": 67.1685507,
    "id": 3751985205
  },
  {
    "name": "Shamsi Society Model School",
    "category": "amenity",
    "subcategory": "school",
    "latitude": 24.8795724,
    "longitude": 67.1720179,
    "id": 4259592001
  },
  {
    "name": "Malir 15",
    "category": "amenity",
    "subcategory": "bus_station",
    "latitude": 24.8790242,
    "longitude": 67.1882644,
    "id": 4299693694
  },
  {
    "name": "Malir Cant",
    "category": "amenity",
    "subcategory": "bus_station",
    "latitude": 24.8846985,
    "longitude": 67.1753,
    "id": 4299884790
  },
  {
    "name": "CSD Malir Cantt",
    "category": "shop",
    "subcategory": "convenience",
    "latitude": 24.9280283,
    "longitude": 67.203595,
    "id": 4359586990
  },
  {
    "name": "ٹوٹل",
    "category": "amenity",
    "subcategory": "fuel",
    "latitude": 24.897526,
    "longitude": 67.176131,
    "id": 4388452593
  },
  {
    "name": "Tea, lunch,diner pathan hotel",
    "category": "tourism",
    "subcategory": "hotel",
    "latitude": 24.8882509,
    "longitude": 67.1763304,
    "id": 4388457290
  },
  {
    "name": "gym",
    "category": "leisure",
    "subcategory": "fitness_centre",
    "latitude": 24.924757,
    "longitude": 67.192614,
    "id": 4498973589
  },
  {
    "name": "Sohni Resort",
    "category": "tourism",
    "subcategory": "guest_house",
    "latitude": 24.9238851,
    "longitude": 67.1761522,
    "id": 4541008989
  },
  {
    "name": "S.J Motors",
    "category": "amenity",
    "subcategory": "car_rental",
    "latitude": 24.9349894,
    "longitude": 67.1742109,
    "id": 4544477592
  },
  {
    "name": "Al Falah Masjid",
    "category": "amenity",
    "subcategory": "place_of_worship",
    "latitude": 24.876846,
    "longitude": 67.1768939,
    "id": 4665040795
  },
  {
    "name": "Ather Medical store",
    "category": "amenity",
    "subcategory": "pharmacy",
    "latitude": 24.8831673,
    "longitude": 67.1754417,
    "id": 4665108303
  },
  {
    "name": "Hasrat Mohani Park",
    "category": "leisure",
    "subcategory": "playground",
    "latitude": 24.8817464,
    "longitude": 67.1754654,
    "id": 4665141499
  },
  {
    "name": "Bank Al Habib Mailr Halt Branch",
    "category": "amenity",
    "subcategory": "bank",
    "latitude": 24.8848039,
    "longitude": 67.17517,
    "id": 4665149996
  },
  {
    "name": "Al-Hamrah sweets and bakers",
    "category": "shop",
    "subcategory": "bakery",
    "latitude": 24.8834039,
    "longitude": 67.175358,
    "id": 4665154391
  },
  {
    "name": "AL Karam Stationary",
    "category": "shop",
    "subcategory": "books",
    "latitude": 24.8832602,
    "longitude": 67.1750392,
    "id": 4665174489
  },
  {
    "name": "Jamia Millia Girls School",
    "category": "amenity",
    "subcategory": "school",
    "latitude": 24.8720334,
    "longitude": 67.1829756,
    "id": 4669105783
  },
  {
    "name": "Fine Bakery Malir,  Karachimal",
    "category": "shop",
    "subcategory": "bakery",
    "latitude": 24.8942862,
    "longitude": 67.1905689,
    "id": 4674650695
  },
  {
    "name": "Unsa House",
    "category": "tourism",
    "subcategory": "guest_house",
    "latitude": 24.8949055,
    "longitude": 67.1896574,
    "id": 4674672089
  },
  {
    "name": "Classic Bakery",
    "category": "shop",
    "subcategory": "bakery",
    "latitude": 24.8791505,
    "longitude": 67.188163,
    "id": 4737238721
  },
  {
    "name": "CAA Lodges",
    "category": "tourism",
    "subcategory": "hotel",
    "latitude": 24.8887492,
    "longitude": 67.1573722,
    "id": 4737637108
  },
  {
    "name": "Imam Abu Hanifa Masjid",
    "category": "amenity",
    "subcategory": "place_of_worship",
    "latitude": 24.8867929,
    "longitude": 67.1628546,
    "id": 4737643118
  },
  {
    "name": "ایچ بی ایل پاکستان",
    "category": "amenity",
    "subcategory": "atm",
    "latitude": 24.8874085,
    "longitude": 67.1633911,
    "id": 4737643119
  },
  {
    "name": "Telecom Foundation School",
    "category": "amenity",
    "subcategory": "school",
    "latitude": 24.8858399,
    "longitude": 67.168105,
    "id": 4737648343
  },
  {
    "name": "New Fresh Juice",
    "category": "amenity",
    "subcategory": "restaurant",
    "latitude": 24.8854526,
    "longitude": 67.1678464,
    "id": 4737648344
  },
  {
    "name": "پیزا ہٹ",
    "category": "amenity",
    "subcategory": "restaurant",
    "latitude": 24.8845064,
    "longitude": 67.1710835,
    "id": 4737649819
  },
  {
    "name": "Jama Masjid Riaz uz Zahra",
    "category": "amenity",
    "subcategory": "place_of_worship",
    "latitude": 24.8840028,
    "longitude": 67.1736009,
    "id": 4737652942
  },
  {
    "name": "ایم سی بی بینک",
    "category": "amenity",
    "subcategory": "bank",
    "latitude": 24.8832423,
    "longitude": 67.1747368,
    "id": 4737655921
  },
  {
    "name": "FOMG Hospital",
    "category": "amenity",
    "subcategory": "hospital",
    "latitude": 24.8851411,
    "longitude": 67.1750989,
    "id": 4737664783
  },
  {
    "name": "ایچ بی ایل پاکستان",
    "category": "amenity",
    "subcategory": "bank",
    "latitude": 24.8848734,
    "longitude": 67.1748334,
    "id": 4737664784
  },
  {
    "name": "Bank Al Habib Malir Halt",
    "category": "amenity",
    "subcategory": "bank",
    "latitude": 24.8848467,
    "longitude": 67.1749272,
    "id": 4737664785
  },
  {
    "name": "Faisal Bank Malir Halt",
    "category": "amenity",
    "subcategory": "bank",
    "latitude": 24.8848832,
    "longitude": 67.175166,
    "id": 4737664786
  },
  {
    "name": "NIB Bank - ATM",
    "category": "amenity",
    "subcategory": "bank",
    "latitude": 24.8840024,
    "longitude": 67.1785026,
    "id": 4737680864
  },
  {
    "name": "Doctors Plaza",
    "category": "amenity",
    "subcategory": "hospital",
    "latitude": 24.8836544,
    "longitude": 67.1792429,
    "id": 4737680866
  },
  {
    "name": "Rehman Masjid",
    "category": "amenity",
    "subcategory": "place_of_worship",
    "latitude": 24.8827986,
    "longitude": 67.1787574,
    "id": 4737685498
  },
  {
    "name": "Dr Mehdi A Manji Laboratory",
    "category": "amenity",
    "subcategory": "clinic",
    "latitude": 24.8833047,
    "longitude": 67.1801884,
    "id": 4737685499
  },
  {
    "name": "Aga Khan University Hospital Medical Centre Malir",
    "category": "amenity",
    "subcategory": "hospital",
    "latitude": 24.8831173,
    "longitude": 67.1805947,
    "id": 4737685500
  },
  {
    "name": "Dr Atiq Orthopedic & Medical Centre",
    "category": "amenity",
    "subcategory": "hospital",
    "latitude": 24.8830274,
    "longitude": 67.1809059,
    "id": 4737685501
  },
  {
    "name": "Masjid Touheed",
    "category": "amenity",
    "subcategory": "place_of_worship",
    "latitude": 24.8819519,
    "longitude": 67.1803238,
    "id": 4737686121
  },
  {
    "name": "سونیری بینک",
    "category": "amenity",
    "subcategory": "bank",
    "latitude": 24.8827641,
    "longitude": 67.1815759,
    "id": 4737689206
  },
  {
    "name": "Al Manar Model School",
    "category": "amenity",
    "subcategory": "school",
    "latitude": 24.8826794,
    "longitude": 67.1817856,
    "id": 4737689207
  },
  {
    "name": "Al Mumtaz Hospital",
    "category": "amenity",
    "subcategory": "hospital",
    "latitude": 24.8826404,
    "longitude": 67.1820404,
    "id": 4737689208
  },
  {
    "name": "Nehal Hospital",
    "category": "amenity",
    "subcategory": "hospital",
    "latitude": 24.8825099,
    "longitude": 67.1821684,
    "id": 4737689209
  },
  {
    "name": "الائیڈ بینک لمیٹڈ",
    "category": "amenity",
    "subcategory": "bank",
    "latitude": 24.8824923,
    "longitude": 67.1823757,
    "id": 4737689210
  },
  {
    "name": "Askari Commercial Bank",
    "category": "amenity",
    "subcategory": "bank",
    "latitude": 24.8820884,
    "longitude": 67.1831509,
    "id": 4737716788
  },
  {
    "name": "The Vision School",
    "category": "amenity",
    "subcategory": "school",
    "latitude": 24.8817781,
    "longitude": 67.18363,
    "id": 4737716789
  },
  {
    "name": "Qazi Lawn",
    "category": "amenity",
    "subcategory": "community_centre",
    "latitude": 24.8814724,
    "longitude": 67.1840739,
    "id": 4737716790
  },
  {
    "name": "Dr Khan Laboratory & Diagnostic Centre",
    "category": "amenity",
    "subcategory": "hospital",
    "latitude": 24.8806454,
    "longitude": 67.1856912,
    "id": 4737716791
  },
  {
    "name": "Hassan General Hospital",
    "category": "amenity",
    "subcategory": "hospital",
    "latitude": 24.8805309,
    "longitude": 67.1858192,
    "id": 4737716792
  },
  {
    "name": "Millat Masjid",
    "category": "amenity",
    "subcategory": "place_of_worship",
    "latitude": 24.8799568,
    "longitude": 67.184661,
    "id": 4737716793
  },
  {
    "name": "ایچ بی ایل پاکستان",
    "category": "amenity",
    "subcategory": "bank",
    "latitude": 24.8800858,
    "longitude": 67.1867566,
    "id": 4737734521
  },
  {
    "name": "Imam Bargah Muhammadi Dera",
    "category": "amenity",
    "subcategory": "place_of_worship",
    "latitude": 24.8799422,
    "longitude": 67.1871474,
    "id": 4737734522
  },
  {
    "name": "Gulzar e Madina Masjid",
    "category": "amenity",
    "subcategory": "place_of_worship",
    "latitude": 24.8786623,
    "longitude": 67.1863508,
    "id": 4737734524
  },
  {
    "name": "NBP Bank",
    "category": "amenity",
    "subcategory": "bank",
    "latitude": 24.8796795,
    "longitude": 67.1873351,
    "id": 4737734525
  },
  {
    "name": "Oxford Grammer School",
    "category": "amenity",
    "subcategory": "school",
    "latitude": 24.8796843,
    "longitude": 67.1887004,
    "id": 4737734527
  },
  {
    "name": "Noorani Masjid",
    "category": "amenity",
    "subcategory": "place_of_worship",
    "latitude": 24.8785309,
    "longitude": 67.1885126,
    "id": 4737734528
  },
  {
    "name": "Shandar Chicken Biryani",
    "category": "amenity",
    "subcategory": "restaurant",
    "latitude": 24.8785195,
    "longitude": 67.1892717,
    "id": 4737734529
  },
  {
    "name": "Millat Bakery",
    "category": "shop",
    "subcategory": "bakery",
    "latitude": 24.8780647,
    "longitude": 67.1901801,
    "id": 4737734532
  },
  {
    "name": "Sangeet Cinema",
    "category": "amenity",
    "subcategory": "cinema",
    "latitude": 24.8777895,
    "longitude": 67.1910849,
    "id": 4737737020
  },
  {
    "name": "UBL Malir Branch",
    "category": "amenity",
    "subcategory": "bank",
    "latitude": 24.8773904,
    "longitude": 67.1911975,
    "id": 4737737322
  },
  {
    "name": "Meat Market",
    "category": "shop",
    "subcategory": "butcher",
    "latitude": 24.8773863,
    "longitude": 67.1915958,
    "id": 4737738046
  },
  {
    "name": "Pakistan Post Office",
    "category": "amenity",
    "subcategory": "post_office",
    "latitude": 24.8776783,
    "longitude": 67.1925024,
    "id": 4737739478
  },
  {
    "name": "Tiger Swimming Pool",
    "category": "leisure",
    "subcategory": "sports_centre",
    "latitude": 24.8770973,
    "longitude": 67.1894634,
    "id": 4737745208
  },
  {
    "name": "Sugra Masjid",
    "category": "amenity",
    "subcategory": "place_of_worship",
    "latitude": 24.8769816,
    "longitude": 67.1896638,
    "id": 4737745209
  },
  {
    "name": "Rehman Bakery",
    "category": "shop",
    "subcategory": "bakery",
    "latitude": 24.875919,
    "longitude": 67.1895225,
    "id": 4737745210
  },
  {
    "name": "Madina Masjid",
    "category": "amenity",
    "subcategory": "place_of_worship",
    "latitude": 24.8753085,
    "longitude": 67.1941475,
    "id": 4737747430
  },
  {
    "name": "Malir Mandir",
    "category": "amenity",
    "subcategory": "place_of_worship",
    "latitude": 24.8754713,
    "longitude": 67.1933307,
    "id": 4737747431
  },
  {
    "name": "Malir Police Station",
    "category": "amenity",
    "subcategory": "police",
    "latitude": 24.8749432,
    "longitude": 67.1930335,
    "id": 4737748610
  },
  {
    "name": "District and Session Courts Malir",
    "category": "amenity",
    "subcategory": "courthouse",
    "latitude": 24.8741211,
    "longitude": 67.1944722,
    "id": 4737753429
  },
  {
    "name": "Prince Garden",
    "category": "amenity",
    "subcategory": "community_centre",
    "latitude": 24.8745709,
    "longitude": 67.1944845,
    "id": 4737760915
  },
  {
    "name": "Sindh Baluchistan Restaurant",
    "category": "amenity",
    "subcategory": "restaurant",
    "latitude": 24.8744565,
    "longitude": 67.1947152,
    "id": 4737760916
  },
  {
    "name": "Mohammadi Girls Secondary School",
    "category": "amenity",
    "subcategory": "school",
    "latitude": 24.8724789,
    "longitude": 67.1961046,
    "id": 4737763231
  },
  {
    "name": "Rafi Mall",
    "category": "shop",
    "subcategory": "mall",
    "latitude": 24.8713912,
    "longitude": 67.1975262,
    "id": 4737769023
  },
  {
    "name": "Raza Mobile Market",
    "category": "amenity",
    "subcategory": "marketplace",
    "latitude": 24.8719387,
    "longitude": 67.1969522,
    "id": 4737769024
  },
  {
    "name": "Salman Tower & Shopping Mall",
    "category": "shop",
    "subcategory": "mall",
    "latitude": 24.8719415,
    "longitude": 67.1979285,
    "id": 4737769025
  },
  {
    "name": "First Women Bank",
    "category": "amenity",
    "subcategory": "bank",
    "latitude": 24.8722721,
    "longitude": 67.197435,
    "id": 4737787383
  },
  {
    "name": "Usman Ghani Masid",
    "category": "amenity",
    "subcategory": "place_of_worship",
    "latitude": 24.8709142,
    "longitude": 67.199503,
    "id": 4737797548
  },
  {
    "name": "National Highway Hotel",
    "category": "tourism",
    "subcategory": "hotel",
    "latitude": 24.8705687,
    "longitude": 67.1995137,
    "id": 4737797549
  },
  {
    "name": "Masjid e Ayesha",
    "category": "amenity",
    "subcategory": "place_of_worship",
    "latitude": 24.8698622,
    "longitude": 67.2003491,
    "id": 4737797552
  },
  {
    "name": "Anwar Baloch Restaurant & Fast Food",
    "category": "amenity",
    "subcategory": "restaurant",
    "latitude": 24.8697486,
    "longitude": 67.2005544,
    "id": 4737797553
  },
  {
    "name": "Jamia Masjid Siddique e Akbar",
    "category": "amenity",
    "subcategory": "place_of_worship",
    "latitude": 24.8703642,
    "longitude": 67.201976,
    "id": 4737805725
  },
  {
    "name": "Anwar e Madina Masjid",
    "category": "amenity",
    "subcategory": "place_of_worship",
    "latitude": 24.868965,
    "longitude": 67.2027914,
    "id": 4737805726
  },
  {
    "name": "Madina Masjid",
    "category": "amenity",
    "subcategory": "place_of_worship",
    "latitude": 24.8599364,
    "longitude": 67.2081558,
    "id": 4737814934
  },
  {
    "name": "National Savings Center",
    "category": "amenity",
    "subcategory": "bank",
    "latitude": 24.8599545,
    "longitude": 67.2074691,
    "id": 4737814935
  },
  {
    "name": "Aurangzeb Hospital",
    "category": "amenity",
    "subcategory": "hospital",
    "latitude": 24.8591711,
    "longitude": 67.2079895,
    "id": 4737814936
  },
  {
    "name": "نیشنل بینک آف پاکستان",
    "category": "amenity",
    "subcategory": "bank",
    "latitude": 24.8578897,
    "longitude": 67.2088049,
    "id": 4737816380
  },
  {
    "name": "PSIT Mosque",
    "category": "amenity",
    "subcategory": "place_of_worship",
    "latitude": 24.8577729,
    "longitude": 67.2083328,
    "id": 4737816388
  },
  {
    "name": "شیل",
    "category": "amenity",
    "subcategory": "fuel",
    "latitude": 24.8562445,
    "longitude": 67.2100125,
    "id": 4737820028
  },
  {
    "name": "Muslim Peshawari Restaurant",
    "category": "amenity",
    "subcategory": "restaurant",
    "latitude": 24.8780167,
    "longitude": 67.1881981,
    "id": 4764324518
  },
  {
    "name": "Imam Abu Hanifa Masjid",
    "category": "amenity",
    "subcategory": "place_of_worship",
    "latitude": 24.8753264,
    "longitude": 67.1887927,
    "id": 4764324520
  },
  {
    "name": "Jama Masjid Ali Murtaza",
    "category": "amenity",
    "subcategory": "place_of_worship",
    "latitude": 24.8746036,
    "longitude": 67.1889671,
    "id": 4764328921
  },
  {
    "name": "Zam Zam Pan Shop",
    "category": "shop",
    "subcategory": "confectionery",
    "latitude": 24.8749346,
    "longitude": 67.1895813,
    "id": 4764328924
  },
  {
    "name": "Welcome General Store",
    "category": "shop",
    "subcategory": "supermarket",
    "latitude": 24.8748178,
    "longitude": 67.1892648,
    "id": 4764328925
  },
  {
    "name": "Ilm-o-Adab Book Shop",
    "category": "shop",
    "subcategory": "books",
    "latitude": 24.8753312,
    "longitude": 67.1898978,
    "id": 4764328926
  },
  {
    "name": "Makki General Store",
    "category": "shop",
    "subcategory": "supermarket",
    "latitude": 24.8760155,
    "longitude": 67.1894715,
    "id": 4764328929
  },
  {
    "name": "Masha Allah Dairy Shop",
    "category": "shop",
    "subcategory": "dairy",
    "latitude": 24.8757677,
    "longitude": 67.1894738,
    "id": 4764328930
  },
  {
    "name": "Al-Mustafa Masjid",
    "category": "amenity",
    "subcategory": "place_of_worship",
    "latitude": 24.8732438,
    "longitude": 67.1902113,
    "id": 4764328931
  },
  {
    "name": "Al Amin Jamia Masjid",
    "category": "amenity",
    "subcategory": "place_of_worship",
    "latitude": 24.8727439,
    "longitude": 67.1924366,
    "id": 4764328932
  },
  {
    "name": "New Quetta Darbar Hotel",
    "category": "tourism",
    "subcategory": "hotel",
    "latitude": 24.8709624,
    "longitude": 67.1875409,
    "id": 4764328934
  },
  {
    "name": "Cafe Kaka",
    "category": "amenity",
    "subcategory": "cafe",
    "latitude": 24.8707709,
    "longitude": 67.1877427,
    "id": 4764328935
  },
  {
    "name": "Shahrukh bakery",
    "category": "shop",
    "subcategory": "bakery",
    "latitude": 24.8713886,
    "longitude": 67.1885977,
    "id": 4764328936
  },
  {
    "name": "Taj Masjid",
    "category": "amenity",
    "subcategory": "place_of_worship",
    "latitude": 24.8720103,
    "longitude": 67.187254,
    "id": 4764328937
  },
  {
    "name": "Shaheen Secondary School",
    "category": "amenity",
    "subcategory": "school",
    "latitude": 24.8728435,
    "longitude": 67.1873655,
    "id": 4764328938
  },
  {
    "name": "Habib Kiryana & Gen Store",
    "category": "shop",
    "subcategory": "yes",
    "latitude": 24.8725513,
    "longitude": 67.1870947,
    "id": 4764328939
  },
  {
    "name": "Mio Milk Shop",
    "category": "shop",
    "subcategory": "yes",
    "latitude": 24.8706585,
    "longitude": 67.187792,
    "id": 4764328940
  },
  {
    "name": "Danish Autos",
    "category": "shop",
    "subcategory": "yes",
    "latitude": 24.8703647,
    "longitude": 67.1892554,
    "id": 4764328941
  },
  {
    "name": "Madina Sheer Maal",
    "category": "amenity",
    "subcategory": "restaurant",
    "latitude": 24.8711716,
    "longitude": 67.1865883,
    "id": 4764328942
  },
  {
    "name": "Nagori Milk Shop",
    "category": "shop",
    "subcategory": "yes",
    "latitude": 24.8710544,
    "longitude": 67.1864998,
    "id": 4764328943
  },
  {
    "name": "Ahmad Brothers General Store",
    "category": "shop",
    "subcategory": "yes",
    "latitude": 24.870395,
    "longitude": 67.1891923,
    "id": 4764328944
  },
  {
    "name": "Revolution Cut Saloon",
    "category": "shop",
    "subcategory": "yes",
    "latitude": 24.8703195,
    "longitude": 67.1890366,
    "id": 4764328945
  },
  {
    "name": "Moon General Store",
    "category": "shop",
    "subcategory": "yes",
    "latitude": 24.8701396,
    "longitude": 67.1896183,
    "id": 4764328946
  },
  {
    "name": "Jumerat Bazar",
    "category": "shop",
    "subcategory": "supermarket",
    "latitude": 24.8737216,
    "longitude": 67.1849018,
    "id": 4764328951
  },
  {
    "name": "Anwar-e-Taiba Masjid",
    "category": "amenity",
    "subcategory": "place_of_worship",
    "latitude": 24.8742498,
    "longitude": 67.1870155,
    "id": 4764328952
  },
  {
    "name": "Masjid Bab-e-Rahmat",
    "category": "amenity",
    "subcategory": "place_of_worship",
    "latitude": 24.8731267,
    "longitude": 67.1869242,
    "id": 4764328953
  },
  {
    "name": "Ahtesham Milk & Bakers",
    "category": "shop",
    "subcategory": "yes",
    "latitude": 24.8724873,
    "longitude": 67.1871047,
    "id": 4764328954
  },
  {
    "name": "Green Land Grammer School",
    "category": "amenity",
    "subcategory": "school",
    "latitude": 24.8737501,
    "longitude": 67.1855952,
    "id": 4764328955
  },
  {
    "name": "Abdullah Murad Shaheed Masjid",
    "category": "amenity",
    "subcategory": "place_of_worship",
    "latitude": 24.8738143,
    "longitude": 67.1845015,
    "id": 4764328956
  },
  {
    "name": "Jamia Bait Ul Quran",
    "category": "amenity",
    "subcategory": "university",
    "latitude": 24.8716627,
    "longitude": 67.1837295,
    "id": 4764328957
  },
  {
    "name": "جامع مسجد",
    "category": "amenity",
    "subcategory": "place_of_worship",
    "latitude": 24.8715996,
    "longitude": 67.1803542,
    "id": 4764328959
  },
  {
    "name": "Jamia Millia Government Degree College",
    "category": "amenity",
    "subcategory": "college",
    "latitude": 24.8725825,
    "longitude": 67.1789368,
    "id": 4764328960
  },
  {
    "name": "Crescent Bahria Cadet College",
    "category": "amenity",
    "subcategory": "college",
    "latitude": 24.8742047,
    "longitude": 67.1807992,
    "id": 4764379337
  },
  {
    "name": "Gulshan Community Center",
    "category": "amenity",
    "subcategory": "community_centre",
    "latitude": 24.8742047,
    "longitude": 67.1801267,
    "id": 4764379339
  },
  {
    "name": "Syed Sheda Hussain Eid Gah Ground",
    "category": "amenity",
    "subcategory": "community_centre",
    "latitude": 24.8752231,
    "longitude": 67.1808077,
    "id": 4764379340
  },
  {
    "name": "بینک الفلاح",
    "category": "amenity",
    "subcategory": "bank",
    "latitude": 24.8761372,
    "longitude": 67.1802379,
    "id": 4764379341
  },
  {
    "name": "Rewari Sweets and Bakers",
    "category": "shop",
    "subcategory": "bakery",
    "latitude": 24.8766517,
    "longitude": 67.1820388,
    "id": 4764379342
  },
  {
    "name": "Junaid Opticals",
    "category": "shop",
    "subcategory": "optician",
    "latitude": 24.8766296,
    "longitude": 67.1814534,
    "id": 4764379343
  },
  {
    "name": "A To Z Pharma Whole Sale Chemist",
    "category": "amenity",
    "subcategory": "pharmacy",
    "latitude": 24.8759397,
    "longitude": 67.1792573,
    "id": 4764379344
  },
  {
    "name": "Meezan Bank Jamia Millia Road Branch",
    "category": "amenity",
    "subcategory": "bank",
    "latitude": 24.8759114,
    "longitude": 67.179059,
    "id": 4764379345
  },
  {
    "name": "Jamia Masjid Farooq E Azam",
    "category": "amenity",
    "subcategory": "place_of_worship",
    "latitude": 24.8753251,
    "longitude": 67.1783102,
    "id": 4764379346
  },
  {
    "name": "Siddqui Pakwan Center",
    "category": "amenity",
    "subcategory": "restaurant",
    "latitude": 24.8755858,
    "longitude": 67.177402,
    "id": 4764379347
  },
  {
    "name": "Royal Club",
    "category": "amenity",
    "subcategory": "townhall",
    "latitude": 24.8753384,
    "longitude": 67.1769719,
    "id": 4764379349
  },
  {
    "name": "Sarfaraz Pakwan House",
    "category": "amenity",
    "subcategory": "restaurant",
    "latitude": 24.8755416,
    "longitude": 67.177654,
    "id": 4764379350
  },
  {
    "name": "Bismillah Medical Store",
    "category": "amenity",
    "subcategory": "pharmacy",
    "latitude": 24.8930245,
    "longitude": 67.1774826,
    "id": 4764379357
  },
  {
    "name": "Bagh-e-Jinnah Marriage Garden",
    "category": "amenity",
    "subcategory": "community_centre",
    "latitude": 24.8955866,
    "longitude": 67.1785595,
    "id": 4764379362
  },
  {
    "name": "Siddique Akbar Masjid",
    "category": "amenity",
    "subcategory": "place_of_worship",
    "latitude": 24.891851,
    "longitude": 67.1844556,
    "id": 4764492101
  },
  {
    "name": "Mehran Lawn",
    "category": "amenity",
    "subcategory": "townhall",
    "latitude": 24.8910767,
    "longitude": 67.185412,
    "id": 4764492102
  },
  {
    "name": "Al Habib Bakery",
    "category": "shop",
    "subcategory": "bakery",
    "latitude": 24.8922345,
    "longitude": 67.1856553,
    "id": 4764492103
  },
  {
    "name": "Bakery",
    "category": "shop",
    "subcategory": "bakery",
    "latitude": 24.8935643,
    "longitude": 67.1857482,
    "id": 4764492104
  },
  {
    "name": "Chishtia Masjid",
    "category": "amenity",
    "subcategory": "place_of_worship",
    "latitude": 24.8941495,
    "longitude": 67.185547,
    "id": 4764492105
  },
  {
    "name": "Nadeem Hotel",
    "category": "tourism",
    "subcategory": "hotel",
    "latitude": 24.8935131,
    "longitude": 67.1869702,
    "id": 4764492106
  },
  {
    "name": "Burger G",
    "category": "amenity",
    "subcategory": "fast_food",
    "latitude": 24.8934945,
    "longitude": 67.1870878,
    "id": 4764492107
  },
  {
    "name": "Abdaal Masjid",
    "category": "amenity",
    "subcategory": "place_of_worship",
    "latitude": 24.8956573,
    "longitude": 67.1877542,
    "id": 4764492109
  },
  {
    "name": "Rehmania Masjid",
    "category": "amenity",
    "subcategory": "place_of_worship",
    "latitude": 24.8971745,
    "longitude": 67.1868208,
    "id": 4764492111
  },
  {
    "name": "Jamia Masjid Madni",
    "category": "amenity",
    "subcategory": "place_of_worship",
    "latitude": 24.8945616,
    "longitude": 67.1838738,
    "id": 4764492112
  },
  {
    "name": "Madrasa-e-Tayyaba",
    "category": "amenity",
    "subcategory": "college",
    "latitude": 24.8937055,
    "longitude": 67.1809023,
    "id": 4764492113
  },
  {
    "name": "Shehryar tailor",
    "category": "shop",
    "subcategory": "yes",
    "latitude": 24.8936993,
    "longitude": 67.1811694,
    "id": 4764492115
  },
  {
    "name": "Jama Masjid Bab-e-Rehmat",
    "category": "amenity",
    "subcategory": "place_of_worship",
    "latitude": 24.8984099,
    "longitude": 67.1814955,
    "id": 4764492118
  },
  {
    "name": "Bagh-O-Bahar Lawn",
    "category": "amenity",
    "subcategory": "community_centre",
    "latitude": 24.8999762,
    "longitude": 67.1809924,
    "id": 4764492119
  },
  {
    "name": "Khan Jee's Yousfzai Restaruant",
    "category": "amenity",
    "subcategory": "restaurant",
    "latitude": 24.8997609,
    "longitude": 67.1809389,
    "id": 4764492120
  },
  {
    "name": "Pizza Crust",
    "category": "amenity",
    "subcategory": "restaurant",
    "latitude": 24.9003726,
    "longitude": 67.181242,
    "id": 4764497921
  },
  {
    "name": "The Smart School, Airport Jinnah Avenue Campus",
    "category": "amenity",
    "subcategory": "school",
    "latitude": 24.9008699,
    "longitude": 67.1812794,
    "id": 4764497922
  },
  {
    "name": "Amin Masjid",
    "category": "amenity",
    "subcategory": "place_of_worship",
    "latitude": 24.9018733,
    "longitude": 67.1816701,
    "id": 4764497923
  },
  {
    "name": "Umeed-e-Seher Old Age Home",
    "category": "amenity",
    "subcategory": "hospital",
    "latitude": 24.9010447,
    "longitude": 67.1857547,
    "id": 4764497924
  },
  {
    "name": "Al Ashraf Masjid",
    "category": "amenity",
    "subcategory": "place_of_worship",
    "latitude": 24.9008623,
    "longitude": 67.1868266,
    "id": 4764497925
  },
  {
    "name": "Sitara Bakery",
    "category": "shop",
    "subcategory": "bakery",
    "latitude": 24.9007018,
    "longitude": 67.1871008,
    "id": 4764497926
  },
  {
    "name": "My Little World School",
    "category": "amenity",
    "subcategory": "school",
    "latitude": 24.899594,
    "longitude": 67.1868354,
    "id": 4764575622
  },
  {
    "name": "Jame Masjid Umar Bin Khattab (RA)",
    "category": "amenity",
    "subcategory": "place_of_worship",
    "latitude": 24.8990931,
    "longitude": 67.1899306,
    "id": 4764575623
  },
  {
    "name": "Pizza Point",
    "category": "amenity",
    "subcategory": "restaurant",
    "latitude": 24.9030035,
    "longitude": 67.1820246,
    "id": 4764575624
  },
  {
    "name": "Channel Gaming Zone & Cafe",
    "category": "amenity",
    "subcategory": "cafe",
    "latitude": 24.9033308,
    "longitude": 67.1830229,
    "id": 4764575626
  },
  {
    "name": "Pizza Parlor",
    "category": "amenity",
    "subcategory": "restaurant",
    "latitude": 24.9032503,
    "longitude": 67.1835109,
    "id": 4764575627
  },
  {
    "name": "Alpine Gelato",
    "category": "amenity",
    "subcategory": "restaurant",
    "latitude": 24.9032016,
    "longitude": 67.1839523,
    "id": 4764575628
  },
  {
    "name": "Silver Scoop Ice Cream Parlour",
    "category": "amenity",
    "subcategory": "ice_cream",
    "latitude": 24.9030724,
    "longitude": 67.1839406,
    "id": 4764575629
  },
  {
    "name": "Alpine CNG",
    "category": "amenity",
    "subcategory": "fuel",
    "latitude": 24.9032399,
    "longitude": 67.1821459,
    "id": 4764575630
  },
  {
    "name": "Lavish Banquet",
    "category": "amenity",
    "subcategory": "community_centre",
    "latitude": 24.9023446,
    "longitude": 67.1819207,
    "id": 4764575631
  },
  {
    "name": "Madina Mosque",
    "category": "amenity",
    "subcategory": "place_of_worship",
    "latitude": 24.9025955,
    "longitude": 67.18583,
    "id": 4764575632
  },
  {
    "name": "Model Food Street",
    "category": "amenity",
    "subcategory": "fast_food",
    "latitude": 24.9028414,
    "longitude": 67.1864338,
    "id": 4764575633
  },
  {
    "name": "Lee Broast",
    "category": "amenity",
    "subcategory": "fast_food",
    "latitude": 24.9028666,
    "longitude": 67.1862089,
    "id": 4764575634
  },
  {
    "name": "Liberty Market",
    "category": "shop",
    "subcategory": "supermarket",
    "latitude": 24.9029029,
    "longitude": 67.1859193,
    "id": 4764575635
  },
  {
    "name": "Broadway Bakery",
    "category": "shop",
    "subcategory": "supermarket",
    "latitude": 24.9027297,
    "longitude": 67.1871148,
    "id": 4764575636
  },
  {
    "name": "Zamzama Cloth Market",
    "category": "amenity",
    "subcategory": "marketplace",
    "latitude": 24.9027436,
    "longitude": 67.1870223,
    "id": 4764575637
  },
  {
    "name": "Tasty Bites",
    "category": "amenity",
    "subcategory": "fast_food",
    "latitude": 24.9026458,
    "longitude": 67.186668,
    "id": 4764575638
  },
  {
    "name": "Order karachi",
    "category": "amenity",
    "subcategory": "fast_food",
    "latitude": 24.9029896,
    "longitude": 67.1868097,
    "id": 4764575639
  },
  {
    "name": "Grill Tonight",
    "category": "amenity",
    "subcategory": "fast_food",
    "latitude": 24.9032187,
    "longitude": 67.1869422,
    "id": 4764575640
  },
  {
    "name": "DHO Malir, Model Town Health Office",
    "category": "amenity",
    "subcategory": "hospital",
    "latitude": 24.9024811,
    "longitude": 67.188862,
    "id": 4764575641
  },
  {
    "name": "Model Colony Town Hospital",
    "category": "amenity",
    "subcategory": "hospital",
    "latitude": 24.9027827,
    "longitude": 67.1887172,
    "id": 4764575642
  },
  {
    "name": "Al Makka Restaurant",
    "category": "amenity",
    "subcategory": "restaurant",
    "latitude": 24.9024082,
    "longitude": 67.1891218,
    "id": 4764575643
  },
  {
    "name": "Junaid Fabrics",
    "category": "shop",
    "subcategory": "yes",
    "latitude": 24.9023676,
    "longitude": 67.189443,
    "id": 4764575644
  },
  {
    "name": "Iysh Cleem",
    "category": "amenity",
    "subcategory": "ice_cream",
    "latitude": 24.9030074,
    "longitude": 67.1895243,
    "id": 4764575645
  },
  {
    "name": "Al Qamar Garden",
    "category": "leisure",
    "subcategory": "garden",
    "latitude": 24.9021409,
    "longitude": 67.1898089,
    "id": 4764575646
  },
  {
    "name": "یونائیٹڈ بینک لمیٹڈ",
    "category": "amenity",
    "subcategory": "bank",
    "latitude": 24.9021243,
    "longitude": 67.1899207,
    "id": 4764575647
  },
  {
    "name": "Alamgir Masjid Model Colony",
    "category": "amenity",
    "subcategory": "place_of_worship",
    "latitude": 24.9020597,
    "longitude": 67.1905203,
    "id": 4764575648
  },
  {
    "name": "Karachi Icecream",
    "category": "amenity",
    "subcategory": "ice_cream",
    "latitude": 24.9021611,
    "longitude": 67.190624,
    "id": 4764575649
  },
  {
    "name": "Shiraz Medical Center",
    "category": "amenity",
    "subcategory": "hospital",
    "latitude": 24.9018631,
    "longitude": 67.1915952,
    "id": 4764575650
  },
  {
    "name": "The Professors' Academy",
    "category": "amenity",
    "subcategory": "school",
    "latitude": 24.9014517,
    "longitude": 67.1921479,
    "id": 4764575651
  },
  {
    "name": "Rabbani Jamia Masjid",
    "category": "amenity",
    "subcategory": "place_of_worship",
    "latitude": 24.9014241,
    "longitude": 67.1935874,
    "id": 4764575652
  },
  {
    "name": "Al-Shifa Homoeo Drug Centre",
    "category": "amenity",
    "subcategory": "pharmacy",
    "latitude": 24.9016418,
    "longitude": 67.1929981,
    "id": 4764575653
  },
  {
    "name": "Apex School, Model Colony, Karachi",
    "category": "amenity",
    "subcategory": "school",
    "latitude": 24.901284,
    "longitude": 67.1925188,
    "id": 4764575654
  },
  {
    "name": "Alpha Bakery",
    "category": "shop",
    "subcategory": "bakery",
    "latitude": 24.9020331,
    "longitude": 67.1913871,
    "id": 4764575655
  },
  {
    "name": "Bank AL Habib Limited",
    "category": "amenity",
    "subcategory": "bank",
    "latitude": 24.9023745,
    "longitude": 67.1884271,
    "id": 4764575656
  },
  {
    "name": "Sindh Bank Islamic Banking Model Colony Branch",
    "category": "amenity",
    "subcategory": "bank",
    "latitude": 24.9022537,
    "longitude": 67.1892514,
    "id": 4764575657
  },
  {
    "name": "Faryal Masjid",
    "category": "amenity",
    "subcategory": "place_of_worship",
    "latitude": 24.9102559,
    "longitude": 67.1963914,
    "id": 4764643841
  },
  {
    "name": "Masjid Ibrahim",
    "category": "amenity",
    "subcategory": "place_of_worship",
    "latitude": 24.9062337,
    "longitude": 67.1926021,
    "id": 4764643842
  },
  {
    "name": "Royal Taste Pizza",
    "category": "amenity",
    "subcategory": "fast_food",
    "latitude": 24.9116875,
    "longitude": 67.1850496,
    "id": 4764643843
  },
  {
    "name": "Taimz Restraunt",
    "category": "amenity",
    "subcategory": "restaurant",
    "latitude": 24.9114022,
    "longitude": 67.1870662,
    "id": 4764643844
  },
  {
    "name": "Masjid-e-Hira",
    "category": "amenity",
    "subcategory": "place_of_worship",
    "latitude": 24.9102954,
    "longitude": 67.1866188,
    "id": 4764643845
  },
  {
    "name": "Utility Store",
    "category": "shop",
    "subcategory": "supermarket",
    "latitude": 24.9105664,
    "longitude": 67.1867267,
    "id": 4764643847
  },
  {
    "name": "Prince Bakers",
    "category": "shop",
    "subcategory": "bakery",
    "latitude": 24.9107061,
    "longitude": 67.1868314,
    "id": 4764643848
  },
  {
    "name": "Memon Milk Shop",
    "category": "shop",
    "subcategory": "yes",
    "latitude": 24.9096331,
    "longitude": 67.1860304,
    "id": 4764643849
  },
  {
    "name": "Usman Medicose & General Store",
    "category": "amenity",
    "subcategory": "pharmacy",
    "latitude": 24.9082554,
    "longitude": 67.1860889,
    "id": 4764643850
  },
  {
    "name": "Umar Park",
    "category": "leisure",
    "subcategory": "park",
    "latitude": 24.9067516,
    "longitude": 67.1857494,
    "id": 4764643851
  },
  {
    "name": "Madni Masjid",
    "category": "amenity",
    "subcategory": "place_of_worship",
    "latitude": 24.9068525,
    "longitude": 67.1840125,
    "id": 4764643852
  },
  {
    "name": "Ghazi Milk Center",
    "category": "shop",
    "subcategory": "yes",
    "latitude": 24.9079347,
    "longitude": 67.1835084,
    "id": 4764643853
  },
  {
    "name": "Mamu General Store",
    "category": "shop",
    "subcategory": "yes",
    "latitude": 24.9075605,
    "longitude": 67.1844353,
    "id": 4764643854
  },
  {
    "name": "California Pizza",
    "category": "amenity",
    "subcategory": "food_court",
    "latitude": 24.9090192,
    "longitude": 67.1839055,
    "id": 4764643855
  },
  {
    "name": "Model CNG Point",
    "category": "amenity",
    "subcategory": "fuel",
    "latitude": 24.9095857,
    "longitude": 67.1841851,
    "id": 4764643856
  },
  {
    "name": "Warsi Mosque",
    "category": "amenity",
    "subcategory": "place_of_worship",
    "latitude": 24.906026,
    "longitude": 67.1905721,
    "id": 4764643857
  },
  {
    "name": "Masjid Abu Bakr al Siddique",
    "category": "amenity",
    "subcategory": "place_of_worship",
    "latitude": 24.9047876,
    "longitude": 67.190293,
    "id": 4764643858
  },
  {
    "name": "Delhi Darbar Caterers",
    "category": "shop",
    "subcategory": "yes",
    "latitude": 24.9063834,
    "longitude": 67.1918335,
    "id": 4764643859
  },
  {
    "name": "Niazi Hotel",
    "category": "tourism",
    "subcategory": "hotel",
    "latitude": 24.9103407,
    "longitude": 67.194948,
    "id": 4764643860
  },
  {
    "name": "Prince Bakery",
    "category": "shop",
    "subcategory": "bakery",
    "latitude": 24.9104982,
    "longitude": 67.1937687,
    "id": 4764643861
  },
  {
    "name": "Quetta Hotel",
    "category": "tourism",
    "subcategory": "hotel",
    "latitude": 24.9105409,
    "longitude": 67.1933647,
    "id": 4764643862
  },
  {
    "name": "Faiz e Muhammadi Masjid",
    "category": "amenity",
    "subcategory": "place_of_worship",
    "latitude": 24.910928,
    "longitude": 67.1927947,
    "id": 4764643863
  },
  {
    "name": "Hafsa Masjid",
    "category": "amenity",
    "subcategory": "place_of_worship",
    "latitude": 24.9118315,
    "longitude": 67.1967034,
    "id": 4764643864
  },
  {
    "name": "Fauji Foundation Model School",
    "category": "amenity",
    "subcategory": "school",
    "latitude": 24.9091562,
    "longitude": 67.1914894,
    "id": 4764643866
  },
  {
    "name": "Masjid Baqiat Ullah",
    "category": "amenity",
    "subcategory": "place_of_worship",
    "latitude": 24.9086619,
    "longitude": 67.1912451,
    "id": 4764643867
  },
  {
    "name": "The Smart School Model Campus",
    "category": "amenity",
    "subcategory": "school",
    "latitude": 24.9076792,
    "longitude": 67.1920795,
    "id": 4764643868
  },
  {
    "name": "Saudabad Police Station",
    "category": "amenity",
    "subcategory": "police",
    "latitude": 24.8848061,
    "longitude": 67.1841853,
    "id": 4764643870
  },
  {
    "name": "Faridi Lodge",
    "category": "tourism",
    "subcategory": "hostel",
    "latitude": 24.8865119,
    "longitude": 67.182546,
    "id": 4764683465
  },
  {
    "name": "Madina Mosque",
    "category": "amenity",
    "subcategory": "place_of_worship",
    "latitude": 24.885934,
    "longitude": 67.1848111,
    "id": 4764683466
  },
  {
    "name": "Jamia Masjid Chistiya",
    "category": "amenity",
    "subcategory": "place_of_worship",
    "latitude": 24.8843904,
    "longitude": 67.1852589,
    "id": 4764683468
  },
  {
    "name": "Millat Ground",
    "category": "leisure",
    "subcategory": "playground",
    "latitude": 24.8846084,
    "longitude": 67.185795,
    "id": 4764683469
  },
  {
    "name": "Al-Jauhar Grammar School",
    "category": "amenity",
    "subcategory": "school",
    "latitude": 24.8847636,
    "longitude": 67.1874442,
    "id": 4764688489
  },
  {
    "name": "Jamia Masjid Tooba",
    "category": "amenity",
    "subcategory": "place_of_worship",
    "latitude": 24.8839418,
    "longitude": 67.189047,
    "id": 4764688490
  },
  {
    "name": "Asif School",
    "category": "amenity",
    "subcategory": "school",
    "latitude": 24.8837881,
    "longitude": 67.1831972,
    "id": 4764713070
  },
  {
    "name": "بینک الفلاح",
    "category": "amenity",
    "subcategory": "atm",
    "latitude": 24.8835527,
    "longitude": 67.1835768,
    "id": 4764713071
  },
  {
    "name": "Meo Foods",
    "category": "amenity",
    "subcategory": "fast_food",
    "latitude": 24.8830916,
    "longitude": 67.1829138,
    "id": 4764713072
  },
  {
    "name": "Zong Franchise - China Communication",
    "category": "shop",
    "subcategory": "mobile_phone",
    "latitude": 24.8832262,
    "longitude": 67.1830561,
    "id": 4764713073
  },
  {
    "name": "Darakshan Eid Gah",
    "category": "amenity",
    "subcategory": "place_of_worship",
    "latitude": 24.8842056,
    "longitude": 67.1807614,
    "id": 4764713074
  },
  {
    "name": "Darakshan Bakers",
    "category": "shop",
    "subcategory": "bakery",
    "latitude": 24.8830699,
    "longitude": 67.1828069,
    "id": 4764777121
  },
  {
    "name": "Jama Masjid Mustafa",
    "category": "amenity",
    "subcategory": "place_of_worship",
    "latitude": 24.8896576,
    "longitude": 67.1870712,
    "id": 4764777122
  },
  {
    "name": "Shadman Marriage Hall",
    "category": "amenity",
    "subcategory": "community_centre",
    "latitude": 24.8887141,
    "longitude": 67.1866847,
    "id": 4764777123
  },
  {
    "name": "Jama Masjid Qadria,Malir",
    "category": "amenity",
    "subcategory": "place_of_worship",
    "latitude": 24.8916322,
    "longitude": 67.1893809,
    "id": 4764777125
  },
  {
    "name": "Mehfooz Sheermal",
    "category": "amenity",
    "subcategory": "restaurant",
    "latitude": 24.9005463,
    "longitude": 67.2011803,
    "id": 4764777126
  },
  {
    "name": "Good Luck Chappali Kabab",
    "category": "amenity",
    "subcategory": "restaurant",
    "latitude": 24.9003398,
    "longitude": 67.2012189,
    "id": 4764777127
  },
  {
    "name": "Al-Basit Restaurant",
    "category": "amenity",
    "subcategory": "restaurant",
    "latitude": 24.9001333,
    "longitude": 67.2012637,
    "id": 4764777128
  },
  {
    "name": "Rabban Dada Nehari",
    "category": "amenity",
    "subcategory": "restaurant",
    "latitude": 24.9001646,
    "longitude": 67.2014466,
    "id": 4764777129
  },
  {
    "name": "Darul Uloom Qadria Razvia",
    "category": "amenity",
    "subcategory": "place_of_worship",
    "latitude": 24.9006034,
    "longitude": 67.2014141,
    "id": 4764777130
  },
  {
    "name": "Govt College for Women",
    "category": "amenity",
    "subcategory": "college",
    "latitude": 24.8997977,
    "longitude": 67.20017,
    "id": 4764777132
  },
  {
    "name": "Baeza Masjid",
    "category": "amenity",
    "subcategory": "place_of_worship",
    "latitude": 24.8984333,
    "longitude": 67.1994841,
    "id": 4764777133
  },
  {
    "name": "Indus Salt",
    "category": "shop",
    "subcategory": "yes",
    "latitude": 24.8977548,
    "longitude": 67.1984838,
    "id": 4764777134
  },
  {
    "name": "Masjid Quba",
    "category": "amenity",
    "subcategory": "place_of_worship",
    "latitude": 24.8954391,
    "longitude": 67.1990318,
    "id": 4764777136
  },
  {
    "name": "Farooqi Masjid",
    "category": "amenity",
    "subcategory": "place_of_worship",
    "latitude": 24.8938254,
    "longitude": 67.1979601,
    "id": 4764777138
  },
  {
    "name": "Imam Clinic",
    "category": "amenity",
    "subcategory": "clinic",
    "latitude": 24.8963845,
    "longitude": 67.1977141,
    "id": 4764777139
  },
  {
    "name": "Noorani",
    "category": "amenity",
    "subcategory": "place_of_worship",
    "latitude": 24.8961935,
    "longitude": 67.1974239,
    "id": 4764777140
  },
  {
    "name": "Khursheed Begum Hall",
    "category": "amenity",
    "subcategory": "community_centre",
    "latitude": 24.8947917,
    "longitude": 67.1959859,
    "id": 4764777141
  },
  {
    "name": "میزان بینک",
    "category": "amenity",
    "subcategory": "bank",
    "latitude": 24.8941796,
    "longitude": 67.1954302,
    "id": 4764777142
  },
  {
    "name": "Ain-Dental Clinic",
    "category": "amenity",
    "subcategory": "clinic",
    "latitude": 24.8939403,
    "longitude": 67.1957944,
    "id": 4764777143
  },
  {
    "name": "Dulha Corner Boutique",
    "category": "shop",
    "subcategory": "yes",
    "latitude": 24.8930065,
    "longitude": 67.1950345,
    "id": 4764777144
  },
  {
    "name": "Rahat Garments",
    "category": "shop",
    "subcategory": "yes",
    "latitude": 24.8931233,
    "longitude": 67.1950426,
    "id": 4764777145
  },
  {
    "name": "Madni Communication",
    "category": "shop",
    "subcategory": "yes",
    "latitude": 24.8934603,
    "longitude": 67.1949493,
    "id": 4764777146
  },
  {
    "name": "Habib Metropolitan Bank Malir city branch",
    "category": "amenity",
    "subcategory": "bank",
    "latitude": 24.8926088,
    "longitude": 67.1954324,
    "id": 4764777147
  },
  {
    "name": "Masood Alam's Shopping Center",
    "category": "shop",
    "subcategory": "yes",
    "latitude": 24.892371,
    "longitude": 67.1957535,
    "id": 4764777148
  },
  {
    "name": "Ghausia Masjid",
    "category": "amenity",
    "subcategory": "place_of_worship",
    "latitude": 24.8922172,
    "longitude": 67.1987303,
    "id": 4764777149
  },
  {
    "name": "ایچ بی ایل پاکستان",
    "category": "amenity",
    "subcategory": "bank",
    "latitude": 24.895599,
    "longitude": 67.1962772,
    "id": 4764777150
  },
  {
    "name": "Saudia Football Ground",
    "category": "leisure",
    "subcategory": "playground",
    "latitude": 24.8970946,
    "longitude": 67.1951255,
    "id": 4764777151
  },
  {
    "name": "Usama Autos",
    "category": "shop",
    "subcategory": "yes",
    "latitude": 24.8971411,
    "longitude": 67.1947923,
    "id": 4764777152
  },
  {
    "name": "یونائیٹڈ بینک لمیٹڈ",
    "category": "amenity",
    "subcategory": "bank",
    "latitude": 24.8978981,
    "longitude": 67.1938231,
    "id": 4764777153
  },
  {
    "name": "Pizza Max Malir Colony Branch",
    "category": "amenity",
    "subcategory": "fast_food",
    "latitude": 24.8990097,
    "longitude": 67.1947665,
    "id": 4764777154
  },
  {
    "name": "Masjid O Imam Bargah Hussaini Sifarat Khana.",
    "category": "amenity",
    "subcategory": "place_of_worship",
    "latitude": 24.899791,
    "longitude": 67.1957162,
    "id": 4764777155
  },
  {
    "name": "سونیری بینک",
    "category": "amenity",
    "subcategory": "atm",
    "latitude": 24.8994289,
    "longitude": 67.1951017,
    "id": 4764777156
  },
  {
    "name": "Servis Shoes",
    "category": "shop",
    "subcategory": "yes",
    "latitude": 24.899688,
    "longitude": 67.1950802,
    "id": 4764777157
  },
  {
    "name": "Bata Shoes",
    "category": "shop",
    "subcategory": "yes",
    "latitude": 24.899587,
    "longitude": 67.1949783,
    "id": 4764777159
  },
  {
    "name": "Pizza Max - Malir",
    "category": "amenity",
    "subcategory": "fast_food",
    "latitude": 24.8994184,
    "longitude": 67.1948237,
    "id": 4764777160
  },
  {
    "name": "BankIslami",
    "category": "amenity",
    "subcategory": "bank",
    "latitude": 24.8993414,
    "longitude": 67.1947654,
    "id": 4764777161
  },
  {
    "name": "Taha Medicos",
    "category": "amenity",
    "subcategory": "pharmacy",
    "latitude": 24.9010224,
    "longitude": 67.1961776,
    "id": 4764777163
  },
  {
    "name": "Rehman Bakery",
    "category": "amenity",
    "subcategory": "restaurant",
    "latitude": 24.9012642,
    "longitude": 67.1963825,
    "id": 4764777164
  },
  {
    "name": "Time Biryani & Foods",
    "category": "amenity",
    "subcategory": "restaurant",
    "latitude": 24.9014738,
    "longitude": 67.1965397,
    "id": 4764777165
  },
  {
    "name": "Desert Eagle",
    "category": "shop",
    "subcategory": "yes",
    "latitude": 24.8879281,
    "longitude": 67.1860697,
    "id": 4767455627
  },
  {
    "name": "Jamia Masjid Hussaini and Imambargah Darbar-e-Hussaini",
    "category": "amenity",
    "subcategory": "place_of_worship",
    "latitude": 24.8882881,
    "longitude": 67.1857638,
    "id": 4767455628
  },
  {
    "name": "Liaquat Government College for Girls",
    "category": "amenity",
    "subcategory": "college",
    "latitude": 24.8924673,
    "longitude": 67.1888766,
    "id": 4767455629
  },
  {
    "name": "Moti Masjid",
    "category": "amenity",
    "subcategory": "place_of_worship",
    "latitude": 24.8933547,
    "longitude": 67.1890587,
    "id": 4767455630
  },
  {
    "name": "Syed Muhammad Aslam Four Ceiling POP",
    "category": "shop",
    "subcategory": "yes",
    "latitude": 24.8931045,
    "longitude": 67.1895551,
    "id": 4767455631
  },
  {
    "name": "Tawaqqal Mobile Market",
    "category": "amenity",
    "subcategory": "marketplace",
    "latitude": 24.8960896,
    "longitude": 67.1920579,
    "id": 4767455632
  },
  {
    "name": "Mr Burger In Roll",
    "category": "amenity",
    "subcategory": "food_court",
    "latitude": 24.8963467,
    "longitude": 67.1925201,
    "id": 4767455633
  },
  {
    "name": "Jamia Rasheedia",
    "category": "amenity",
    "subcategory": "place_of_worship",
    "latitude": 24.8970237,
    "longitude": 67.193535,
    "id": 4767455636
  },
  {
    "name": "Pizza Max Malir Colony Branch",
    "category": "amenity",
    "subcategory": "food_court",
    "latitude": 24.8991328,
    "longitude": 67.1946009,
    "id": 4767455637
  },
  {
    "name": "New King Broast",
    "category": "amenity",
    "subcategory": "food_court",
    "latitude": 24.9005323,
    "longitude": 67.1941031,
    "id": 4767455638
  },
  {
    "name": "Student Bakery",
    "category": "amenity",
    "subcategory": "food_court",
    "latitude": 24.9020276,
    "longitude": 67.1970328,
    "id": 4767455640
  },
  {
    "name": "Pakistan Health Care Trust Hospital",
    "category": "amenity",
    "subcategory": "hospital",
    "latitude": 24.9024554,
    "longitude": 67.1976322,
    "id": 4767455641
  },
  {
    "name": "Peral Food Center",
    "category": "amenity",
    "subcategory": "food_court",
    "latitude": 24.902453,
    "longitude": 67.1977623,
    "id": 4767455642
  },
  {
    "name": "The Pizza Korner",
    "category": "amenity",
    "subcategory": "food_court",
    "latitude": 24.9023119,
    "longitude": 67.1974793,
    "id": 4767455643
  },
  {
    "name": "Farooqi Masjid DarulUloom",
    "category": "amenity",
    "subcategory": "place_of_worship",
    "latitude": 24.9031231,
    "longitude": 67.1993859,
    "id": 4767455644
  },
  {
    "name": "Aqua Lena Water Filling Station",
    "category": "shop",
    "subcategory": "yes",
    "latitude": 24.9029966,
    "longitude": 67.1996756,
    "id": 4767455645
  },
  {
    "name": "F J Grammar School",
    "category": "amenity",
    "subcategory": "school",
    "latitude": 24.9047766,
    "longitude": 67.2023107,
    "id": 4767455646
  },
  {
    "name": "Kausar Mosque",
    "category": "amenity",
    "subcategory": "place_of_worship",
    "latitude": 24.9046699,
    "longitude": 67.2038006,
    "id": 4767455647
  },
  {
    "name": "Jama Masjid ALMUSTAFA",
    "category": "amenity",
    "subcategory": "place_of_worship",
    "latitude": 24.9078314,
    "longitude": 67.2069271,
    "id": 4767455648
  },
  {
    "name": "Gilanabad Mosque",
    "category": "amenity",
    "subcategory": "place_of_worship",
    "latitude": 24.90915,
    "longitude": 67.2100321,
    "id": 4767455649
  },
  {
    "name": "Ali Bhai General Store",
    "category": "shop",
    "subcategory": "yes",
    "latitude": 24.9090235,
    "longitude": 67.2098014,
    "id": 4767455650
  },
  {
    "name": "Tauheed Masjid , malir khokhrapar",
    "category": "amenity",
    "subcategory": "place_of_worship",
    "latitude": 24.9083662,
    "longitude": 67.2110892,
    "id": 4767455651
  },
  {
    "name": "Masjid ul Muslimeen, Markaz Jamaat-ul-Muslimeen",
    "category": "amenity",
    "subcategory": "place_of_worship",
    "latitude": 24.9086594,
    "longitude": 67.2119653,
    "id": 4767455652
  },
  {
    "name": "ایچ بی ایل پاکستان",
    "category": "amenity",
    "subcategory": "bank",
    "latitude": 24.9020643,
    "longitude": 67.200722,
    "id": 4767455653
  },
  {
    "name": "Sindh Heart Hospital",
    "category": "amenity",
    "subcategory": "hospital",
    "latitude": 24.9013601,
    "longitude": 67.2010517,
    "id": 4767455654
  },
  {
    "name": "4way Pizza",
    "category": "amenity",
    "subcategory": "food_court",
    "latitude": 24.901075,
    "longitude": 67.2014245,
    "id": 4767455655
  },
  {
    "name": "The Diner's Cafe",
    "category": "amenity",
    "subcategory": "food_court",
    "latitude": 24.9013845,
    "longitude": 67.2026309,
    "id": 4767455656
  },
  {
    "name": "Golden Luf Bakery",
    "category": "shop",
    "subcategory": "bakery",
    "latitude": 24.9016111,
    "longitude": 67.2009311,
    "id": 4767455657
  },
  {
    "name": "Babul Islam Masjid",
    "category": "amenity",
    "subcategory": "place_of_worship",
    "latitude": 24.9014163,
    "longitude": 67.2004687,
    "id": 4767455658
  },
  {
    "name": "پاکستان اسٹیٹ آئل",
    "category": "amenity",
    "subcategory": "fuel",
    "latitude": 24.9019034,
    "longitude": 67.2026847,
    "id": 4767455659
  },
  {
    "name": "Meezan Bank - Indus Mehran Branch",
    "category": "amenity",
    "subcategory": "bank",
    "latitude": 24.901717,
    "longitude": 67.2024348,
    "id": 4767455660
  },
  {
    "name": "Green Land High Secondary School",
    "category": "amenity",
    "subcategory": "school",
    "latitude": 24.9020961,
    "longitude": 67.2030606,
    "id": 4767455661
  },
  {
    "name": "Al Habib Masjid",
    "category": "amenity",
    "subcategory": "place_of_worship",
    "latitude": 24.9025176,
    "longitude": 67.2037074,
    "id": 4767455662
  },
  {
    "name": "Madni Masjid Indus Mehran",
    "category": "amenity",
    "subcategory": "place_of_worship",
    "latitude": 24.9030923,
    "longitude": 67.2017,
    "id": 4767455663
  },
  {
    "name": "Auto Parts Centre",
    "category": "shop",
    "subcategory": "yes",
    "latitude": 24.9021624,
    "longitude": 67.2039754,
    "id": 4767455664
  },
  {
    "name": "Muhammadi School",
    "category": "amenity",
    "subcategory": "school",
    "latitude": 24.9034843,
    "longitude": 67.2045947,
    "id": 4767455665
  },
  {
    "name": "Rashid Medical & General Store",
    "category": "amenity",
    "subcategory": "pharmacy",
    "latitude": 24.9035793,
    "longitude": 67.205479,
    "id": 4767455666
  },
  {
    "name": "Kausar Bakery",
    "category": "shop",
    "subcategory": "bakery",
    "latitude": 24.9037573,
    "longitude": 67.2058409,
    "id": 4767455667
  },
  {
    "name": "Jama Masjid Tawheed",
    "category": "amenity",
    "subcategory": "place_of_worship",
    "latitude": 24.9044625,
    "longitude": 67.2071064,
    "id": 4767455668
  },
  {
    "name": "Car Wash",
    "category": "amenity",
    "subcategory": "car_wash",
    "latitude": 24.9043143,
    "longitude": 67.2066207,
    "id": 4767455669
  },
  {
    "name": "Allah Wali Masjid",
    "category": "amenity",
    "subcategory": "place_of_worship",
    "latitude": 24.9056612,
    "longitude": 67.208839,
    "id": 4767455671
  },
  {
    "name": "Al-Amin Medical & Gen Store",
    "category": "amenity",
    "subcategory": "pharmacy",
    "latitude": 24.9051615,
    "longitude": 67.2087426,
    "id": 4767455672
  },
  {
    "name": "Shafaq Public School",
    "category": "amenity",
    "subcategory": "school",
    "latitude": 24.9066321,
    "longitude": 67.2110426,
    "id": 4767455673
  },
  {
    "name": "Masjid e Toheed, Khokarapar 2 1/2",
    "category": "amenity",
    "subcategory": "place_of_worship",
    "latitude": 24.907578,
    "longitude": 67.2116748,
    "id": 4767455674
  },
  {
    "name": "Royal Crown Garden",
    "category": "tourism",
    "subcategory": "hotel",
    "latitude": 24.907203,
    "longitude": 67.2122609,
    "id": 4767455675
  },
  {
    "name": "Madina Masjid",
    "category": "amenity",
    "subcategory": "place_of_worship",
    "latitude": 24.9089295,
    "longitude": 67.2162945,
    "id": 4767455676
  },
  {
    "name": "Bachoo Bakery",
    "category": "shop",
    "subcategory": "bakery",
    "latitude": 24.9083485,
    "longitude": 67.2182411,
    "id": 4767455677
  },
  {
    "name": "B-Area Market",
    "category": "shop",
    "subcategory": "supermarket",
    "latitude": 24.9071931,
    "longitude": 67.2169137,
    "id": 4767455678
  },
  {
    "name": "Jamia Masjid-e-Rabbani",
    "category": "amenity",
    "subcategory": "place_of_worship",
    "latitude": 24.9067759,
    "longitude": 67.217857,
    "id": 4767455679
  },
  {
    "name": "Jamia Masjid Ghosia",
    "category": "amenity",
    "subcategory": "place_of_worship",
    "latitude": 24.9071535,
    "longitude": 67.2218305,
    "id": 4767455682
  },
  {
    "name": "Govt. Ayesha Boys Lower Secondary School",
    "category": "amenity",
    "subcategory": "college",
    "latitude": 24.9062073,
    "longitude": 67.222799,
    "id": 4767455683
  },
  {
    "name": "Taxi Stand",
    "category": "amenity",
    "subcategory": "taxi",
    "latitude": 24.910211,
    "longitude": 67.2245096,
    "id": 4767455684
  },
  {
    "name": "Nadi Kinara Masjid",
    "category": "amenity",
    "subcategory": "place_of_worship",
    "latitude": 24.9105481,
    "longitude": 67.2243149,
    "id": 4767455686
  },
  {
    "name": "Imam Bargh Bait-ul-Azha",
    "category": "amenity",
    "subcategory": "place_of_worship",
    "latitude": 24.9057541,
    "longitude": 67.2177077,
    "id": 4767455687
  },
  {
    "name": "Jamia Masjid Ameer Hamza",
    "category": "amenity",
    "subcategory": "place_of_worship",
    "latitude": 24.9051767,
    "longitude": 67.2158244,
    "id": 4767455688
  },
  {
    "name": "Muhammadi Masjid",
    "category": "amenity",
    "subcategory": "place_of_worship",
    "latitude": 24.9045739,
    "longitude": 67.2161747,
    "id": 4767455689
  },
  {
    "name": "Jama Masjid Wazir Begham",
    "category": "amenity",
    "subcategory": "place_of_worship",
    "latitude": 24.9016795,
    "longitude": 67.2194064,
    "id": 4767455691
  },
  {
    "name": "Government Saudabad Hospital",
    "category": "amenity",
    "subcategory": "hospital",
    "latitude": 24.9030267,
    "longitude": 67.2112591,
    "id": 4767455692
  },
  {
    "name": "Khokrapar No.2 Govt Hospital",
    "category": "amenity",
    "subcategory": "hospital",
    "latitude": 24.903444,
    "longitude": 67.2113618,
    "id": 4767455693
  },
  {
    "name": "Masjid O Imam Bargah Hydri mission",
    "category": "amenity",
    "subcategory": "place_of_worship",
    "latitude": 24.902823,
    "longitude": 67.2090799,
    "id": 4767455695
  },
  {
    "name": "madina mosque",
    "category": "amenity",
    "subcategory": "place_of_worship",
    "latitude": 24.9016027,
    "longitude": 67.2096254,
    "id": 4767455696
  },
  {
    "name": "Jama Masjid Qadimia",
    "category": "amenity",
    "subcategory": "place_of_worship",
    "latitude": 24.8969294,
    "longitude": 67.2161467,
    "id": 4767455699
  },
  {
    "name": "Jokhia Park",
    "category": "leisure",
    "subcategory": "park",
    "latitude": 24.8981581,
    "longitude": 67.2152863,
    "id": 4767455700
  },
  {
    "name": "Alleviate Addiction Suffering Trust",
    "category": "amenity",
    "subcategory": "hospital",
    "latitude": 24.898021,
    "longitude": 67.2144589,
    "id": 4767455701
  },
  {
    "name": "Mustafa Masjid",
    "category": "amenity",
    "subcategory": "place_of_worship",
    "latitude": 24.8981076,
    "longitude": 67.2141215,
    "id": 4767455702
  },
  {
    "name": "Firdous Mosque",
    "category": "amenity",
    "subcategory": "place_of_worship",
    "latitude": 24.8989403,
    "longitude": 67.2119555,
    "id": 4767455703
  },
  {
    "name": "Al Shams Hotel",
    "category": "tourism",
    "subcategory": "hotel",
    "latitude": 24.8992,
    "longitude": 67.2106871,
    "id": 4767455704
  },
  {
    "name": "Shoaib Medical Store",
    "category": "amenity",
    "subcategory": "pharmacy",
    "latitude": 24.8996501,
    "longitude": 67.2097886,
    "id": 4767455705
  },
  {
    "name": "Nadeem Hotel",
    "category": "tourism",
    "subcategory": "hotel",
    "latitude": 24.9000892,
    "longitude": 67.2093696,
    "id": 4767455706
  },
  {
    "name": "Post Office Malir Extension Colony",
    "category": "amenity",
    "subcategory": "post_office",
    "latitude": 24.9003476,
    "longitude": 67.2094209,
    "id": 4767455707
  },
  {
    "name": "Aqsa mosque",
    "category": "amenity",
    "subcategory": "place_of_worship",
    "latitude": 24.9006282,
    "longitude": 67.2070012,
    "id": 4767455708
  },
  {
    "name": "Govt Degree Science & Commerce College Evening",
    "category": "amenity",
    "subcategory": "college",
    "latitude": 24.8987911,
    "longitude": 67.2057727,
    "id": 4767455709
  },
  {
    "name": "Govt Girls Secondary School",
    "category": "amenity",
    "subcategory": "school",
    "latitude": 24.8981188,
    "longitude": 67.201599,
    "id": 4767455710
  },
  {
    "name": "Jamia Masjid Betul Mukarram",
    "category": "amenity",
    "subcategory": "place_of_worship",
    "latitude": 24.8990337,
    "longitude": 67.2033014,
    "id": 4767455712
  },
  {
    "name": "Masjid Ali Bin Abee Talib",
    "category": "amenity",
    "subcategory": "place_of_worship",
    "latitude": 24.8963501,
    "longitude": 67.2013698,
    "id": 4767455713
  },
  {
    "name": "Government Boys Secondary School",
    "category": "amenity",
    "subcategory": "school",
    "latitude": 24.8943429,
    "longitude": 67.2022861,
    "id": 4767455714
  },
  {
    "name": "Shadiana Shadi Lawn",
    "category": "amenity",
    "subcategory": "community_centre",
    "latitude": 24.8933721,
    "longitude": 67.200422,
    "id": 4767455715
  },
  {
    "name": "مسجد بلال",
    "category": "amenity",
    "subcategory": "place_of_worship",
    "latitude": 24.8926861,
    "longitude": 67.2023464,
    "id": 4767455716
  },
  {
    "name": "St. Joseph's Church",
    "category": "amenity",
    "subcategory": "place_of_worship",
    "latitude": 24.893069,
    "longitude": 67.2041088,
    "id": 4767455717
  },
  {
    "name": "Madni General Store",
    "category": "amenity",
    "subcategory": "pharmacy",
    "latitude": 24.8924439,
    "longitude": 67.2021934,
    "id": 4767455718
  },
  {
    "name": "Tanveer Sweets and Bakers",
    "category": "shop",
    "subcategory": "bakery",
    "latitude": 24.8967018,
    "longitude": 67.2087052,
    "id": 4767542668
  },
  {
    "name": "Jama Masjid Madina",
    "category": "amenity",
    "subcategory": "place_of_worship",
    "latitude": 24.8955834,
    "longitude": 67.2098962,
    "id": 4767542670
  },
  {
    "name": "NOORANI MASJID",
    "category": "amenity",
    "subcategory": "place_of_worship",
    "latitude": 24.8934646,
    "longitude": 67.2086298,
    "id": 4767542671
  },
  {
    "name": "Bismilah Cafe Khokhrapar Dak Khana Malir",
    "category": "amenity",
    "subcategory": "cafe",
    "latitude": 24.899855,
    "longitude": 67.2096814,
    "id": 4767542672
  },
  {
    "name": "Liaquat Market",
    "category": "shop",
    "subcategory": "supermarket",
    "latitude": 24.8931455,
    "longitude": 67.194631,
    "id": 4767542673
  },
  {
    "name": "Tayyaba Masjid",
    "category": "amenity",
    "subcategory": "place_of_worship",
    "latitude": 24.891637,
    "longitude": 67.195449,
    "id": 4767542674
  },
  {
    "name": "Shaheen Medical Store",
    "category": "amenity",
    "subcategory": "pharmacy",
    "latitude": 24.8913747,
    "longitude": 67.1969767,
    "id": 4767542675
  },
  {
    "name": "Shahid Clinic",
    "category": "amenity",
    "subcategory": "clinic",
    "latitude": 24.8911723,
    "longitude": 67.1974888,
    "id": 4767542676
  },
  {
    "name": "Mr.Broast",
    "category": "amenity",
    "subcategory": "food_court",
    "latitude": 24.8907614,
    "longitude": 67.1977316,
    "id": 4767542677
  },
  {
    "name": "Royal BBQ",
    "category": "amenity",
    "subcategory": "food_court",
    "latitude": 24.8907847,
    "longitude": 67.1979978,
    "id": 4767542678
  },
  {
    "name": "Zam Zam Traders",
    "category": "shop",
    "subcategory": "yes",
    "latitude": 24.8912253,
    "longitude": 67.1973884,
    "id": 4767542679
  },
  {
    "name": "Jamia Masjid Faizan-e-Zamzam",
    "category": "amenity",
    "subcategory": "place_of_worship",
    "latitude": 24.8901452,
    "longitude": 67.1988682,
    "id": 4767542680
  },
  {
    "name": "Nafees Cinema",
    "category": "shop",
    "subcategory": "yes",
    "latitude": 24.8898446,
    "longitude": 67.1988458,
    "id": 4767542681
  },
  {
    "name": "Al Madina Chicken Centre",
    "category": "shop",
    "subcategory": "yes",
    "latitude": 24.8900935,
    "longitude": 67.1996255,
    "id": 4767542682
  },
  {
    "name": "Hanfia Masjid and Madrasah",
    "category": "amenity",
    "subcategory": "place_of_worship",
    "latitude": 24.8913644,
    "longitude": 67.2004708,
    "id": 4767542683
  },
  {
    "name": "Hasan general store",
    "category": "shop",
    "subcategory": "yes",
    "latitude": 24.8920104,
    "longitude": 67.199364,
    "id": 4767542684
  },
  {
    "name": "Irfan Hair Stylist",
    "category": "shop",
    "subcategory": "yes",
    "latitude": 24.8899578,
    "longitude": 67.2012571,
    "id": 4767542685
  },
  {
    "name": "Imambargah Salman Farsi",
    "category": "amenity",
    "subcategory": "place_of_worship",
    "latitude": 24.8886527,
    "longitude": 67.2006816,
    "id": 4767542686
  },
  {
    "name": "Masjid Hazrat Khadeeja Tul Kubra",
    "category": "amenity",
    "subcategory": "place_of_worship",
    "latitude": 24.8884978,
    "longitude": 67.2009174,
    "id": 4767542687
  },
  {
    "name": "Shahbana Cenima",
    "category": "amenity",
    "subcategory": "cinema",
    "latitude": 24.8874426,
    "longitude": 67.2012914,
    "id": 4767542689
  },
  {
    "name": "Masjid Batha",
    "category": "amenity",
    "subcategory": "place_of_worship",
    "latitude": 24.8897428,
    "longitude": 67.2054111,
    "id": 4767542690
  },
  {
    "name": "Pak Aman Grammar School",
    "category": "amenity",
    "subcategory": "school",
    "latitude": 24.8898205,
    "longitude": 67.2035237,
    "id": 4767542691
  },
  {
    "name": "Sir Syed Model School",
    "category": "amenity",
    "subcategory": "school",
    "latitude": 24.8911762,
    "longitude": 67.2047253,
    "id": 4767542692
  },
  {
    "name": "Masjid Rahmatul-lil-Alameen",
    "category": "amenity",
    "subcategory": "place_of_worship",
    "latitude": 24.8892672,
    "longitude": 67.2075379,
    "id": 4767542693
  },
  {
    "name": "Ali Bin Abe-Talib Mosque",
    "category": "amenity",
    "subcategory": "place_of_worship",
    "latitude": 24.8836578,
    "longitude": 67.2045311,
    "id": 4767542694
  },
  {
    "name": "Masjid O Imambargah Babul Hawaij",
    "category": "amenity",
    "subcategory": "place_of_worship",
    "latitude": 24.8844367,
    "longitude": 67.2017368,
    "id": 4767542695
  },
  {
    "name": "Dargah Qazi Syed Turab Ali Nizami",
    "category": "amenity",
    "subcategory": "place_of_worship",
    "latitude": 24.8840694,
    "longitude": 67.2020347,
    "id": 4767542696
  },
  {
    "name": "Noor Mosque Ghazi Town",
    "category": "amenity",
    "subcategory": "place_of_worship",
    "latitude": 24.8819342,
    "longitude": 67.2048824,
    "id": 4767542697
  },
  {
    "name": "Jokhya Cattle Market",
    "category": "shop",
    "subcategory": "butcher",
    "latitude": 24.8795479,
    "longitude": 67.2017235,
    "id": 4767542698
  },
  {
    "name": "Library of Ghazi Town",
    "category": "leisure",
    "subcategory": "park",
    "latitude": 24.8801141,
    "longitude": 67.2015497,
    "id": 4767542699
  },
  {
    "name": "Naveed General Store",
    "category": "shop",
    "subcategory": "yes",
    "latitude": 24.8811458,
    "longitude": 67.202931,
    "id": 4767542701
  },
  {
    "name": "Rasheed Baloch Pakoda Wala",
    "category": "amenity",
    "subcategory": "fast_food",
    "latitude": 24.8806616,
    "longitude": 67.2036257,
    "id": 4767542702
  },
  {
    "name": "Malir Filling Station",
    "category": "amenity",
    "subcategory": "fuel",
    "latitude": 24.8786651,
    "longitude": 67.2025191,
    "id": 4767542704
  },
  {
    "name": "Jamia Mosque Fatima",
    "category": "amenity",
    "subcategory": "place_of_worship",
    "latitude": 24.8809291,
    "longitude": 67.201527,
    "id": 4767542705
  },
  {
    "name": "Malir Mandi (Cattle Market)",
    "category": "shop",
    "subcategory": "butcher",
    "latitude": 24.8793108,
    "longitude": 67.1987233,
    "id": 4767542706
  },
  {
    "name": "Allah Madad Restaurant",
    "category": "amenity",
    "subcategory": "food_court",
    "latitude": 24.8789998,
    "longitude": 67.1982809,
    "id": 4767542708
  },
  {
    "name": "Jamay Masjid Noorani",
    "category": "amenity",
    "subcategory": "place_of_worship",
    "latitude": 24.8786025,
    "longitude": 67.1980201,
    "id": 4767542709
  },
  {
    "name": "Jamay Masjid-e-Tayabba",
    "category": "amenity",
    "subcategory": "place_of_worship",
    "latitude": 24.8790536,
    "longitude": 67.1958911,
    "id": 4767542710
  },
  {
    "name": "Haji Baba Hair Saloon",
    "category": "shop",
    "subcategory": "yes",
    "latitude": 24.8791976,
    "longitude": 67.1956973,
    "id": 4767542711
  },
  {
    "name": "J.T Marriage Lawn",
    "category": "amenity",
    "subcategory": "community_centre",
    "latitude": 24.883679,
    "longitude": 67.1952593,
    "id": 4767542712
  },
  {
    "name": "Hasnain Mosque",
    "category": "amenity",
    "subcategory": "place_of_worship",
    "latitude": 24.8832691,
    "longitude": 67.1960843,
    "id": 4767542713
  },
  {
    "name": "Qamar Bani Hashim School",
    "category": "amenity",
    "subcategory": "school",
    "latitude": 24.8836049,
    "longitude": 67.1959019,
    "id": 4767542714
  },
  {
    "name": "Jaffer Tayyar Public School",
    "category": "amenity",
    "subcategory": "school",
    "latitude": 24.8824865,
    "longitude": 67.1969211,
    "id": 4767542716
  },
  {
    "name": "Zain Fast Food",
    "category": "amenity",
    "subcategory": "fast_food",
    "latitude": 24.8829949,
    "longitude": 67.1971639,
    "id": 4767542717
  },
  {
    "name": "Markazi Imambargah Jaffer e Tayyar Society",
    "category": "amenity",
    "subcategory": "place_of_worship",
    "latitude": 24.8841642,
    "longitude": 67.1996064,
    "id": 4767542718
  },
  {
    "name": "Khumeni ( Al Shifa ) Hospital",
    "category": "amenity",
    "subcategory": "pharmacy",
    "latitude": 24.8862582,
    "longitude": 67.1949421,
    "id": 4767596786
  },
  {
    "name": "Jama Masjid Muhammadi",
    "category": "amenity",
    "subcategory": "place_of_worship",
    "latitude": 24.8874766,
    "longitude": 67.1976759,
    "id": 4767596787
  },
  {
    "name": "Naseer Medical",
    "category": "amenity",
    "subcategory": "pharmacy",
    "latitude": 24.8833014,
    "longitude": 67.1925336,
    "id": 4767596788
  },
  {
    "name": "Faizy Garden",
    "category": "leisure",
    "subcategory": "garden",
    "latitude": 24.8828188,
    "longitude": 67.191455,
    "id": 4767596789
  },
  {
    "name": "Zareen Medical",
    "category": "amenity",
    "subcategory": "pharmacy",
    "latitude": 24.8827283,
    "longitude": 67.1918948,
    "id": 4767596790
  },
  {
    "name": "Masjid Aqsa",
    "category": "amenity",
    "subcategory": "place_of_worship",
    "latitude": 24.8824517,
    "longitude": 67.1920533,
    "id": 4767596791
  },
  {
    "name": "Hanfia Masjid",
    "category": "amenity",
    "subcategory": "place_of_worship",
    "latitude": 24.8823909,
    "longitude": 67.192531,
    "id": 4767596792
  },
  {
    "name": "Rashid Clinic",
    "category": "amenity",
    "subcategory": "clinic",
    "latitude": 24.8817731,
    "longitude": 67.1932669,
    "id": 4767596793
  },
  {
    "name": "Lal Masjid",
    "category": "amenity",
    "subcategory": "place_of_worship",
    "latitude": 24.8942379,
    "longitude": 67.1909198,
    "id": 4767596794
  },
  {
    "name": "Jamia Masjid Qadria",
    "category": "amenity",
    "subcategory": "place_of_worship",
    "latitude": 24.8828548,
    "longitude": 67.1900505,
    "id": 4767596795
  },
  {
    "name": "GOSIA Bakery & NIMCO",
    "category": "shop",
    "subcategory": "bakery",
    "latitude": 24.8825963,
    "longitude": 67.1884899,
    "id": 4767596796
  },
  {
    "name": "Ajmere Foods",
    "category": "amenity",
    "subcategory": "fast_food",
    "latitude": 24.8827385,
    "longitude": 67.1866082,
    "id": 4767596797
  },
  {
    "name": "Jamia Masjid Ghausia",
    "category": "amenity",
    "subcategory": "place_of_worship",
    "latitude": 24.8828299,
    "longitude": 67.1863358,
    "id": 4767596798
  },
  {
    "name": "Darakshan Society Eid Gha Mosque",
    "category": "amenity",
    "subcategory": "place_of_worship",
    "latitude": 24.8824861,
    "longitude": 67.1856549,
    "id": 4767596799
  },
  {
    "name": "National Saving Center Malir",
    "category": "amenity",
    "subcategory": "bank",
    "latitude": 24.882964,
    "longitude": 67.1830839,
    "id": 4767596800
  },
  {
    "name": "Shell Express",
    "category": "amenity",
    "subcategory": "fuel",
    "latitude": 24.9318165,
    "longitude": 67.2050773,
    "id": 4767611003
  },
  {
    "name": "بينک الحبيب",
    "category": "amenity",
    "subcategory": "bank",
    "latitude": 24.9308601,
    "longitude": 67.204918,
    "id": 4767611004
  },
  {
    "name": "جے ایس بینک",
    "category": "amenity",
    "subcategory": "bank",
    "latitude": 24.9308081,
    "longitude": 67.2049435,
    "id": 4767611005
  },
  {
    "name": "Sams Cake Factory",
    "category": "shop",
    "subcategory": "bakery",
    "latitude": 24.9309295,
    "longitude": 67.2048957,
    "id": 4767611006
  },
  {
    "name": "UBL - Malir Cantt",
    "category": "amenity",
    "subcategory": "bank",
    "latitude": 24.9311233,
    "longitude": 67.204969,
    "id": 4767611007
  },
  {
    "name": "Shell Car Wash - Malir Cantt",
    "category": "amenity",
    "subcategory": "car_wash",
    "latitude": 24.9317047,
    "longitude": 67.2051876,
    "id": 4767611008
  },
  {
    "name": "Masjid Ul Furqan",
    "category": "amenity",
    "subcategory": "place_of_worship",
    "latitude": 24.9295998,
    "longitude": 67.2066368,
    "id": 4767611009
  },
  {
    "name": "Masjid e Jaffari",
    "category": "amenity",
    "subcategory": "place_of_worship",
    "latitude": 24.9314668,
    "longitude": 67.2030261,
    "id": 4767611010
  },
  {
    "name": "Malir Cantt Masjid",
    "category": "amenity",
    "subcategory": "place_of_worship",
    "latitude": 24.9257698,
    "longitude": 67.2039563,
    "id": 4767611243
  },
  {
    "name": "Al-Ibrahim Eye Hospital",
    "category": "amenity",
    "subcategory": "hospital",
    "latitude": 24.8848673,
    "longitude": 67.2247678,
    "id": 4767647536
  },
  {
    "name": "Government Degree College Malir Cantt. Karachi",
    "category": "amenity",
    "subcategory": "college",
    "latitude": 24.9238689,
    "longitude": 67.2022581,
    "id": 4767647538
  },
  {
    "name": "Shabbir Sharif Cricket Stadium",
    "category": "leisure",
    "subcategory": "playground",
    "latitude": 24.9252656,
    "longitude": 67.2018824,
    "id": 4767647539
  },
  {
    "name": "Madina Mobile",
    "category": "shop",
    "subcategory": "yes",
    "latitude": 24.9262728,
    "longitude": 67.2038993,
    "id": 4767647541
  },
  {
    "name": "Madni General Store",
    "category": "shop",
    "subcategory": "yes",
    "latitude": 24.9262535,
    "longitude": 67.2036126,
    "id": 4767647542
  },
  {
    "name": "Cantt Bazar",
    "category": "shop",
    "subcategory": "supermarket",
    "latitude": 24.9263658,
    "longitude": 67.2036763,
    "id": 4767647543
  },
  {
    "name": "نیشنل بینک آف پاکستان",
    "category": "amenity",
    "subcategory": "bank",
    "latitude": 24.9265231,
    "longitude": 67.203556,
    "id": 4767647544
  },
  {
    "name": "New Pakistan Hotel",
    "category": "tourism",
    "subcategory": "hotel",
    "latitude": 24.9272485,
    "longitude": 67.2035701,
    "id": 4767647545
  },
  {
    "name": "Cantt Bazar Taxi Stand",
    "category": "amenity",
    "subcategory": "taxi",
    "latitude": 24.9268152,
    "longitude": 67.2035737,
    "id": 4767647547
  },
  {
    "name": "Ajmal Autos",
    "category": "shop",
    "subcategory": "yes",
    "latitude": 24.9268569,
    "longitude": 67.2043169,
    "id": 4767647548
  },
  {
    "name": "Modern Juice Center",
    "category": "amenity",
    "subcategory": "food_court",
    "latitude": 24.9273383,
    "longitude": 67.204147,
    "id": 4767647549
  },
  {
    "name": "بینک الفلاح",
    "category": "amenity",
    "subcategory": "bank",
    "latitude": 24.9275116,
    "longitude": 67.2041293,
    "id": 4767647550
  },
  {
    "name": "HBL ATM",
    "category": "amenity",
    "subcategory": "atm",
    "latitude": 24.9274101,
    "longitude": 67.2044609,
    "id": 4767647551
  },
  {
    "name": "Cantt Market",
    "category": "amenity",
    "subcategory": "marketplace",
    "latitude": 24.9275562,
    "longitude": 67.2047434,
    "id": 4767647552
  },
  {
    "name": "Asif Resturant",
    "category": "amenity",
    "subcategory": "restaurant",
    "latitude": 24.9272915,
    "longitude": 67.205117,
    "id": 4767647553
  },
  {
    "name": "بینک اسلامی",
    "category": "amenity",
    "subcategory": "bank",
    "latitude": 24.9273127,
    "longitude": 67.2047551,
    "id": 4767647554
  },
  {
    "name": "سندھ بینک",
    "category": "amenity",
    "subcategory": "bank",
    "latitude": 24.9273741,
    "longitude": 67.2052524,
    "id": 4767647555
  },
  {
    "name": "Hafiz Bakery",
    "category": "shop",
    "subcategory": "bakery",
    "latitude": 24.9272724,
    "longitude": 67.2056657,
    "id": 4767647556
  },
  {
    "name": "الائیڈ بینک لمیٹڈ",
    "category": "amenity",
    "subcategory": "bank",
    "latitude": 24.9272619,
    "longitude": 67.2060347,
    "id": 4767647557
  },
  {
    "name": "Bank Dubai Islami",
    "category": "amenity",
    "subcategory": "bank",
    "latitude": 24.9273529,
    "longitude": 67.2059599,
    "id": 4767647558
  },
  {
    "name": "Meat Shops",
    "category": "shop",
    "subcategory": "yes",
    "latitude": 24.9267515,
    "longitude": 67.2051917,
    "id": 4767647559
  },
  {
    "name": "Ladies Park",
    "category": "leisure",
    "subcategory": "park",
    "latitude": 24.9287835,
    "longitude": 67.204248,
    "id": 4767647560
  },
  {
    "name": "AlKhair Mosque",
    "category": "amenity",
    "subcategory": "place_of_worship",
    "latitude": 24.9290044,
    "longitude": 67.2085664,
    "id": 4767647561
  },
  {
    "name": "Cantt Broast",
    "category": "amenity",
    "subcategory": "fast_food",
    "latitude": 24.931018,
    "longitude": 67.2048932,
    "id": 4767647562
  },
  {
    "name": "عسکری بینک",
    "category": "amenity",
    "subcategory": "bank",
    "latitude": 24.9282632,
    "longitude": 67.2036701,
    "id": 4767654621
  },
  {
    "name": "CSD Parking",
    "category": "amenity",
    "subcategory": "parking",
    "latitude": 24.9282241,
    "longitude": 67.2030385,
    "id": 4767654622
  },
  {
    "name": "Rizwan Pakwaan",
    "category": "amenity",
    "subcategory": "food_court",
    "latitude": 24.9305635,
    "longitude": 67.2029266,
    "id": 4767689983
  },
  {
    "name": "Al Madina Restaurant",
    "category": "amenity",
    "subcategory": "restaurant",
    "latitude": 24.9306999,
    "longitude": 67.2024895,
    "id": 4767689984
  },
  {
    "name": "Dayfresh Shop",
    "category": "shop",
    "subcategory": "yes",
    "latitude": 24.9313306,
    "longitude": 67.2015959,
    "id": 4767689985
  },
  {
    "name": "Riwayat",
    "category": "amenity",
    "subcategory": "food_court",
    "latitude": 24.9315504,
    "longitude": 67.2016012,
    "id": 4767689986
  },
  {
    "name": "Riwayat Bakers Malir Cantt",
    "category": "shop",
    "subcategory": "bakery",
    "latitude": 24.9316549,
    "longitude": 67.2013909,
    "id": 4767689987
  },
  {
    "name": "La Farine Bakery",
    "category": "shop",
    "subcategory": "bakery",
    "latitude": 24.9317655,
    "longitude": 67.2013766,
    "id": 4767689988
  },
  {
    "name": "Scarico Cafe",
    "category": "amenity",
    "subcategory": "cafe",
    "latitude": 24.9316107,
    "longitude": 67.202019,
    "id": 4767689989
  },
  {
    "name": "Tipu Sultan Mosque",
    "category": "amenity",
    "subcategory": "place_of_worship",
    "latitude": 24.9290813,
    "longitude": 67.1776383,
    "id": 4773340303
  },
  {
    "name": "Bismiallah Mawa Pakwan",
    "category": "amenity",
    "subcategory": "restaurant",
    "latitude": 24.9346484,
    "longitude": 67.1753481,
    "id": 4773340304
  },
  {
    "name": "S. Kasoori Milk",
    "category": "amenity",
    "subcategory": "restaurant",
    "latitude": 24.9346442,
    "longitude": 67.175145,
    "id": 4773340305
  },
  {
    "name": "sain's Chai",
    "category": "amenity",
    "subcategory": "restaurant",
    "latitude": 24.9273313,
    "longitude": 67.1602507,
    "id": 4773340522
  },
  {
    "name": "Khokrapar Police Station",
    "category": "amenity",
    "subcategory": "police",
    "latitude": 24.9022773,
    "longitude": 67.2149476,
    "id": 4785857322
  },
  {
    "name": "AL FALAH POLICE STATION",
    "category": "amenity",
    "subcategory": "police",
    "latitude": 24.9028202,
    "longitude": 67.1975374,
    "id": 4785857323
  },
  {
    "name": "Rufi Dream Land",
    "category": "amenity",
    "subcategory": "community_centre",
    "latitude": 24.9279282,
    "longitude": 67.1618165,
    "id": 4828955821
  },
  {
    "name": "Domino's",
    "category": "amenity",
    "subcategory": "fast_food",
    "latitude": 24.9225912,
    "longitude": 67.1846014,
    "id": 4916670611
  },
  {
    "name": "McDonald's",
    "category": "amenity",
    "subcategory": "fast_food",
    "latitude": 24.9227055,
    "longitude": 67.1843788,
    "id": 4916670612
  },
  {
    "name": "Kid's Campus School",
    "category": "amenity",
    "subcategory": "school",
    "latitude": 24.8721538,
    "longitude": 67.1890116,
    "id": 4976719524
  },
  {
    "name": "APS College Malir Cantt",
    "category": "amenity",
    "subcategory": "school",
    "latitude": 24.921885,
    "longitude": 67.2016457,
    "id": 4977491629
  },
  {
    "name": "baji house",
    "category": "amenity",
    "subcategory": "clinic",
    "latitude": 24.8688775,
    "longitude": 67.187561,
    "id": 5063378221
  },
  {
    "name": "New bilal general store",
    "category": "shop",
    "subcategory": "supermarket",
    "latitude": 24.9105517,
    "longitude": 67.1857564,
    "id": 5088327803
  },
  {
    "name": "Beacon Askari Secondry School",
    "category": "amenity",
    "subcategory": "school",
    "latitude": 24.9101883,
    "longitude": 67.1843848,
    "id": 5088327804
  },
  {
    "name": "Beacon Askari School Main Campus",
    "category": "amenity",
    "subcategory": "school",
    "latitude": 24.9098516,
    "longitude": 67.1845413,
    "id": 5088327805
  },
  {
    "name": "HuskyPakistan State Oil PSO",
    "category": "amenity",
    "subcategory": "fuel",
    "latitude": 24.9098495,
    "longitude": 67.1842331,
    "id": 5088327806
  },
  {
    "name": "Rehaish Inn Guest House Karachi",
    "category": "tourism",
    "subcategory": "guest_house",
    "latitude": 24.908438,
    "longitude": 67.1861536,
    "id": 5088327807
  },
  {
    "name": "Sultan Masjid",
    "category": "amenity",
    "subcategory": "place_of_worship",
    "latitude": 24.9076182,
    "longitude": 67.1867029,
    "id": 5088327808
  },
  {
    "name": "Masjid E Bilal Jafar Bagh Model Colony Karachi",
    "category": "amenity",
    "subcategory": "place_of_worship",
    "latitude": 24.9068257,
    "longitude": 67.1889536,
    "id": 5088327810
  },
  {
    "name": "Shaheen High School",
    "category": "amenity",
    "subcategory": "school",
    "latitude": 24.9052857,
    "longitude": 67.18693,
    "id": 5088327812
  },
  {
    "name": "Allama Iqbal Government Boys College, Model Colony, Malir",
    "category": "amenity",
    "subcategory": "school",
    "latitude": 24.9058425,
    "longitude": 67.1859096,
    "id": 5088327813
  },
  {
    "name": "Omer Mosque",
    "category": "amenity",
    "subcategory": "place_of_worship",
    "latitude": 24.9058324,
    "longitude": 67.1850029,
    "id": 5088327814
  },
  {
    "name": "The Ka Ka",
    "category": "amenity",
    "subcategory": "restaurant",
    "latitude": 24.9052449,
    "longitude": 67.1842845,
    "id": 5088327815
  },
  {
    "name": "Bismillah Store",
    "category": "shop",
    "subcategory": "supermarket",
    "latitude": 24.9056759,
    "longitude": 67.1836652,
    "id": 5088327816
  },
  {
    "name": "Petarian Shenwari",
    "category": "amenity",
    "subcategory": "restaurant",
    "latitude": 24.9061295,
    "longitude": 67.1829049,
    "id": 5088327817
  },
  {
    "name": "Burger Port",
    "category": "amenity",
    "subcategory": "fast_food",
    "latitude": 24.9058256,
    "longitude": 67.1827862,
    "id": 5088327818
  },
  {
    "name": "Pizza Max",
    "category": "amenity",
    "subcategory": "fast_food",
    "latitude": 24.9052288,
    "longitude": 67.1826613,
    "id": 5088327819
  },
  {
    "name": "Omega Mall Airport",
    "category": "shop",
    "subcategory": "mall",
    "latitude": 24.904513,
    "longitude": 67.1826245,
    "id": 5088327820
  },
  {
    "name": "Daffodils Lawn",
    "category": "amenity",
    "subcategory": "community_centre",
    "latitude": 24.9041483,
    "longitude": 67.1822628,
    "id": 5088328021
  },
  {
    "name": "Hina Garden",
    "category": "amenity",
    "subcategory": "community_centre",
    "latitude": 24.9038703,
    "longitude": 67.1821904,
    "id": 5088328022
  },
  {
    "name": "Al-Maazin Mobile Market",
    "category": "shop",
    "subcategory": "mobile_phone",
    "latitude": 24.9033172,
    "longitude": 67.1823556,
    "id": 5088328023
  },
  {
    "name": "Jaweria Communication",
    "category": "shop",
    "subcategory": "yes",
    "latitude": 24.9033172,
    "longitude": 67.182322,
    "id": 5088328024
  },
  {
    "name": "White House Grammar School",
    "category": "amenity",
    "subcategory": "school",
    "latitude": 24.9026489,
    "longitude": 67.1820603,
    "id": 5088328025
  },
  {
    "name": "Town Hall",
    "category": "amenity",
    "subcategory": "community_centre",
    "latitude": 24.9001727,
    "longitude": 67.1810292,
    "id": 5088328026
  },
  {
    "name": "Shah Jahangir School",
    "category": "amenity",
    "subcategory": "school",
    "latitude": 24.8980404,
    "longitude": 67.1814345,
    "id": 5088328029
  },
  {
    "name": "Jama Masjid Hawwa",
    "category": "amenity",
    "subcategory": "place_of_worship",
    "latitude": 24.8979435,
    "longitude": 67.180245,
    "id": 5088830716
  },
  {
    "name": "Noori Masjid",
    "category": "amenity",
    "subcategory": "place_of_worship",
    "latitude": 24.8954106,
    "longitude": 67.1806267,
    "id": 5088830717
  },
  {
    "name": "Silver Gym 2 - Khateeb",
    "category": "leisure",
    "subcategory": "fitness_centre",
    "latitude": 24.8947017,
    "longitude": 67.1792972,
    "id": 5088830718
  },
  {
    "name": "Sachal restaurants",
    "category": "amenity",
    "subcategory": "restaurant",
    "latitude": 24.8944115,
    "longitude": 67.1788746,
    "id": 5088830719
  },
  {
    "name": "UBL Malir Cantt Branch",
    "category": "amenity",
    "subcategory": "bank",
    "latitude": 24.9311578,
    "longitude": 67.2049007,
    "id": 5102340521
  },
  {
    "name": "Pakistan Swedish Institute",
    "category": "amenity",
    "subcategory": "university",
    "latitude": 24.8569208,
    "longitude": 67.2091948,
    "id": 5105487420
  },
  {
    "name": "Lalazar Cinema",
    "category": "amenity",
    "subcategory": "cinema",
    "latitude": 24.8577855,
    "longitude": 67.2094216,
    "id": 5105487526
  },
  {
    "name": "Nargis Cinema",
    "category": "amenity",
    "subcategory": "cinema",
    "latitude": 24.857965,
    "longitude": 67.2092884,
    "id": 5105487527
  },
  {
    "name": "ٹوٹل",
    "category": "amenity",
    "subcategory": "fuel",
    "latitude": 24.8582321,
    "longitude": 67.2091154,
    "id": 5105487528
  },
  {
    "name": "Masjid Asab e Kahaf",
    "category": "amenity",
    "subcategory": "place_of_worship",
    "latitude": 24.8585303,
    "longitude": 67.2098262,
    "id": 5105487529
  },
  {
    "name": "Tahir Market",
    "category": "amenity",
    "subcategory": "marketplace",
    "latitude": 24.8596755,
    "longitude": 67.2076565,
    "id": 5105487587
  },
  {
    "name": "اینجلو چرچ",
    "category": "amenity",
    "subcategory": "place_of_worship",
    "latitude": 24.8615869,
    "longitude": 67.2135655,
    "id": 5105487604
  },
  {
    "name": "TCF School - Feroza Hashaam Campus",
    "category": "amenity",
    "subcategory": "school",
    "latitude": 24.8604974,
    "longitude": 67.2098041,
    "id": 5105487606
  },
  {
    "name": "National Savings Center - ATM",
    "category": "amenity",
    "subcategory": "bank",
    "latitude": 24.8600179,
    "longitude": 67.2073447,
    "id": 5107361618
  },
  {
    "name": "National Savings Center - ATM",
    "category": "amenity",
    "subcategory": "bank",
    "latitude": 24.857872,
    "longitude": 67.2087046,
    "id": 5107361619
  },
  {
    "name": "بينک الحبيب",
    "category": "amenity",
    "subcategory": "bank",
    "latitude": 24.8775903,
    "longitude": 67.1908225,
    "id": 5107361921
  },
  {
    "name": "بینک اسلامی",
    "category": "amenity",
    "subcategory": "bank",
    "latitude": 24.8783892,
    "longitude": 67.1894104,
    "id": 5107361922
  },
  {
    "name": "Bank Al Habib - ATM",
    "category": "amenity",
    "subcategory": "bank",
    "latitude": 24.8775748,
    "longitude": 67.1907815,
    "id": 5107361924
  },
  {
    "name": "UBL Malir Branch - ATM",
    "category": "amenity",
    "subcategory": "bank",
    "latitude": 24.8773926,
    "longitude": 67.1911433,
    "id": 5107361926
  },
  {
    "name": "MCB Bank - ATM",
    "category": "amenity",
    "subcategory": "bank",
    "latitude": 24.8784244,
    "longitude": 67.1892809,
    "id": 5107361928
  },
  {
    "name": "NBP Bank - ATM",
    "category": "amenity",
    "subcategory": "bank",
    "latitude": 24.8797459,
    "longitude": 67.1872701,
    "id": 5107361930
  },
  {
    "name": "Askari Commercial Bank - ATM",
    "category": "amenity",
    "subcategory": "bank",
    "latitude": 24.8820985,
    "longitude": 67.1830723,
    "id": 5107361931
  },
  {
    "name": "National Saving Center Malir - ATM",
    "category": "amenity",
    "subcategory": "bank",
    "latitude": 24.8829505,
    "longitude": 67.1831434,
    "id": 5107361932
  },
  {
    "name": "الائیڈ بینک لمیٹڈ",
    "category": "amenity",
    "subcategory": "bank",
    "latitude": 24.8824858,
    "longitude": 67.1823051,
    "id": 5107361934
  },
  {
    "name": "Soneri Bank - ATM",
    "category": "amenity",
    "subcategory": "bank",
    "latitude": 24.8827974,
    "longitude": 67.181499,
    "id": 5107361935
  },
  {
    "name": "MCB Bank - ATM",
    "category": "amenity",
    "subcategory": "bank",
    "latitude": 24.8832785,
    "longitude": 67.1747955,
    "id": 5107361937
  },
  {
    "name": "Bank Al-Habib - ATM",
    "category": "amenity",
    "subcategory": "bank",
    "latitude": 24.8848015,
    "longitude": 67.1751149,
    "id": 5107508785
  },
  {
    "name": "Faisal Bank Malir Halt - ATM",
    "category": "amenity",
    "subcategory": "bank",
    "latitude": 24.8849003,
    "longitude": 67.1751077,
    "id": 5107508786
  },
  {
    "name": "Mubarak Lawn CAA Jogging Track",
    "category": "amenity",
    "subcategory": "community_centre",
    "latitude": 24.8880343,
    "longitude": 67.1585968,
    "id": 5107508787
  },
  {
    "name": "NIB",
    "category": "amenity",
    "subcategory": "bank",
    "latitude": 24.8840024,
    "longitude": 67.1785626,
    "id": 5107788522
  },
  {
    "name": "ایچ بی ایل پاکستان",
    "category": "amenity",
    "subcategory": "bank",
    "latitude": 24.8801017,
    "longitude": 67.1866795,
    "id": 5109211308
  },
  {
    "name": "ایم سی بی بینک",
    "category": "amenity",
    "subcategory": "bank",
    "latitude": 24.8784214,
    "longitude": 67.1893161,
    "id": 5109211309
  },
  {
    "name": "Haji Raza Brother & Dupatta Center",
    "category": "shop",
    "subcategory": "clothes",
    "latitude": 24.8781048,
    "longitude": 67.1904198,
    "id": 5109211310
  },
  {
    "name": "MCB Bank Malir City Branch",
    "category": "amenity",
    "subcategory": "bank",
    "latitude": 24.8783844,
    "longitude": 67.1894529,
    "id": 5109211311
  },
  {
    "name": "Malir Wine Shop",
    "category": "shop",
    "subcategory": "wine",
    "latitude": 24.8783378,
    "longitude": 67.1895396,
    "id": 5109211312
  },
  {
    "name": "Imam Bakhsh Baloch Market",
    "category": "amenity",
    "subcategory": "marketplace",
    "latitude": 24.878317,
    "longitude": 67.1900687,
    "id": 5109211313
  },
  {
    "name": "Ghanchi Market Maleir City",
    "category": "amenity",
    "subcategory": "marketplace",
    "latitude": 24.8778755,
    "longitude": 67.1907606,
    "id": 5109211314
  },
  {
    "name": "Khyber Motor",
    "category": "shop",
    "subcategory": "car",
    "latitude": 24.8738205,
    "longitude": 67.1954629,
    "id": 5109251339
  },
  {
    "name": "CITY MOTORS MALIR",
    "category": "shop",
    "subcategory": "car",
    "latitude": 24.8735315,
    "longitude": 67.1957866,
    "id": 5109251340
  },
  {
    "name": "ایچ بی ایل پاکستان",
    "category": "amenity",
    "subcategory": "bank",
    "latitude": 24.8726895,
    "longitude": 67.1969453,
    "id": 5109251341
  },
  {
    "name": "ایچ بی ایل پاکستان",
    "category": "amenity",
    "subcategory": "bank",
    "latitude": 24.8726847,
    "longitude": 67.1969989,
    "id": 5109251342
  },
  {
    "name": "Serena Lawn",
    "category": "amenity",
    "subcategory": "community_centre",
    "latitude": 24.8724681,
    "longitude": 67.1971277,
    "id": 5109251343
  },
  {
    "name": "First Women Bank - ATM",
    "category": "amenity",
    "subcategory": "bank",
    "latitude": 24.8722734,
    "longitude": 67.1973852,
    "id": 5109251344
  },
  {
    "name": "Abdullah Stationary",
    "category": "shop",
    "subcategory": "stationery",
    "latitude": 24.8721615,
    "longitude": 67.1974281,
    "id": 5109251345
  },
  {
    "name": "Madina Furniture House",
    "category": "shop",
    "subcategory": "furniture",
    "latitude": 24.8716602,
    "longitude": 67.1980557,
    "id": 5109251346
  },
  {
    "name": "DHL - Airport",
    "category": "amenity",
    "subcategory": "post_office",
    "latitude": 24.8951262,
    "longitude": 67.1649653,
    "id": 5112702143
  },
  {
    "name": "Service Shoes",
    "category": "shop",
    "subcategory": "shoes",
    "latitude": 24.8719329,
    "longitude": 67.1977301,
    "id": 5112722055
  },
  {
    "name": "Royal Palace",
    "category": "amenity",
    "subcategory": "community_centre",
    "latitude": 24.8711294,
    "longitude": 67.198745,
    "id": 5112722056
  },
  {
    "name": "Jama Masjid Allahwali",
    "category": "amenity",
    "subcategory": "place_of_worship",
    "latitude": 24.8748104,
    "longitude": 67.1957168,
    "id": 5113168958
  },
  {
    "name": "Khyber Hotel",
    "category": "amenity",
    "subcategory": "restaurant",
    "latitude": 24.8781392,
    "longitude": 67.1871954,
    "id": 5113171037
  },
  {
    "name": "Nasra School Malir Campus",
    "category": "amenity",
    "subcategory": "school",
    "latitude": 24.8800448,
    "longitude": 67.1805973,
    "id": 5115590184
  },
  {
    "name": "Ghareeb Shah Masjid",
    "category": "amenity",
    "subcategory": "place_of_worship",
    "latitude": 24.879472,
    "longitude": 67.1789558,
    "id": 5115590185
  },
  {
    "name": "Gul Baloch Football Ground",
    "category": "leisure",
    "subcategory": "playground",
    "latitude": 24.8809027,
    "longitude": 67.1817802,
    "id": 5115590186
  },
  {
    "name": "FG Model Middle School",
    "category": "amenity",
    "subcategory": "school",
    "latitude": 24.9028022,
    "longitude": 67.1881008,
    "id": 5128445384
  },
  {
    "name": "Al-Khidmat Hospital",
    "category": "amenity",
    "subcategory": "hospital",
    "latitude": 24.9034986,
    "longitude": 67.2052655,
    "id": 5130353811
  },
  {
    "name": "Dow Lab Collection Center",
    "category": "amenity",
    "subcategory": "clinic",
    "latitude": 24.8827278,
    "longitude": 67.182595,
    "id": 5130354340
  },
  {
    "name": "Al Nas Hospital",
    "category": "amenity",
    "subcategory": "hospital",
    "latitude": 24.8764061,
    "longitude": 67.1627406,
    "id": 5130354341
  },
  {
    "name": "Atia General Hospital",
    "category": "amenity",
    "subcategory": "hospital",
    "latitude": 24.8820016,
    "longitude": 67.1831665,
    "id": 5130682839
  },
  {
    "name": "Aziz Medical Centre",
    "category": "amenity",
    "subcategory": "clinic",
    "latitude": 24.8565688,
    "longitude": 67.1954664,
    "id": 5130682846
  },
  {
    "name": "Azizullah Medical & General Store",
    "category": "amenity",
    "subcategory": "clinic",
    "latitude": 24.8565375,
    "longitude": 67.1956717,
    "id": 5130682847
  },
  {
    "name": "Fatima Eye Hospital",
    "category": "amenity",
    "subcategory": "hospital",
    "latitude": 24.8832963,
    "longitude": 67.1830329,
    "id": 5130921750
  },
  {
    "name": "TCS Office Kalaboard",
    "category": "amenity",
    "subcategory": "post_office",
    "latitude": 24.8829128,
    "longitude": 67.182728,
    "id": 5130921751
  },