[
  {
    "name": "Kids Foundation school kalakot",
    "category": "amenity",
    "subcategory": "school",
    "latitude": 35.0740179,
    "longitude": 72.4774489,
    "id": 5266225021
  },
  {
    "name": "Swat Taj Mahal Restaurant",
    "category": "amenity",
    "subcategory": "restaurant",
    "latitude": 35.0971488,
    "longitude": 72.4976516,
    "id": 5728056521
  },
  {
    "name": "MIANDAM Road",
    "category": "shop",
    "subcategory": "ticket",
    "latitude": 35.0755968,
    "longitude": 72.490886,
    "id": 6185604586
  },
  {
    "name": "Filling Station",
    "category": "amenity",
    "subcategory": "fuel",
    "latitude": 35.098505,
    "longitude": 72.4998727,
    "id": 8280554018
  },
  {
    "name": "Kalkot Police Station",
    "category": "amenity",
    "subcategory": "police",
    "latitude": 35.0742973,
    "longitude": 72.4776842,
    "id": 8280566117
  },
  {
    "name": "Market",
    "category": "amenity",
    "subcategory": "cafe",
    "latitude": 35.0987925,
    "longitude": 72.5003269,
    "id": 8280575232
  },
  {
    "name": "بينک الحبيب",
    "category": "amenity",
    "subcategory": "bank",
    "latitude": 35.0754807,
    "longitude": 72.4786447,
    "id": 8280575528
  }
]