[
  {
    "name": "Fawara Chowk",
    "category": "amenity",
    "subcategory": "fountain",
    "latitude": 32.2868765,
    "longitude": 72.2803927,
    "id": 319134501
  },
  {
    "name": "Jamia Masjid Block-1",
    "category": "amenity",
    "subcategory": "place_of_worship",
    "latitude": 32.2850583,
    "longitude": 72.2781943,
    "id": 319135185
  },
  {
    "name": "Bari's Biryani House",
    "category": "amenity",
    "subcategory": "restaurant",
    "latitude": 32.2872397,
    "longitude": 72.2801669,
    "id": 319135343
  },
  {
    "name": "Shaheed Library",
    "category": "amenity",
    "subcategory": "library",
    "latitude": 32.287024,
    "longitude": 72.2804083,
    "id": 4218537297
  },
  {
    "name": "Governament Degree college ",
    "category": "amenity",
    "subcategory": "school",
    "latitude": 32.287705,
    "longitude": 72.2885721,
    "id": 4218539992
  },
  {
    "name": "Abu-Hureira Masjid",
    "category": "amenity",
    "subcategory": "place_of_worship",
    "latitude": 32.2805179,
    "longitude": 72.2691299,
    "id": 4218543193
  },
  {
    "name": "Noor Memorial Hospital",
    "category": "amenity",
    "subcategory": "hospital",
    "latitude": 32.2878241,
    "longitude": 72.2874027,
    "id": 4218548391
  },
  {
    "name": "Masjid E Madina",
    "category": "amenity",
    "subcategory": "place_of_worship",
    "latitude": 32.2937646,
    "longitude": 72.2822161,
    "id": 4316750489
  },
  {
    "name": "Maajid Riaz Ul Jannah",
    "category": "amenity",
    "subcategory": "place_of_worship",
    "latitude": 32.297647,
    "longitude": 72.2840581,
    "id": 4316750490
  },
  {
    "name": "District Public Inter College",
    "category": "amenity",
    "subcategory": "college",
    "latitude": 32.3046929,
    "longitude": 72.2845302,
    "id": 4316750491
  },
  {
    "name": "Sports Ground",
    "category": "leisure",
    "subcategory": "pitch",
    "latitude": 32.3026477,
    "longitude": 72.2806287,
    "id": 4316750495
  },
  {
    "name": "Masjid Anwar E Madina",
    "category": "amenity",
    "subcategory": "place_of_worship",
    "latitude": 32.299158,
    "longitude": 72.284658,
    "id": 4316750498
  },
  {
    "name": "Governament Jauhar college",
    "category": "amenity",
    "subcategory": "college",
    "latitude": 32.302947,
    "longitude": 72.2834106,
    "id": 4316750499
  },
  {
    "name": "Pak Continental Reataurant",
    "category": "amenity",
    "subcategory": "fast_food",
    "latitude": 32.2943073,
    "longitude": 72.279667,
    "id": 4316750500
  },
  {
    "name": "Shahid Ashraf Park",
    "category": "leisure",
    "subcategory": "park",
    "latitude": 32.3013139,
    "longitude": 72.2818451,
    "id": 4316750501
  },
  {
    "name": "Superior College Jauharabad",
    "category": "amenity",
    "subcategory": "college",
    "latitude": 32.2786761,
    "longitude": 72.2725397,
    "id": 4316754124
  },
  {
    "name": "Jauharabad Qabristan",
    "category": "shop",
    "subcategory": "funeral_directors",
    "latitude": 32.2790096,
    "longitude": 72.2936921,
    "id": 4316754130
  },
  {
    "name": "Al AziZ Marriage Hall",
    "category": "tourism",
    "subcategory": "hotel",
    "latitude": 32.2785425,
    "longitude": 72.2733875,
    "id": 4316754131
  },
  {
    "name": "جامع مسجد",
    "category": "amenity",
    "subcategory": "place_of_worship",
    "latitude": 32.2734234,
    "longitude": 72.2619898,
    "id": 4316754586
  },
  {
    "name": "پاکستان اسٹیٹ آئل",
    "category": "amenity",
    "subcategory": "fuel",
    "latitude": 32.271384,
    "longitude": 72.265772,
    "id": 4316757495
  },
  {
    "name": "Texi",
    "category": "amenity",
    "subcategory": "police",
    "latitude": 32.2825568,
    "longitude": 72.2955663,
    "id": 4472997689
  },
  {
    "name": "Al rehman travels jauharabad",
    "category": "shop",
    "subcategory": "travel_agency",
    "latitude": 32.2905434,
    "longitude": 72.2787217,
    "id": 4700616321
  },
  {
    "name": "Model Mart",
    "category": "shop",
    "subcategory": "department_store",
    "latitude": 32.29016,
    "longitude": 72.287941,
    "id": 6194723585
  },
  {
    "name": "Punjab Sanitary Store",
    "category": "shop",
    "subcategory": "trade",
    "latitude": 32.2888331,
    "longitude": 72.2761647,
    "id": 6443388343
  },
  {
    "name": "SAFA AL-MADINA CLINIC",
    "category": "amenity",
    "subcategory": "clinic",
    "latitude": 32.2826254,
    "longitude": 72.296504,
    "id": 8420026618
  },
  {
    "name": "Sami Diagnostic Center",
    "category": "amenity",
    "subcategory": "clinic",
    "latitude": 32.282658,
    "longitude": 72.2802656,
    "id": 8786923828
  },
  {
    "name": "Robina Shaheen Hospital",
    "category": "amenity",
    "subcategory": "hospital",
    "latitude": 32.2910819,
    "longitude": 72.2723688,
    "id": 8786923829
  },
  {
    "name": "Police Station Jauharabad City",
    "category": "amenity",
    "subcategory": "police",
    "latitude": 32.284613,
    "longitude": 72.26872,
    "id": 8786923830
  },
  {
    "name": "Muhammad Hospital",
    "category": "amenity",
    "subcategory": "hospital",
    "latitude": 32.2874013,
    "longitude": 72.2710756,
    "id": 8786923831
  },
  {
    "name": "Shan Clinic Dr Sajjad",
    "category": "amenity",
    "subcategory": "clinic",
    "latitude": 32.2824182,
    "longitude": 72.2802467,
    "id": 8786923832
  },
  {
    "name": "Aoun Hospital",
    "category": "amenity",
    "subcategory": "hospital",
    "latitude": 32.288146,
    "longitude": 72.271399,
    "id": 8786923833
  },
  {
    "name": "Allied School Khushab Campus",
    "category": "amenity",
    "subcategory": "school",
    "latitude": 32.2932247,
    "longitude": 72.3243367,
    "id": 8829862223
  },
  {
    "name": "Khalid Auto workshop",
    "category": "shop",
    "subcategory": "car_repair",
    "latitude": 32.2932761,
    "longitude": 72.3249972,
    "id": 8831541916
  },
  {
    "name": "Roman Jewellers",
    "category": "shop",
    "subcategory": "jewelry",
    "latitude": 32.2872643,
    "longitude": 72.2794655,
    "id": 8867647445
  },
  {
    "name": "Allied Bank Joharabad",
    "category": "amenity",
    "subcategory": "bank",
    "latitude": 32.2870099,
    "longitude": 72.2796337,
    "id": 8867669728
  },
  {
    "name": "Al Raza Jewellers",
    "category": "shop",
    "subcategory": "jewelry",
    "latitude": 32.2870167,
    "longitude": 72.279393,
    "id": 8867669729
  },
  {
    "name": "Hasnain Jewellers",
    "category": "shop",
    "subcategory": "jewelry",
    "latitude": 32.2872635,
    "longitude": 72.2792805,
    "id": 8867669730
  },
  {
    "name": "Hassan Jewellers",
    "category": "shop",
    "subcategory": "jewelry",
    "latitude": 32.287259,
    "longitude": 72.2793684,
    "id": 8867669731
  },
  {
    "name": "Madina Sweets and Bakers",
    "category": "shop",
    "subcategory": "bakery",
    "latitude": 32.2870261,
    "longitude": 72.2791864,
    "id": 8867669732
  },
  {
    "name": "Irfan Jewellers",
    "category": "shop",
    "subcategory": "jewelry",
    "latitude": 32.2870153,
    "longitude": 72.2792768,
    "id": 8867669733
  },
  {
    "name": "Gulshan Cloth House",
    "category": "shop",
    "subcategory": "clothes",
    "latitude": 32.287017,
    "longitude": 72.2794849,
    "id": 8867669734
  },
  {
    "name": "New Modern Jewellers",
    "category": "shop",
    "subcategory": "jewelry",
    "latitude": 32.2870125,
    "longitude": 72.2790822,
    "id": 8867669735
  },
  {
    "name": "Bank Al Habib",
    "category": "amenity",
    "subcategory": "bank",
    "latitude": 32.288609,
    "longitude": 72.2782997,
    "id": 9394172253
  },
  {
    "name": "الائیڈ بینک",
    "category": "amenity",
    "subcategory": "bank",
    "latitude": 32.2887018,
    "longitude": 72.2782974,
    "id": 9394172254
  },
  {
    "name": "MCB",
    "category": "amenity",
    "subcategory": "bank",
    "latitude": 32.2888742,
    "longitude": 72.2778034,
    "id": 9394172255
  },
  {
    "name": "alfalah bank",
    "category": "amenity",
    "subcategory": "bank",
    "latitude": 32.2889827,
    "longitude": 72.2778128,
    "id": 9394172256
  },
  {
    "name": "Shan Boitque",
    "category": "shop",
    "subcategory": "clothes",
    "latitude": 32.287244,
    "longitude": 72.2817898,
    "id": 10596308594
  },
  {
    "name": "Rich Calories",
    "category": "amenity",
    "subcategory": "fast_food",
    "latitude": 32.2876008,
    "longitude": 72.2761999,
    "id": 11157661513
  }
]