[
  {
    "name": "جوہرآباد",
    "category": "place",
    "subcategory": "city",
    "latitude": 32.2864067,
    "longitude": 72.2878819,
    "id": 253748822
  },
  {
    "name": "Fawara Chowk",
    "category": "amenity",
    "subcategory": "fountain",
    "latitude": 32.2868765,
    "longitude": 72.2803927,
    "id": 319134501
  },
  {
    "name": "Jamia Masjid Block-1",
    "category": "amenity",
    "subcategory": "place_of_worship",
    "latitude": 32.2850583,
    "longitude": 72.2781943,
    "id": 319135185
  },
  {
    "name": "Bari's Biryani House",
    "category": "amenity",
    "subcategory": "restaurant",
    "latitude": 32.2872397,
    "longitude": 72.2801669,
    "id": 319135343
  },
  {
    "name": "Shaheed Library",
    "category": "amenity",
    "subcategory": "library",
    "latitude": 32.287024,
    "longitude": 72.2804083,
    "id": 4218537297
  },
  {
    "name": "Governament Degree college ",
    "category": "amenity",
    "subcategory": "school",
    "latitude": 32.287705,
    "longitude": 72.2885721,
    "id": 4218539992
  },
  {
    "name": "Abu-Hureira Masjid",
    "category": "amenity",
    "subcategory": "place_of_worship",
    "latitude": 32.2805179,
    "longitude": 72.2691299,
    "id": 4218543193
  },
  {
    "name": "Noor Memorial Hospital",
    "category": "amenity",
    "subcategory": "hospital",
    "latitude": 32.2878241,
    "longitude": 72.2874027,
    "id": 4218548391
  },
  {
    "name": "Pak-kuwait Textile Mill",
    "category": "landuse",
    "subcategory": "industrial",
    "latitude": 32.2971908,
    "longitude": 72.2518703,
    "id": 4316746105
  },
  {
    "name": "Masjid E Madina",
    "category": "amenity",
    "subcategory": "place_of_worship",
    "latitude": 32.2937646,
    "longitude": 72.2822161,
    "id": 4316750489
  },
  {
    "name": "Maajid Riaz Ul Jannah",
    "category": "amenity",
    "subcategory": "place_of_worship",
    "latitude": 32.297647,
    "longitude": 72.2840581,
    "id": 4316750490
  },
  {
    "name": "District Public Inter College",
    "category": "amenity",
    "subcategory": "college",
    "latitude": 32.3046929,
    "longitude": 72.2845302,
    "id": 4316750491
  },
  {
    "name": "DCO OFFICE",
    "category": "office",
    "subcategory": "administrative",
    "latitude": 32.2943443,
    "longitude": 72.2811952,
    "id": 4316750492
  },
  {
    "name": "DPO OFFICE",
    "category": "office",
    "subcategory": "administrative",
    "latitude": 32.2937609,
    "longitude": 72.2831639,
    "id": 4316750494
  },
  {
    "name": "Sports Ground",
    "category": "leisure",
    "subcategory": "pitch",
    "latitude": 32.3026477,
    "longitude": 72.2806287,
    "id": 4316750495
  },
  {
    "name": "Kohinor Sugar Mills colony",
    "category": "place",
    "subcategory": "neighbourhood",
    "latitude": 32.3050788,
    "longitude": 72.2769032,
    "id": 4316750496
  },
  {
    "name": "Masjid Anwar E Madina",
    "category": "amenity",
    "subcategory": "place_of_worship",
    "latitude": 32.299158,
    "longitude": 72.284658,
    "id": 4316750498
  },
  {
    "name": "Governament Jauhar college",
    "category": "amenity",
    "subcategory": "college",
    "latitude": 32.302947,
    "longitude": 72.2834106,
    "id": 4316750499
  },
  {
    "name": "Pak Continental Reataurant",
    "category": "amenity",
    "subcategory": "fast_food",
    "latitude": 32.2943073,
    "longitude": 72.279667,
    "id": 4316750500
  },
  {
    "name": "Shahid Ashraf Park",
    "category": "leisure",
    "subcategory": "park",
    "latitude": 32.3013139,
    "longitude": 72.2818451,
    "id": 4316750501
  },
  {
    "name": "Jauharabad Sugar Mills Limited",
    "category": "landuse",
    "subcategory": "industrial",
    "latitude": 32.3057718,
    "longitude": 72.2726821,
    "id": 4316750502
  },
  {
    "name": "Iftikhar Town",
    "category": "place",
    "subcategory": "neighbourhood",
    "latitude": 32.2757328,
    "longitude": 72.2764096,
    "id": 4316754116
  },
  {
    "name": "Burhan Town",
    "category": "place",
    "subcategory": "neighbourhood",
    "latitude": 32.2827084,
    "longitude": 72.3007252,
    "id": 4316754118
  },
  {
    "name": "Naseem Colony",
    "category": "place",
    "subcategory": "suburb",
    "latitude": 32.2757101,
    "longitude": 72.2920487,
    "id": 4316754119
  },
  {
    "name": "Shabeer Colony",
    "category": "place",
    "subcategory": "neighbourhood",
    "latitude": 32.2848554,
    "longitude": 72.2642124,
    "id": 4316754120
  },
  {
    "name": "گلشن اقبال ٹاؤن",
    "category": "place",
    "subcategory": "suburb",
    "latitude": 32.289894,
    "longitude": 72.3027093,
    "id": 4316754122
  },
  {
    "name": "Asif Colony",
    "category": "place",
    "subcategory": "neighbourhood",
    "latitude": 32.2798771,
    "longitude": 72.2962203,
    "id": 4316754123
  },
  {
    "name": "Superior College Jauharabad",
    "category": "amenity",
    "subcategory": "college",
    "latitude": 32.2786761,
    "longitude": 72.2725397,
    "id": 4316754124
  },
  {
    "name": "Wapda Scrap Colony",
    "category": "place",
    "subcategory": "neighbourhood",
    "latitude": 32.290008,
    "longitude": 72.3209899,
    "id": 4316754125
  },
  {
    "name": "Qazi Colony",
    "category": "place",
    "subcategory": "neighbourhood",
    "latitude": 32.2795757,
    "longitude": 72.3007934,
    "id": 4316754126
  },
  {
    "name": "Gareeb Colony",
    "category": "place",
    "subcategory": "neighbourhood",
    "latitude": 32.2754688,
    "longitude": 72.2711615,
    "id": 4316754127
  },
  {
    "name": "Ulfat Colony",
    "category": "place",
    "subcategory": "neighbourhood",
    "latitude": 32.285297,
    "longitude": 72.2980333,
    "id": 4316754129
  },
  {
    "name": "Jauharabad Qabristan",
    "category": "shop",
    "subcategory": "funeral_directors",
    "latitude": 32.2790096,
    "longitude": 72.2936921,
    "id": 4316754130
  },
  {
    "name": "Al AziZ Marriage Hall",
    "category": "tourism",
    "subcategory": "hotel",
    "latitude": 32.2785425,
    "longitude": 72.2733875,
    "id": 4316754131
  },
  {
    "name": "Shehzad Town",
    "category": "place",
    "subcategory": "suburb",
    "latitude": 32.2884367,
    "longitude": 72.3089972,
    "id": 4316754132
  },
  {
    "name": "Ejaz Colony",
    "category": "place",
    "subcategory": "neighbourhood",
    "latitude": 32.2773265,
    "longitude": 72.3035445,
    "id": 4316754133
  },
  {
    "name": "Brick Bhatta",
    "category": "landuse",
    "subcategory": "industrial",
    "latitude": 32.2604182,
    "longitude": 72.3165841,
    "id": 4316754584
  },
  {
    "name": "جامع مسجد",
    "category": "amenity",
    "subcategory": "place_of_worship",
    "latitude": 32.2734234,
    "longitude": 72.2619898,
    "id": 4316754586
  },
  {
    "name": "Mangoor",
    "category": "place",
    "subcategory": "village",
    "latitude": 32.2581507,
    "longitude": 72.3227257,
    "id": 4316757490
  },
  {
    "name": "پاکستان اسٹیٹ آئل",
    "category": "amenity",
    "subcategory": "fuel",
    "latitude": 32.271384,
    "longitude": 72.265772,
    "id": 4316757495
  },
  {
    "name": "Tanveer Abad",
    "category": "place",
    "subcategory": "village",
    "latitude": 32.2608782,
    "longitude": 72.2807812,
    "id": 4316757497
  },
  {
    "name": "Satellite Town No 3",
    "category": "place",
    "subcategory": "suburb",
    "latitude": 32.3027474,
    "longitude": 72.2888323,
    "id": 4316757499
  },
  {
    "name": "Jauharabad Forest Plantation",
    "category": "landuse",
    "subcategory": "forest",
    "latitude": 32.2998092,
    "longitude": 72.3065843,
    "id": 4317966184
  },
  {
    "name": "Officers Colony",
    "category": "place",
    "subcategory": "neighbourhood",
    "latitude": 32.2772853,
    "longitude": 72.2671118,
    "id": 4424549457
  },
  {
    "name": "Texi",
    "category": "amenity",
    "subcategory": "police",
    "latitude": 32.2825568,
    "longitude": 72.2955663,
    "id": 4472997689
  },
  {
    "name": "Al rehman travels jauharabad",
    "category": "shop",
    "subcategory": "travel_agency",
    "latitude": 32.2905434,
    "longitude": 72.2787217,
    "id": 4700616321
  },
  {
    "name": "Model Mart",
    "category": "shop",
    "subcategory": "department_store",
    "latitude": 32.29016,
    "longitude": 72.287941,
    "id": 6194723585
  },
  {
    "name": "Punjab Sanitary Store",
    "category": "shop",
    "subcategory": "trade",
    "latitude": 32.2888331,
    "longitude": 72.2761647,
    "id": 6443388343
  },
  {
    "name": "SAFA AL-MADINA CLINIC",
    "category": "amenity",
    "subcategory": "clinic",
    "latitude": 32.2826254,
    "longitude": 72.296504,
    "id": 8420026618
  },
  {
    "name": "Sami Diagnostic Center",
    "category": "amenity",
    "subcategory": "clinic",
    "latitude": 32.282658,
    "longitude": 72.2802656,
    "id": 8786923828
  },
  {
    "name": "Robina Shaheen Hospital",
    "category": "amenity",
    "subcategory": "hospital",
    "latitude": 32.2910819,
    "longitude": 72.2723688,
    "id": 8786923829
  },
  {
    "name": "Police Station Jauharabad City",
    "category": "amenity",
    "subcategory": "police",
    "latitude": 32.284613,
    "longitude": 72.26872,
    "id": 8786923830
  },
  {
    "name": "Muhammad Hospital",
    "category": "amenity",
    "subcategory": "hospital",
    "latitude": 32.2874013,
    "longitude": 72.2710756,
    "id": 8786923831
  },
  {
    "name": "Shan Clinic Dr Sajjad",
    "category": "amenity",
    "subcategory": "clinic",
    "latitude": 32.2824182,
    "longitude": 72.2802467,
    "id": 8786923832
  },
  {
    "name": "Aoun Hospital",
    "category": "amenity",
    "subcategory": "hospital",
    "latitude": 32.288146,
    "longitude": 72.271399,
    "id": 8786923833
  },
  {
    "name": "place_of_worship",
    "category": "amenity",
    "subcategory": "place_of_worship",
    "latitude": 32.2934763,
    "longitude": 72.3240429,
    "id": 8829186943
  },
  {
    "name": "Allied School Khushab Campus",
    "category": "amenity",
    "subcategory": "school",
    "latitude": 32.2932247,
    "longitude": 72.3243367,
    "id": 8829862223
  },
  {
    "name": "Khalid Auto workshop",
    "category": "shop",
    "subcategory": "car_repair",
    "latitude": 32.2932761,
    "longitude": 72.3249972,
    "id": 8831541916
  },
  {
    "name": "Roman Jewellers",
    "category": "shop",
    "subcategory": "jewelry",
    "latitude": 32.2872643,
    "longitude": 72.2794655,
    "id": 8867647445
  },
  {
    "name": "Allied Bank Joharabad",
    "category": "amenity",
    "subcategory": "bank",
    "latitude": 32.2870099,
    "longitude": 72.2796337,
    "id": 8867669728
  },
  {
    "name": "Al Raza Jewellers",
    "category": "shop",
    "subcategory": "jewelry",
    "latitude": 32.2870167,
    "longitude": 72.279393,
    "id": 8867669729
  },
  {
    "name": "Hasnain Jewellers",
    "category": "shop",
    "subcategory": "jewelry",
    "latitude": 32.2872635,
    "longitude": 72.2792805,
    "id": 8867669730
  },
  {
    "name": "Hassan Jewellers",
    "category": "shop",
    "subcategory": "jewelry",
    "latitude": 32.287259,
    "longitude": 72.2793684,
    "id": 8867669731
  },
  {
    "name": "Madina Sweets and Bakers",
    "category": "shop",
    "subcategory": "bakery",
    "latitude": 32.2870261,
    "longitude": 72.2791864,
    "id": 8867669732
  },
  {
    "name": "Irfan Jewellers",
    "category": "shop",
    "subcategory": "jewelry",
    "latitude": 32.2870153,
    "longitude": 72.2792768,
    "id": 8867669733
  },
  {
    "name": "Gulshan Cloth House",
    "category": "shop",
    "subcategory": "clothes",
    "latitude": 32.287017,
    "longitude": 72.2794849,
    "id": 8867669734
  },
  {
    "name": "New Modern Jewellers",
    "category": "shop",
    "subcategory": "jewelry",
    "latitude": 32.2870125,
    "longitude": 72.2790822,
    "id": 8867669735
  },
  {
    "name": "Bank Al Habib",
    "category": "amenity",
    "subcategory": "bank",
    "latitude": 32.288609,
    "longitude": 72.2782997,
    "id": 9394172253
  },
  {
    "name": "الائیڈ بینک",
    "category": "amenity",
    "subcategory": "bank",
    "latitude": 32.2887018,
    "longitude": 72.2782974,
    "id": 9394172254
  },
  {
    "name": "MCB",
    "category": "amenity",
    "subcategory": "bank",
    "latitude": 32.2888742,
    "longitude": 72.2778034,
    "id": 9394172255
  },
  {
    "name": "alfalah bank",
    "category": "amenity",
    "subcategory": "bank",
    "latitude": 32.2889827,
    "longitude": 72.2778128,
    "id": 9394172256
  },
  {
    "name": "Asif Town",
    "category": "place",
    "subcategory": "neighbourhood",
    "latitude": 32.2724458,
    "longitude": 72.2848584,
    "id": 9394198276
  },
  {
    "name": "Shan Boitque",
    "category": "shop",
    "subcategory": "clothes",
    "latitude": 32.287244,
    "longitude": 72.2817898,
    "id": 10596308594
  },
  {
    "name": "Passport Office",
    "category": "office",
    "subcategory": "government",
    "latitude": 32.2882402,
    "longitude": 72.2750604,
    "id": 11157651743
  },
  {
    "name": "Rich Calories",
    "category": "amenity",
    "subcategory": "fast_food",
    "latitude": 32.2876008,
    "longitude": 72.2761999,
    "id": 11157661513
  },
  {
    "name": "Market Road",
    "category": "highway",
    "subcategory": "secondary",
    "latitude": 32.287182977777775,
    "longitude": 72.28404623333333,
    "id": 29019100
  },
  {
    "name": "Market Road",
    "category": "highway",
    "subcategory": "secondary",
    "latitude": 32.2870803375,
    "longitude": 72.2836963375,
    "id": 29019102
  },
  {
    "name": "tertiary",
    "category": "highway",
    "subcategory": "tertiary",
    "latitude": 32.28882598571429,
    "longitude": 72.2876899,
    "id": 29019104
  },
  {
    "name": "Main Road Asif Town",
    "category": "highway",
    "subcategory": "tertiary",
    "latitude": 32.27605935789474,
    "longitude": 72.28256223684211,
    "id": 29019108
  },
  {
    "name": "Fawara Chk Roundabout",
    "category": "highway",
    "subcategory": "tertiary",
    "latitude": 32.28683445217391,
    "longitude": 72.28036862173913,
    "id": 29019147
  },
  {
    "name": "Janoobi Bazar Road",
    "category": "highway",
    "subcategory": "tertiary",
    "latitude": 32.28241458,
    "longitude": 72.28039784,
    "id": 29019151
  },
  {
    "name": "tertiary",
    "category": "highway",
    "subcategory": "tertiary",
    "latitude": 32.27978629,
    "longitude": 72.28035687,
    "id": 29019152
  },
  {
    "name": "residential",
    "category": "highway",
    "subcategory": "residential",
    "latitude": 32.28540395,
    "longitude": 72.2805735375,
    "id": 29019162
  },
  {
    "name": "residential",
    "category": "highway",
    "subcategory": "residential",
    "latitude": 32.28441940909091,
    "longitude": 72.279248,
    "id": 29019164
  },
  {
    "name": "residential",
    "category": "highway",
    "subcategory": "residential",
    "latitude": 32.28539808,
    "longitude": 72.27888162,
    "id": 29019166
  },
  {
    "name": "residential",
    "category": "highway",
    "subcategory": "residential",
    "latitude": 32.2830496625,
    "longitude": 72.278964625,
    "id": 29019192
  },
  {
    "name": "residential",
    "category": "highway",
    "subcategory": "residential",
    "latitude": 32.28181585714286,
    "longitude": 72.27922805714286,
    "id": 29019195
  },
  {
    "name": "residential",
    "category": "highway",
    "subcategory": "residential",
    "latitude": 32.28243205,
    "longitude": 72.2794093,
    "id": 29019198
  },
  {
    "name": "secondary",
    "category": "highway",
    "subcategory": "secondary",
    "latitude": 32.28148568205128,
    "longitude": 72.28800494102563,
    "id": 29019200
  },
  {
    "name": "Khushab-Girot Road",
    "category": "highway",
    "subcategory": "tertiary",
    "latitude": 32.287011925,
    "longitude": 72.3275202875,
    "id": 140089172
  },
  {
    "name": "Arid Agriculture University Khushab Campus",
    "category": "amenity",
    "subcategory": "university",
    "latitude": 32.29215016,
    "longitude": 72.32259422000001,
    "id": 140089227
  },
  {
    "name": "شوگر مل روڈ",
    "category": "highway",
    "subcategory": "tertiary",
    "latitude": 32.29773359090909,
    "longitude": 72.27484165454545,
    "id": 241957183
  },
  {
    "name": "residential",
    "category": "highway",
    "subcategory": "residential",
    "latitude": 32.299731685714285,
    "longitude": 72.28196576285714,
    "id": 241957189
  },
  {
    "name": "secondary",
    "category": "highway",
    "subcategory": "secondary",
    "latitude": 32.28373811904762,
    "longitude": 72.28771881904761,
    "id": 241957191
  },
  {
    "name": "tertiary",
    "category": "highway",
    "subcategory": "tertiary",
    "latitude": 32.281252675000005,
    "longitude": 72.28773825,
    "id": 241957195
  },
  {
    "name": "secondary",
    "category": "highway",
    "subcategory": "secondary",
    "latitude": 32.28710733333333,
    "longitude": 72.2912726,
    "id": 241957199
  },
  {
    "name": "residential",
    "category": "highway",
    "subcategory": "residential",
    "latitude": 32.28808471,
    "longitude": 72.27188083,
    "id": 241957202
  },
  {
    "name": "Khushab-Mianwali Road",
    "category": "highway",
    "subcategory": "trunk",
    "latitude": 32.29320384444444,
    "longitude": 72.26333054444444,
    "id": 241957204
  },
  {
    "name": "tertiary",
    "category": "highway",
    "subcategory": "tertiary",
    "latitude": 32.29372695,
    "longitude": 72.2801932875,
    "id": 241957209
  },
  {
    "name": "tertiary",
    "category": "highway",
    "subcategory": "tertiary",
    "latitude": 32.300207254545455,
    "longitude": 72.27957514545454,
    "id": 241957211
  },
  {
    "name": "Market Road",
    "category": "highway",
    "subcategory": "secondary",
    "latitude": 32.287101,
    "longitude": 72.27754815,
    "id": 241957224
  },
  {
    "name": "secondary",
    "category": "highway",
    "subcategory": "secondary",
    "latitude": 32.28367115454545,
    "longitude": 72.2914206090909,
    "id": 241957226
  },
  {
    "name": "tertiary",
    "category": "highway",
    "subcategory": "tertiary",
    "latitude": 32.295949836842105,
    "longitude": 72.28779156842106,
    "id": 241957228
  },
  {
    "name": "tertiary",
    "category": "highway",
    "subcategory": "tertiary",
    "latitude": 32.30577768333333,
    "longitude": 72.2824985,
    "id": 241957236
  },
  {
    "name": "tertiary",
    "category": "highway",
    "subcategory": "tertiary",
    "latitude": 32.29419675,
    "longitude": 72.2748010375,
    "id": 241957245
  },
  {
    "name": "دارالاسلام روڈ",
    "category": "highway",
    "subcategory": "unclassified",
    "latitude": 32.28685753617022,
    "longitude": 72.26269602553192,
    "id": 241957247
  },
  {
    "name": "secondary",
    "category": "highway",
    "subcategory": "secondary",
    "latitude": 32.28710066666667,
    "longitude": 72.29439878888888,
    "id": 241957260
  },
  {
    "name": "residential",
    "category": "landuse",
    "subcategory": "residential",
    "latitude": 32.31699102,
    "longitude": 72.28572086,
    "id": 241957285
  },
  {
    "name": "residential",
    "category": "landuse",
    "subcategory": "residential",
    "latitude": 32.326291899999994,
    "longitude": 72.2941102,
    "id": 241957287
  },
  {
    "name": "Muzafargarh Road",
    "category": "highway",
    "subcategory": "primary",
    "latitude": 32.204340165384615,
    "longitude": 72.24191783461539,
    "id": 305485387
  },
  {
    "name": "secondary",
    "category": "highway",
    "subcategory": "secondary",
    "latitude": 32.289132941666665,
    "longitude": 72.27602122500001,
    "id": 305641188
  },
  {
    "name": "Market Road",
    "category": "highway",
    "subcategory": "secondary",
    "latitude": 32.28710725,
    "longitude": 72.27610575,
    "id": 305641189
  },
  {
    "name": "secondary",
    "category": "highway",
    "subcategory": "secondary",
    "latitude": 32.28404933076923,
    "longitude": 72.27600173076924,
    "id": 305641190
  },
  {
    "name": "Bank Road",
    "category": "highway",
    "subcategory": "tertiary",
    "latitude": 32.2893834875,
    "longitude": 72.2781412375,
    "id": 305641191
  },
  {
    "name": "residential",
    "category": "highway",
    "subcategory": "residential",
    "latitude": 32.28587056666667,
    "longitude": 72.2781165,
    "id": 305641192
  },
  {
    "name": "residential",
    "category": "highway",
    "subcategory": "residential",
    "latitude": 32.28541963333333,
    "longitude": 72.27669776666667,
    "id": 305641193
  },
  {
    "name": "residential",
    "category": "highway",
    "subcategory": "residential",
    "latitude": 32.2854017,
    "longitude": 72.27734084000001,
    "id": 305641194
  },
  {
    "name": "residential",
    "category": "highway",
    "subcategory": "residential",
    "latitude": 32.28636004285714,
    "longitude": 72.27964775,
    "id": 305641195
  },
  {
    "name": "residential",
    "category": "highway",
    "subcategory": "residential",
    "latitude": 32.286713775,
    "longitude": 72.27844487499999,
    "id": 305641196
  },
  {
    "name": "residential",
    "category": "highway",
    "subcategory": "residential",
    "latitude": 32.285404766666666,
    "longitude": 72.2767526,
    "id": 305641197
  },
  {
    "name": "residential",
    "category": "highway",
    "subcategory": "residential",
    "latitude": 32.284917033333336,
    "longitude": 72.27811336666667,
    "id": 305641198
  },
  {
    "name": "tertiary",
    "category": "highway",
    "subcategory": "tertiary",
    "latitude": 32.28205835,
    "longitude": 72.27812635000001,
    "id": 305641199
  },
  {
    "name": "residential",
    "category": "highway",
    "subcategory": "residential",
    "latitude": 32.28574186666666,
    "longitude": 72.28191120000001,
    "id": 305641200
  },
  {
    "name": "residential",
    "category": "highway",
    "subcategory": "residential",
    "latitude": 32.28673275,
    "longitude": 72.28319375,
    "id": 305641201
  },
  {
    "name": "residential",
    "category": "highway",
    "subcategory": "residential",
    "latitude": 32.28671565,
    "longitude": 72.28705665,
    "id": 305641202
  },
  {
    "name": "residential",
    "category": "highway",
    "subcategory": "residential",
    "latitude": 32.28592767777778,
    "longitude": 72.28631154444444,
    "id": 305641203
  },
  {
    "name": "residential",
    "category": "highway",
    "subcategory": "residential",
    "latitude": 32.285365866666666,
    "longitude": 72.28696933333333,
    "id": 305641204
  },
  {
    "name": "residential",
    "category": "highway",
    "subcategory": "residential",
    "latitude": 32.286587966666666,
    "longitude": 72.28489276666666,
    "id": 305641205
  },
  {
    "name": "residential",
    "category": "highway",
    "subcategory": "residential",
    "latitude": 32.28539864,
    "longitude": 72.28334952,
    "id": 305641206
  },
  {
    "name": "residential",
    "category": "highway",
    "subcategory": "residential",
    "latitude": 32.28441985,
    "longitude": 72.28448915,
    "id": 305641207
  },
  {
    "name": "residential",
    "category": "highway",
    "subcategory": "residential",
    "latitude": 32.2858859,
    "longitude": 72.2841213,
    "id": 305641208
  },
  {
    "name": "residential",
    "category": "highway",
    "subcategory": "residential",
    "latitude": 32.2840867,
    "longitude": 72.28493130000001,
    "id": 305641209
  },
  {
    "name": "residential",
    "category": "highway",
    "subcategory": "residential",
    "latitude": 32.287461444444446,
    "longitude": 72.2808299888889,
    "id": 305641210
  },
  {
    "name": "tertiary",
    "category": "highway",
    "subcategory": "tertiary",
    "latitude": 32.2891997,
    "longitude": 72.2790139625,
    "id": 305641211
  },
  {
    "name": "residential",
    "category": "highway",
    "subcategory": "residential",
    "latitude": 32.28999361666666,
    "longitude": 72.27855346666666,
    "id": 305641212
  },
  {
    "name": "residential",
    "category": "highway",
    "subcategory": "residential",
    "latitude": 32.28957316666666,
    "longitude": 72.28036425,
    "id": 305641213
  },
  {
    "name": "residential",
    "category": "highway",
    "subcategory": "residential",
    "latitude": 32.2882763,
    "longitude": 72.282036675,
    "id": 305641214
  },
  {
    "name": "residential",
    "category": "highway",
    "subcategory": "residential",
    "latitude": 32.2878373,
    "longitude": 72.2799959,
    "id": 305641215
  },
  {
    "name": "residential",
    "category": "highway",
    "subcategory": "residential",
    "latitude": 32.28837584,
    "longitude": 72.27878236000001,
    "id": 305641216
  },
  {
    "name": "residential",
    "category": "highway",
    "subcategory": "residential",
    "latitude": 32.288516433333335,
    "longitude": 72.27670413333334,
    "id": 305641217
  },
  {
    "name": "residential",
    "category": "highway",
    "subcategory": "residential",
    "latitude": 32.28854768,
    "longitude": 72.27741244,
    "id": 305641218
  },
  {
    "name": "residential",
    "category": "highway",
    "subcategory": "residential",
    "latitude": 32.28827115,
    "longitude": 72.27845884999999,
    "id": 305641219
  },
  {
    "name": "residential",
    "category": "highway",
    "subcategory": "residential",
    "latitude": 32.28866313333333,
    "longitude": 72.28038893333333,
    "id": 305641221
  },
  {
    "name": "secondary",
    "category": "highway",
    "subcategory": "secondary",
    "latitude": 32.283931975,
    "longitude": 72.2944195,
    "id": 305641362
  },
  {
    "name": "tertiary",
    "category": "highway",
    "subcategory": "tertiary",
    "latitude": 32.283064100000004,
    "longitude": 72.29188074,
    "id": 305641485
  },
  {
    "name": "residential",
    "category": "highway",
    "subcategory": "residential",
    "latitude": 32.28495306,
    "longitude": 72.28976,
    "id": 305641558
  },
  {
    "name": "residential",
    "category": "highway",
    "subcategory": "residential",
    "latitude": 32.284282600000004,
    "longitude": 72.28850223333335,
    "id": 305641559
  },
  {
    "name": "residential",
    "category": "highway",
    "subcategory": "residential",
    "latitude": 32.283963625,
    "longitude": 72.291361575,
    "id": 305641560
  },
  {
    "name": "residential",
    "category": "highway",
    "subcategory": "residential",
    "latitude": 32.284132525,
    "longitude": 72.289829725,
    "id": 305641561
  },
  {
    "name": "residential",
    "category": "highway",
    "subcategory": "residential",
    "latitude": 32.282434566666666,
    "longitude": 72.2886065,
    "id": 305641562
  },
  {
    "name": "tertiary",
    "category": "highway",
    "subcategory": "tertiary",
    "latitude": 32.28868786363636,
    "longitude": 72.28496880909091,
    "id": 305754957
  },
  {
    "name": "tertiary",
    "category": "highway",
    "subcategory": "tertiary",
    "latitude": 32.290044675,
    "longitude": 72.28468835,
    "id": 305754958
  },
  {
    "name": "residential",
    "category": "highway",
    "subcategory": "residential",
    "latitude": 32.288985749999995,
    "longitude": 72.284308425,
    "id": 305754959
  },
  {
    "name": "residential",
    "category": "highway",
    "subcategory": "residential",
    "latitude": 32.288425000000004,
    "longitude": 72.28430399999999,
    "id": 305754960
  },
  {
    "name": "residential",
    "category": "highway",
    "subcategory": "residential",
    "latitude": 32.288781566666664,
    "longitude": 72.28334846666667,
    "id": 305754961
  },
  {
    "name": "residential",
    "category": "highway",
    "subcategory": "residential",
    "latitude": 32.28929146,
    "longitude": 72.28584262000001,
    "id": 305754962
  },
  {
    "name": "residential",
    "category": "highway",
    "subcategory": "residential",
    "latitude": 32.28808715,
    "longitude": 72.286303775,
    "id": 305754963
  },
  {
    "name": "residential",
    "category": "highway",
    "subcategory": "residential",
    "latitude": 32.28860733333334,
    "longitude": 72.28695623333333,
    "id": 305754964
  },
  {
    "name": "residential",
    "category": "highway",
    "subcategory": "residential",
    "latitude": 32.287953200000004,
    "longitude": 72.2848459,
    "id": 305754965
  },
  {
    "name": "residential",
    "category": "highway",
    "subcategory": "residential",
    "latitude": 32.2884363,
    "longitude": 72.28686096666667,
    "id": 305754966
  },
  {
    "name": "residential",
    "category": "highway",
    "subcategory": "residential",
    "latitude": 32.28586585,
    "longitude": 72.28560195,
    "id": 305754967
  },
  {
    "name": "tertiary",
    "category": "highway",
    "subcategory": "tertiary",
    "latitude": 32.2909681,
    "longitude": 72.2778244875,
    "id": 305754968
  },
  {
    "name": "residential",
    "category": "highway",
    "subcategory": "residential",
    "latitude": 32.29749496363636,
    "longitude": 72.27964883636365,
    "id": 305754969
  },
  {
    "name": "residential",
    "category": "highway",
    "subcategory": "residential",
    "latitude": 32.29849425789474,
    "longitude": 72.27125532105262,
    "id": 305754970
  },
  {
    "name": "residential",
    "category": "highway",
    "subcategory": "residential",
    "latitude": 32.295496299999996,
    "longitude": 72.281949,
    "id": 305754971
  },
  {
    "name": "residential",
    "category": "highway",
    "subcategory": "residential",
    "latitude": 32.2961343,
    "longitude": 72.2858243,
    "id": 305754972
  },
  {
    "name": "residential",
    "category": "highway",
    "subcategory": "residential",
    "latitude": 32.2950693,
    "longitude": 72.28594030000001,
    "id": 305754973
  },
  {
    "name": "residential",
    "category": "highway",
    "subcategory": "residential",
    "latitude": 32.2990296,
    "longitude": 72.28584615,
    "id": 305754974
  },
  {
    "name": "unclassified",
    "category": "highway",
    "subcategory": "unclassified",
    "latitude": 32.302657133333334,
    "longitude": 72.28541969999999,
    "id": 305754975
  },
  {
    "name": "Khushab-Mianwali Road",
    "category": "highway",
    "subcategory": "trunk",
    "latitude": 32.2977878375,
    "longitude": 72.12563332604167,
    "id": 353527485
  },
  {
    "name": "Khushab-Mianwali Road",
    "category": "highway",
    "subcategory": "trunk",
    "latitude": 32.29286565,
    "longitude": 72.26714635,
    "id": 353527486
  },
  {
    "name": "جوہر آباد روڈ",
    "category": "highway",
    "subcategory": "trunk",
    "latitude": 32.2931653362069,
    "longitude": 72.31496586896552,
    "id": 353527487
  },
  {
    "name": "tertiary",
    "category": "highway",
    "subcategory": "tertiary",
    "latitude": 32.2921227,
    "longitude": 72.27368545,
    "id": 353527488
  },
  {
    "name": "جوہر آباد روڈ",
    "category": "highway",
    "subcategory": "trunk",
    "latitude": 32.29395227826087,
    "longitude": 72.3226372673913,
    "id": 353527489
  },
  {
    "name": "residential",
    "category": "highway",
    "subcategory": "residential",
    "latitude": 32.27326632857143,
    "longitude": 72.26574998571428,
    "id": 361218958
  },
  {
    "name": "unclassified",
    "category": "highway",
    "subcategory": "unclassified",
    "latitude": 32.28085767647059,
    "longitude": 72.26081749705882,
    "id": 361218959
  },
  {
    "name": "residential",
    "category": "highway",
    "subcategory": "residential",
    "latitude": 32.27393538571429,
    "longitude": 72.26535577142856,
    "id": 361218960
  },
  {
    "name": "residential",
    "category": "highway",
    "subcategory": "residential",
    "latitude": 32.273792549999996,
    "longitude": 72.26526129999999,
    "id": 361218961
  },
  {
    "name": "residential",
    "category": "highway",
    "subcategory": "residential",
    "latitude": 32.27370135,
    "longitude": 72.265580575,
    "id": 361218962
  },
  {
    "name": "residential",
    "category": "highway",
    "subcategory": "residential",
    "latitude": 32.275971811764705,
    "longitude": 72.26683196470587,
    "id": 361218963
  },
  {
    "name": "residential",
    "category": "highway",
    "subcategory": "residential",
    "latitude": 32.28030341666667,
    "longitude": 72.2681626,
    "id": 361218964
  },
  {
    "name": "residential",
    "category": "highway",
    "subcategory": "residential",
    "latitude": 32.2810206125,
    "longitude": 72.268230175,
    "id": 361218965
  },
  {
    "name": "residential",
    "category": "highway",
    "subcategory": "residential",
    "latitude": 32.280188929999994,
    "longitude": 72.26672343,
    "id": 361218966
  },
  {
    "name": "residential",
    "category": "highway",
    "subcategory": "residential",
    "latitude": 32.27932428571428,
    "longitude": 72.26729101428572,
    "id": 361218967
  },
  {
    "name": "residential",
    "category": "highway",
    "subcategory": "residential",
    "latitude": 32.279567533333335,
    "longitude": 72.2674954,
    "id": 361218968
  },
  {
    "name": "residential",
    "category": "highway",
    "subcategory": "residential",
    "latitude": 32.275088466666666,
    "longitude": 72.26705903333333,
    "id": 361218972
  },
  {
    "name": "residential",
    "category": "highway",
    "subcategory": "residential",
    "latitude": 32.276021400000005,
    "longitude": 72.26745045,
    "id": 361218973
  },
  {
    "name": "Officers Colony",
    "category": "landuse",
    "subcategory": "residential",
    "latitude": 32.277622515789474,
    "longitude": 72.26615285263158,
    "id": 361219093
  },
  {
    "name": "residential",
    "category": "highway",
    "subcategory": "residential",
    "latitude": 32.28832845,
    "longitude": 72.27635955,
    "id": 369906082
  },
  {
    "name": "residential",
    "category": "highway",
    "subcategory": "residential",
    "latitude": 32.28816915,
    "longitude": 72.2770554,
    "id": 369906083
  },
  {
    "name": "residential",
    "category": "highway",
    "subcategory": "residential",
    "latitude": 32.2879087,
    "longitude": 72.2770533,
    "id": 369906084
  },
  {
    "name": "residential",
    "category": "highway",
    "subcategory": "residential",
    "latitude": 32.29413718,
    "longitude": 72.32653457,
    "id": 382417821
  },
  {
    "name": "residential",
    "category": "highway",
    "subcategory": "residential",
    "latitude": 32.294612907142856,
    "longitude": 72.32659340000001,
    "id": 382417823
  },
  {
    "name": "residential",
    "category": "highway",
    "subcategory": "residential",
    "latitude": 32.29434151428571,
    "longitude": 72.32551902857143,
    "id": 382417824
  },
  {
    "name": "residential",
    "category": "highway",
    "subcategory": "residential",
    "latitude": 32.29478604285715,
    "longitude": 72.3254578,
    "id": 382417825
  },
  {
    "name": "residential",
    "category": "highway",
    "subcategory": "residential",
    "latitude": 32.29511380666666,
    "longitude": 72.32712174666668,
    "id": 382417827
  },
  {
    "name": "residential",
    "category": "highway",
    "subcategory": "residential",
    "latitude": 32.2949412,
    "longitude": 72.32680895,
    "id": 382417828
  },
  {
    "name": "residential",
    "category": "highway",
    "subcategory": "residential",
    "latitude": 32.29556925,
    "longitude": 72.326953025,
    "id": 382417831
  },
  {
    "name": "residential",
    "category": "highway",
    "subcategory": "residential",
    "latitude": 32.29563172,
    "longitude": 72.32766251999999,
    "id": 382417833
  },
  {
    "name": "residential",
    "category": "highway",
    "subcategory": "residential",
    "latitude": 32.295639175,
    "longitude": 72.3265447,
    "id": 382417834
  },
  {
    "name": "residential",
    "category": "highway",
    "subcategory": "residential",
    "latitude": 32.29542712,
    "longitude": 72.32589374,
    "id": 382417835
  },
  {
    "name": "residential",
    "category": "highway",
    "subcategory": "residential",
    "latitude": 32.295463825,
    "longitude": 72.32541465,
    "id": 382417837
  },
  {
    "name": "residential",
    "category": "highway",
    "subcategory": "residential",
    "latitude": 32.2957596,
    "longitude": 72.32573113333333,
    "id": 382417838
  },
  {
    "name": "residential",
    "category": "highway",
    "subcategory": "residential",
    "latitude": 32.296098799999996,
    "longitude": 72.32643122857142,
    "id": 382417839
  },
  {
    "name": "residential",
    "category": "highway",
    "subcategory": "residential",
    "latitude": 32.295908499999996,
    "longitude": 72.32769235,
    "id": 382417840
  },
  {
    "name": "residential",
    "category": "highway",
    "subcategory": "residential",
    "latitude": 32.2944789,
    "longitude": 72.3268717,
    "id": 382417842
  },
  {
    "name": "fuel",
    "category": "amenity",
    "subcategory": "fuel",
    "latitude": 32.29350676666667,
    "longitude": 72.32799946666667,
    "id": 382423601
  },
  {
    "name": "service",
    "category": "highway",
    "subcategory": "service",
    "latitude": 32.291437988235295,
    "longitude": 72.32807717058824,
    "id": 382423953
  },
  {
    "name": "tertiary",
    "category": "highway",
    "subcategory": "tertiary",
    "latitude": 32.290453271428575,
    "longitude": 72.32712797142857,
    "id": 382424138
  },
  {
    "name": "tertiary",
    "category": "highway",
    "subcategory": "tertiary",
    "latitude": 32.290319849999996,
    "longitude": 72.3267841,
    "id": 382424139
  },
  {
    "name": "tertiary",
    "category": "highway",
    "subcategory": "tertiary",
    "latitude": 32.290632175,
    "longitude": 72.327046975,
    "id": 382424140
  },
  {
    "name": "tertiary",
    "category": "highway",
    "subcategory": "tertiary",
    "latitude": 32.29012916666667,
    "longitude": 72.327929,
    "id": 382424141
  },
  {
    "name": "tertiary",
    "category": "highway",
    "subcategory": "tertiary",
    "latitude": 32.290040575,
    "longitude": 72.32733805000001,
    "id": 382424142
  },
  {
    "name": "Police Line Ground",
    "category": "amenity",
    "subcategory": "police",
    "latitude": 32.2694377,
    "longitude": 72.26398418,
    "id": 432730421
  },
  {
    "name": "Khaliqabad Jauharabad Road",
    "category": "highway",
    "subcategory": "tertiary",
    "latitude": 32.31849833846154,
    "longitude": 72.28992505384615,
    "id": 432802720
  },
  {
    "name": "Jauharabad Plantation",
    "category": "landuse",
    "subcategory": "forest",
    "latitude": 32.29758598235294,
    "longitude": 72.29731662941175,
    "id": 432844374
  },
  {
    "name": "residential",
    "category": "highway",
    "subcategory": "residential",
    "latitude": 32.274784600000004,
    "longitude": 72.2656844,
    "id": 444997215
  },
  {
    "name": "residential",
    "category": "highway",
    "subcategory": "residential",
    "latitude": 32.27559805,
    "longitude": 72.26607820000001,
    "id": 444997216
  },
  {
    "name": "residential",
    "category": "highway",
    "subcategory": "residential",
    "latitude": 32.2755876,
    "longitude": 72.26654955000001,
    "id": 444997217
  },
  {
    "name": "residential",
    "category": "highway",
    "subcategory": "residential",
    "latitude": 32.2758101,
    "longitude": 72.2663883,
    "id": 444997218
  },
  {
    "name": "residential",
    "category": "highway",
    "subcategory": "residential",
    "latitude": 32.2759748,
    "longitude": 72.26661055,
    "id": 444997219
  },
  {
    "name": "residential",
    "category": "highway",
    "subcategory": "residential",
    "latitude": 32.2748441,
    "longitude": 72.26601973333334,
    "id": 444997220
  },
  {
    "name": "yes",
    "category": "shop",
    "subcategory": "yes",
    "latitude": 32.27392852,
    "longitude": 72.26594614000001,
    "id": 444997224
  },
  {
    "name": "Muzafargarh Road",
    "category": "highway",
    "subcategory": "primary",
    "latitude": 32.281749833333336,
    "longitude": 72.26996970555555,
    "id": 444997610
  },
  {
    "name": "Khushab-Girot Road",
    "category": "highway",
    "subcategory": "secondary",
    "latitude": 32.181362799173556,
    "longitude": 72.2947304322314,
    "id": 563943658
  },
  {
    "name": "Khushab - Sakesar Road",
    "category": "highway",
    "subcategory": "secondary",
    "latitude": 32.36197296111111,
    "longitude": 72.28466337777779,
    "id": 563951064
  },
  {
    "name": "residential",
    "category": "highway",
    "subcategory": "residential",
    "latitude": 32.296614866666665,
    "longitude": 72.27757226666667,
    "id": 658547040
  },
  {
    "name": "residential",
    "category": "highway",
    "subcategory": "residential",
    "latitude": 32.29857126666666,
    "longitude": 72.27907346666667,
    "id": 658547041
  },
  {
    "name": "residential",
    "category": "highway",
    "subcategory": "residential",
    "latitude": 32.29857346666666,
    "longitude": 72.2784915,
    "id": 658547042
  },
  {
    "name": "residential",
    "category": "highway",
    "subcategory": "residential",
    "latitude": 32.29858016666667,
    "longitude": 72.2767148,
    "id": 658547043
  },
  {
    "name": "residential",
    "category": "highway",
    "subcategory": "residential",
    "latitude": 32.2985779,
    "longitude": 72.27731926666667,
    "id": 658547044
  },
  {
    "name": "residential",
    "category": "highway",
    "subcategory": "residential",
    "latitude": 32.29855431428572,
    "longitude": 72.27819818571429,
    "id": 658547045
  },
  {
    "name": "residential",
    "category": "highway",
    "subcategory": "residential",
    "latitude": 32.298978524999995,
    "longitude": 72.279658775,
    "id": 658547046
  },
  {
    "name": "residential",
    "category": "highway",
    "subcategory": "residential",
    "latitude": 32.29966568333333,
    "longitude": 72.27790386666668,
    "id": 658547047
  },
  {
    "name": "residential",
    "category": "highway",
    "subcategory": "residential",
    "latitude": 32.29685165,
    "longitude": 72.2790629,
    "id": 658547048
  },
  {
    "name": "residential",
    "category": "highway",
    "subcategory": "residential",
    "latitude": 32.29561135,
    "longitude": 72.27840549999999,
    "id": 658547049
  },
  {
    "name": "residential",
    "category": "highway",
    "subcategory": "residential",
    "latitude": 32.2950679,
    "longitude": 72.2795526,
    "id": 658547050
  },
  {
    "name": "residential",
    "category": "highway",
    "subcategory": "residential",
    "latitude": 32.29500604,
    "longitude": 72.27905842,
    "id": 658547051
  },
  {
    "name": "residential",
    "category": "highway",
    "subcategory": "residential",
    "latitude": 32.29449565,
    "longitude": 72.27841455000001,
    "id": 658547052
  },
  {
    "name": "residential",
    "category": "highway",
    "subcategory": "residential",
    "latitude": 32.295066125,
    "longitude": 72.27775845,
    "id": 658547053
  },
  {
    "name": "residential",
    "category": "highway",
    "subcategory": "residential",
    "latitude": 32.29619936,
    "longitude": 72.27824932,
    "id": 658547054
  },
  {
    "name": "residential",
    "category": "highway",
    "subcategory": "residential",
    "latitude": 32.30128767777777,
    "longitude": 72.27706578888889,
    "id": 658547055
  },
  {
    "name": "residential",
    "category": "highway",
    "subcategory": "residential",
    "latitude": 32.29731553333333,
    "longitude": 72.27301596666666,
    "id": 658547056
  },
  {
    "name": "residential",
    "category": "highway",
    "subcategory": "residential",
    "latitude": 32.29712375,
    "longitude": 72.27407885,
    "id": 658547057
  },
  {
    "name": "residential",
    "category": "highway",
    "subcategory": "residential",
    "latitude": 32.29612285,
    "longitude": 72.27244105,
    "id": 658547058
  },
  {
    "name": "residential",
    "category": "highway",
    "subcategory": "residential",
    "latitude": 32.296077200000006,
    "longitude": 72.27189476666666,
    "id": 658547059
  },
  {
    "name": "residential",
    "category": "highway",
    "subcategory": "residential",
    "latitude": 32.29576992857143,
    "longitude": 72.27258332857143,
    "id": 658547060
  },
  {
    "name": "residential",
    "category": "highway",
    "subcategory": "residential",
    "latitude": 32.29617473333334,
    "longitude": 72.27231224166667,
    "id": 658547061
  },
  {
    "name": "residential",
    "category": "highway",
    "subcategory": "residential",
    "latitude": 32.2958763,
    "longitude": 72.2740148,
    "id": 658547062
  },
  {
    "name": "residential",
    "category": "highway",
    "subcategory": "residential",
    "latitude": 32.29447675,
    "longitude": 72.27341653333333,
    "id": 658547063
  },
  {
    "name": "residential",
    "category": "highway",
    "subcategory": "residential",
    "latitude": 32.2949104,
    "longitude": 72.2727546,
    "id": 658547064
  },
  {
    "name": "residential",
    "category": "highway",
    "subcategory": "residential",
    "latitude": 32.29810314615385,
    "longitude": 72.26444889230768,
    "id": 658547065
  },
  {
    "name": "residential",
    "category": "highway",
    "subcategory": "residential",
    "latitude": 32.299097925,
    "longitude": 72.267276075,
    "id": 658547066
  },
  {
    "name": "residential",
    "category": "highway",
    "subcategory": "residential",
    "latitude": 32.29989798,
    "longitude": 72.26823612000001,
    "id": 658547067
  },
  {
    "name": "residential",
    "category": "highway",
    "subcategory": "residential",
    "latitude": 32.299476920000004,
    "longitude": 72.26829296000001,
    "id": 658547069
  },
  {
    "name": "residential",
    "category": "highway",
    "subcategory": "residential",
    "latitude": 32.299930585714286,
    "longitude": 72.26853078571428,
    "id": 658547070
  },
  {
    "name": "residential",
    "category": "highway",
    "subcategory": "residential",
    "latitude": 32.300995625,
    "longitude": 72.26593414999999,
    "id": 658547071
  },
  {
    "name": "residential",
    "category": "highway",
    "subcategory": "residential",
    "latitude": 32.30059972857143,
    "longitude": 72.26773519999999,
    "id": 658547072
  },
  {
    "name": "residential",
    "category": "highway",
    "subcategory": "residential",
    "latitude": 32.29757518571429,
    "longitude": 72.2671121,
    "id": 658547073
  },
  {
    "name": "residential",
    "category": "highway",
    "subcategory": "residential",
    "latitude": 32.301209799999995,
    "longitude": 72.26762214,
    "id": 658547074
  },
  {
    "name": "residential",
    "category": "highway",
    "subcategory": "residential",
    "latitude": 32.29950545625,
    "longitude": 72.2647935625,
    "id": 658547075
  },
  {
    "name": "residential",
    "category": "highway",
    "subcategory": "residential",
    "latitude": 32.29797201666667,
    "longitude": 72.27148724999999,
    "id": 658547076
  },
  {
    "name": "residential",
    "category": "highway",
    "subcategory": "residential",
    "latitude": 32.302210349999996,
    "longitude": 72.2720137,
    "id": 658548111
  },
  {
    "name": "residential",
    "category": "highway",
    "subcategory": "residential",
    "latitude": 32.3019016,
    "longitude": 72.27185555,
    "id": 658548112
  },
  {
    "name": "residential",
    "category": "highway",
    "subcategory": "residential",
    "latitude": 32.296757725,
    "longitude": 72.2632278875,
    "id": 658548113
  },
  {
    "name": "residential",
    "category": "highway",
    "subcategory": "residential",
    "latitude": 32.29469015,
    "longitude": 72.2693639,
    "id": 658548114
  },
  {
    "name": "residential",
    "category": "highway",
    "subcategory": "residential",
    "latitude": 32.2950576,
    "longitude": 72.2693405,
    "id": 658548115
  },
  {
    "name": "residential",
    "category": "highway",
    "subcategory": "residential",
    "latitude": 32.295844933333335,
    "longitude": 72.26945946666666,
    "id": 658548116
  },
  {
    "name": "residential",
    "category": "highway",
    "subcategory": "residential",
    "latitude": 32.29716533333333,
    "longitude": 72.2694689,
    "id": 658548117
  },
  {
    "name": "residential",
    "category": "highway",
    "subcategory": "residential",
    "latitude": 32.295580683333334,
    "longitude": 72.26957399999999,
    "id": 658548118
  },
  {
    "name": "residential",
    "category": "highway",
    "subcategory": "residential",
    "latitude": 32.29249328181818,
    "longitude": 72.28877636818181,
    "id": 658548119
  },
  {
    "name": "residential",
    "category": "highway",
    "subcategory": "residential",
    "latitude": 32.29311735,
    "longitude": 72.2885259,
    "id": 658548120
  },
  {
    "name": "residential",
    "category": "highway",
    "subcategory": "residential",
    "latitude": 32.2937057,
    "longitude": 72.29235076666667,
    "id": 658548121
  },
  {
    "name": "residential",
    "category": "highway",
    "subcategory": "residential",
    "latitude": 32.29469206666666,
    "longitude": 72.28973353333333,
    "id": 658548122
  },
  {
    "name": "residential",
    "category": "highway",
    "subcategory": "residential",
    "latitude": 32.29475877142857,
    "longitude": 72.28834087142857,
    "id": 658548123
  },
  {
    "name": "residential",
    "category": "highway",
    "subcategory": "residential",
    "latitude": 32.2941512,
    "longitude": 72.2896772,
    "id": 658548124
  },
  {
    "name": "residential",
    "category": "highway",
    "subcategory": "residential",
    "latitude": 32.29361328571429,
    "longitude": 72.28974028571429,
    "id": 658548125
  },
  {
    "name": "residential",
    "category": "highway",
    "subcategory": "residential",
    "latitude": 32.29638426666667,
    "longitude": 72.28838383333333,
    "id": 658548126
  },
  {
    "name": "residential",
    "category": "highway",
    "subcategory": "residential",
    "latitude": 32.29585103333333,
    "longitude": 72.28837525,
    "id": 658548127
  },
  {
    "name": "residential",
    "category": "highway",
    "subcategory": "residential",
    "latitude": 32.29458045,
    "longitude": 72.28618605,
    "id": 658548129
  },
  {
    "name": "residential",
    "category": "highway",
    "subcategory": "residential",
    "latitude": 32.29409703333334,
    "longitude": 72.28593393333334,
    "id": 658548130
  },
  {
    "name": "residential",
    "category": "highway",
    "subcategory": "residential",
    "latitude": 32.29853715,
    "longitude": 72.27459595,
    "id": 658548131
  },
  {
    "name": "residential",
    "category": "highway",
    "subcategory": "residential",
    "latitude": 32.301261233333335,
    "longitude": 72.27455723333334,
    "id": 658548132
  },
  {
    "name": "residential",
    "category": "highway",
    "subcategory": "residential",
    "latitude": 32.30190692857143,
    "longitude": 72.27445909999999,
    "id": 658548133
  },
  {
    "name": "residential",
    "category": "highway",
    "subcategory": "residential",
    "latitude": 32.30245855,
    "longitude": 72.27398865,
    "id": 658548134
  },
  {
    "name": "residential",
    "category": "highway",
    "subcategory": "residential",
    "latitude": 32.3022475,
    "longitude": 72.27348456666667,
    "id": 658548135
  },
  {
    "name": "residential",
    "category": "highway",
    "subcategory": "residential",
    "latitude": 32.302181739999995,
    "longitude": 72.27402248,
    "id": 658548136
  },
  {
    "name": "residential",
    "category": "highway",
    "subcategory": "residential",
    "latitude": 32.303508675,
    "longitude": 72.2721627,
    "id": 658548137
  },
  {
    "name": "residential",
    "category": "highway",
    "subcategory": "residential",
    "latitude": 32.29945113333333,
    "longitude": 72.2820504,
    "id": 658548138
  },
  {
    "name": "residential",
    "category": "highway",
    "subcategory": "residential",
    "latitude": 32.299199349999995,
    "longitude": 72.28104450000001,
    "id": 658548139
  },
  {
    "name": "residential",
    "category": "highway",
    "subcategory": "residential",
    "latitude": 32.30410215,
    "longitude": 72.2819401,
    "id": 658548140
  },
  {
    "name": "residential",
    "category": "highway",
    "subcategory": "residential",
    "latitude": 32.30079163333333,
    "longitude": 72.27855283333334,
    "id": 658548141
  },
  {
    "name": "residential",
    "category": "highway",
    "subcategory": "residential",
    "latitude": 32.30194148571429,
    "longitude": 72.27834148571428,
    "id": 658548142
  },
  {
    "name": "residential",
    "category": "highway",
    "subcategory": "residential",
    "latitude": 32.30091856666667,
    "longitude": 72.27739596666667,
    "id": 658548143
  },
  {
    "name": "residential",
    "category": "highway",
    "subcategory": "residential",
    "latitude": 32.301414125,
    "longitude": 72.2768879,
    "id": 658548144
  },
  {
    "name": "residential",
    "category": "highway",
    "subcategory": "residential",
    "latitude": 32.30344156666666,
    "longitude": 72.27779383333333,
    "id": 658548145
  },
  {
    "name": "residential",
    "category": "highway",
    "subcategory": "residential",
    "latitude": 32.30447598333333,
    "longitude": 72.27884354999999,
    "id": 658548146
  },
  {
    "name": "residential",
    "category": "highway",
    "subcategory": "residential",
    "latitude": 32.30299313333333,
    "longitude": 72.2797891,
    "id": 658548147
  },
  {
    "name": "residential",
    "category": "highway",
    "subcategory": "residential",
    "latitude": 32.30322906666667,
    "longitude": 72.27876918333334,
    "id": 658548148
  },
  {
    "name": "residential",
    "category": "highway",
    "subcategory": "residential",
    "latitude": 32.3052145,
    "longitude": 72.27892100000001,
    "id": 658548149
  },
  {
    "name": "residential",
    "category": "highway",
    "subcategory": "residential",
    "latitude": 32.28360834285714,
    "longitude": 72.26522667142856,
    "id": 658552913
  },
  {
    "name": "residential",
    "category": "highway",
    "subcategory": "residential",
    "latitude": 32.283449974999996,
    "longitude": 72.2680663,
    "id": 658552914
  },
  {
    "name": "residential",
    "category": "highway",
    "subcategory": "residential",
    "latitude": 32.2839436,
    "longitude": 72.26540433333334,
    "id": 658552915
  },
  {
    "name": "residential",
    "category": "highway",
    "subcategory": "residential",
    "latitude": 32.28344933333333,
    "longitude": 72.26699046666667,
    "id": 658552916
  },
  {
    "name": "residential",
    "category": "highway",
    "subcategory": "residential",
    "latitude": 32.284550466666666,
    "longitude": 72.2677236,
    "id": 658552917
  },
  {
    "name": "residential",
    "category": "highway",
    "subcategory": "residential",
    "latitude": 32.2840528625,
    "longitude": 72.267300925,
    "id": 658552918
  },
  {
    "name": "residential",
    "category": "highway",
    "subcategory": "residential",
    "latitude": 32.2841677,
    "longitude": 72.268468675,
    "id": 658552919
  },
  {
    "name": "residential",
    "category": "highway",
    "subcategory": "residential",
    "latitude": 32.2846306,
    "longitude": 72.26669386666667,
    "id": 658552920
  },
  {
    "name": "residential",
    "category": "highway",
    "subcategory": "residential",
    "latitude": 32.281667799999994,
    "longitude": 72.2675309,
    "id": 658552921
  },
  {
    "name": "residential",
    "category": "highway",
    "subcategory": "residential",
    "latitude": 32.28184578333333,
    "longitude": 72.26532441666667,
    "id": 658552922
  },
  {
    "name": "residential",
    "category": "highway",
    "subcategory": "residential",
    "latitude": 32.28117195714286,
    "longitude": 72.264556,
    "id": 658552923
  },
  {
    "name": "residential",
    "category": "highway",
    "subcategory": "residential",
    "latitude": 32.2825432,
    "longitude": 72.26951171428571,
    "id": 658552924
  },
  {
    "name": "residential",
    "category": "highway",
    "subcategory": "residential",
    "latitude": 32.2833106,
    "longitude": 72.26919705,
    "id": 658552925
  },
  {
    "name": "residential",
    "category": "highway",
    "subcategory": "residential",
    "latitude": 32.28265583333334,
    "longitude": 72.26873669999999,
    "id": 658552926
  },
  {
    "name": "residential",
    "category": "highway",
    "subcategory": "residential",
    "latitude": 32.28193054285714,
    "longitude": 72.2679403,
    "id": 658552927
  },
  {
    "name": "residential",
    "category": "highway",
    "subcategory": "residential",
    "latitude": 32.281724849999996,
    "longitude": 72.26704451666667,
    "id": 658552928
  },
  {
    "name": "residential",
    "category": "highway",
    "subcategory": "residential",
    "latitude": 32.28285694,
    "longitude": 72.26536537,
    "id": 658552929
  },
  {
    "name": "residential",
    "category": "highway",
    "subcategory": "residential",
    "latitude": 32.28506115555555,
    "longitude": 72.26418617777777,
    "id": 658552930
  },
  {
    "name": "residential",
    "category": "highway",
    "subcategory": "residential",
    "latitude": 32.282406466666664,
    "longitude": 72.27092376666667,
    "id": 658552931
  },
  {
    "name": "residential",
    "category": "highway",
    "subcategory": "residential",
    "latitude": 32.280516399999996,
    "longitude": 72.2727514,
    "id": 658552932
  },
  {
    "name": "residential",
    "category": "highway",
    "subcategory": "residential",
    "latitude": 32.28046488,
    "longitude": 72.27393806,
    "id": 658552933
  },
  {
    "name": "residential",
    "category": "highway",
    "subcategory": "residential",
    "latitude": 32.280591775,
    "longitude": 72.2734571,
    "id": 658552934
  },
  {
    "name": "residential",
    "category": "highway",
    "subcategory": "residential",
    "latitude": 32.2814505,
    "longitude": 72.2736448,
    "id": 658552935
  },
  {
    "name": "residential",
    "category": "highway",
    "subcategory": "residential",
    "latitude": 32.281583825,
    "longitude": 72.27241925,
    "id": 658552936
  },
  {
    "name": "residential",
    "category": "highway",
    "subcategory": "residential",
    "latitude": 32.2827206,
    "longitude": 72.27348325,
    "id": 658552937
  },
  {
    "name": "residential",
    "category": "highway",
    "subcategory": "residential",
    "latitude": 32.285364566666665,
    "longitude": 72.27362753333334,
    "id": 658552938
  },
  {
    "name": "residential",
    "category": "highway",
    "subcategory": "residential",
    "latitude": 32.28573585714286,
    "longitude": 72.27513651428572,
    "id": 658552939
  },
  {
    "name": "residential",
    "category": "highway",
    "subcategory": "residential",
    "latitude": 32.29140495,
    "longitude": 72.2746582,
    "id": 658552940
  },
  {
    "name": "residential",
    "category": "highway",
    "subcategory": "residential",
    "latitude": 32.2867295,
    "longitude": 72.27237701111112,
    "id": 658552941
  },
  {
    "name": "residential",
    "category": "highway",
    "subcategory": "residential",
    "latitude": 32.28440346666667,
    "longitude": 72.28666236666666,
    "id": 658552942
  },
  {
    "name": "residential",
    "category": "highway",
    "subcategory": "residential",
    "latitude": 32.2850935,
    "longitude": 72.286863775,
    "id": 658552943
  },
  {
    "name": "residential",
    "category": "highway",
    "subcategory": "residential",
    "latitude": 32.2861843,
    "longitude": 72.28699423333333,
    "id": 658552944
  },
  {
    "name": "residential",
    "category": "highway",
    "subcategory": "residential",
    "latitude": 32.29136785,
    "longitude": 72.27674945,
    "id": 658552945
  },
  {
    "name": "residential",
    "category": "highway",
    "subcategory": "residential",
    "latitude": 32.28960321428571,
    "longitude": 72.25565872857143,
    "id": 658555429
  },
  {
    "name": "residential",
    "category": "highway",
    "subcategory": "residential",
    "latitude": 32.29012515,
    "longitude": 72.25556005000001,
    "id": 658555431
  },
  {
    "name": "residential",
    "category": "highway",
    "subcategory": "residential",
    "latitude": 32.28985475,
    "longitude": 72.25670045,
    "id": 658555433
  },
  {
    "name": "residential",
    "category": "highway",
    "subcategory": "residential",
    "latitude": 32.2907111,
    "longitude": 72.25623411111111,
    "id": 658555436
  },
  {
    "name": "residential",
    "category": "highway",
    "subcategory": "residential",
    "latitude": 32.289905499999996,
    "longitude": 72.25832012857143,
    "id": 658555438
  },
  {
    "name": "residential",
    "category": "highway",
    "subcategory": "residential",
    "latitude": 32.290855566666664,
    "longitude": 72.25800006666667,
    "id": 658555441
  },
  {
    "name": "residential",
    "category": "highway",
    "subcategory": "residential",
    "latitude": 32.2915536,
    "longitude": 72.25533750000001,
    "id": 658555442
  },
  {
    "name": "residential",
    "category": "highway",
    "subcategory": "residential",
    "latitude": 32.29379896,
    "longitude": 72.2559676,
    "id": 658555444
  },
  {
    "name": "residential",
    "category": "highway",
    "subcategory": "residential",
    "latitude": 32.29201922857143,
    "longitude": 72.25583400000001,
    "id": 658555445
  },
  {
    "name": "residential",
    "category": "highway",
    "subcategory": "residential",
    "latitude": 32.2913182,
    "longitude": 72.256759625,
    "id": 658555446
  },
  {
    "name": "residential",
    "category": "highway",
    "subcategory": "residential",
    "latitude": 32.2916703,
    "longitude": 72.256677,
    "id": 658555447
  },
  {
    "name": "residential",
    "category": "highway",
    "subcategory": "residential",
    "latitude": 32.29204095,
    "longitude": 72.25670385000001,
    "id": 658555448
  },
  {
    "name": "residential",
    "category": "highway",
    "subcategory": "residential",
    "latitude": 32.29238575,
    "longitude": 72.25672474999999,
    "id": 658555449
  },
  {
    "name": "residential",
    "category": "highway",
    "subcategory": "residential",
    "latitude": 32.29099613636364,
    "longitude": 72.25705724545455,
    "id": 658555450
  },
  {
    "name": "residential",
    "category": "highway",
    "subcategory": "residential",
    "latitude": 32.29172023636364,
    "longitude": 72.25756914545455,
    "id": 658555451
  },
  {
    "name": "residential",
    "category": "highway",
    "subcategory": "residential",
    "latitude": 32.2815506,
    "longitude": 72.26447925,
    "id": 658555452
  },
  {
    "name": "residential",
    "category": "highway",
    "subcategory": "residential",
    "latitude": 32.2830578,
    "longitude": 72.2674998,
    "id": 658555453
  },
  {
    "name": "residential",
    "category": "highway",
    "subcategory": "residential",
    "latitude": 32.27633075,
    "longitude": 72.2663819,
    "id": 658555455
  },
  {
    "name": "residential",
    "category": "highway",
    "subcategory": "residential",
    "latitude": 32.2756107,
    "longitude": 72.26540915000001,
    "id": 658555456
  },
  {
    "name": "residential",
    "category": "highway",
    "subcategory": "residential",
    "latitude": 32.28950042857143,
    "longitude": 72.27202211428572,
    "id": 658555457
  },
  {
    "name": "secondary",
    "category": "highway",
    "subcategory": "secondary",
    "latitude": 32.283755575,
    "longitude": 72.283839725,
    "id": 658555458
  },
  {
    "name": "residential",
    "category": "highway",
    "subcategory": "residential",
    "latitude": 32.280666357142856,
    "longitude": 72.26447614285713,
    "id": 658555459
  },
  {
    "name": "residential",
    "category": "highway",
    "subcategory": "residential",
    "latitude": 32.279689175,
    "longitude": 72.264556675,
    "id": 658555460
  },
  {
    "name": "residential",
    "category": "highway",
    "subcategory": "residential",
    "latitude": 32.2801346,
    "longitude": 72.26579846666667,
    "id": 658555461
  },
  {
    "name": "residential",
    "category": "highway",
    "subcategory": "residential",
    "latitude": 32.28617885,
    "longitude": 72.26734775,
    "id": 658555462
  },
  {
    "name": "residential",
    "category": "highway",
    "subcategory": "residential",
    "latitude": 32.28490115,
    "longitude": 72.26139725,
    "id": 658555463
  },
  {
    "name": "residential",
    "category": "highway",
    "subcategory": "residential",
    "latitude": 32.284657,
    "longitude": 72.26262141111111,
    "id": 658555464
  },
  {
    "name": "residential",
    "category": "highway",
    "subcategory": "residential",
    "latitude": 32.284222575,
    "longitude": 72.26291815,
    "id": 658555465
  },
  {
    "name": "residential",
    "category": "highway",
    "subcategory": "residential",
    "latitude": 32.28468243333334,
    "longitude": 72.26331040000001,
    "id": 658555466
  },
  {
    "name": "residential",
    "category": "highway",
    "subcategory": "residential",
    "latitude": 32.283224249999996,
    "longitude": 72.26517203333334,
    "id": 658555467
  },
  {
    "name": "tertiary",
    "category": "highway",
    "subcategory": "tertiary",
    "latitude": 32.276230025,
    "longitude": 72.27166795000001,
    "id": 658555949
  },
  {
    "name": "residential",
    "category": "highway",
    "subcategory": "residential",
    "latitude": 32.2756775,
    "longitude": 72.27632013333333,
    "id": 658555950
  },
  {
    "name": "residential",
    "category": "highway",
    "subcategory": "residential",
    "latitude": 32.275308100000004,
    "longitude": 72.27678525,
    "id": 658555951
  },
  {
    "name": "residential",
    "category": "highway",
    "subcategory": "residential",
    "latitude": 32.276421133333336,
    "longitude": 72.27632416666667,
    "id": 658555952
  },
  {
    "name": "residential",
    "category": "highway",
    "subcategory": "residential",
    "latitude": 32.276791933333335,
    "longitude": 72.27632993333333,
    "id": 658555953
  },
  {
    "name": "residential",
    "category": "highway",
    "subcategory": "residential",
    "latitude": 32.277186066666665,
    "longitude": 72.27632743333334,
    "id": 658555954
  },
  {
    "name": "residential",
    "category": "highway",
    "subcategory": "residential",
    "latitude": 32.2775071,
    "longitude": 72.27632726666667,
    "id": 658555955
  },
  {
    "name": "residential",
    "category": "highway",
    "subcategory": "residential",
    "latitude": 32.277888775,
    "longitude": 72.275991025,
    "id": 658555956
  },
  {
    "name": "residential",
    "category": "highway",
    "subcategory": "residential",
    "latitude": 32.27512706875,
    "longitude": 72.27594953125,
    "id": 658555957
  },
  {
    "name": "residential",
    "category": "highway",
    "subcategory": "residential",
    "latitude": 32.27275933333333,
    "longitude": 72.27725983333333,
    "id": 658555958
  },
  {
    "name": "residential",
    "category": "highway",
    "subcategory": "residential",
    "latitude": 32.2731006,
    "longitude": 72.27675669999999,
    "id": 658555959
  },
  {
    "name": "residential",
    "category": "highway",
    "subcategory": "residential",
    "latitude": 32.274207366666666,
    "longitude": 72.27630996666666,
    "id": 658555960
  },
  {
    "name": "residential",
    "category": "highway",
    "subcategory": "residential",
    "latitude": 32.27457463333334,
    "longitude": 72.27631753333334,
    "id": 658555961
  },
  {
    "name": "residential",
    "category": "highway",
    "subcategory": "residential",
    "latitude": 32.2749464,
    "longitude": 72.27632043333334,
    "id": 658555962
  },
  {
    "name": "residential",
    "category": "highway",
    "subcategory": "residential",
    "latitude": 32.273834625,
    "longitude": 72.27696335,
    "id": 658555963
  },
  {
    "name": "residential",
    "category": "highway",
    "subcategory": "residential",
    "latitude": 32.27346286363636,
    "longitude": 72.27964090909092,
    "id": 658555964
  },
  {
    "name": "residential",
    "category": "highway",
    "subcategory": "residential",
    "latitude": 32.27530048,
    "longitude": 72.275626892,
    "id": 658555965
  },
  {
    "name": "residential",
    "category": "highway",
    "subcategory": "residential",
    "latitude": 32.2756371,
    "longitude": 72.27758442608695,
    "id": 658555966
  },
  {
    "name": "residential",
    "category": "highway",
    "subcategory": "residential",
    "latitude": 32.275164700000005,
    "longitude": 72.271454,
    "id": 658556303
  },
  {
    "name": "residential",
    "category": "highway",
    "subcategory": "residential",
    "latitude": 32.277151100000005,
    "longitude": 72.27372996666666,
    "id": 658556304
  },
  {
    "name": "residential",
    "category": "highway",
    "subcategory": "residential",
    "latitude": 32.27773663333333,
    "longitude": 72.27375076666668,
    "id": 658556305
  },
  {
    "name": "residential",
    "category": "highway",
    "subcategory": "residential",
    "latitude": 32.277410759999995,
    "longitude": 72.27418646,
    "id": 658556306
  },
  {
    "name": "residential",
    "category": "highway",
    "subcategory": "residential",
    "latitude": 32.277594375,
    "longitude": 72.273736175,
    "id": 658556307
  },
  {
    "name": "residential",
    "category": "highway",
    "subcategory": "residential",
    "latitude": 32.277149522222224,
    "longitude": 72.27324602222222,
    "id": 658556308
  },
  {
    "name": "residential",
    "category": "highway",
    "subcategory": "residential",
    "latitude": 32.27877375,
    "longitude": 72.2731373875,
    "id": 658556309
  },
  {
    "name": "residential",
    "category": "highway",
    "subcategory": "residential",
    "latitude": 32.27402313333334,
    "longitude": 72.27505409999999,
    "id": 658556310
  },
  {
    "name": "residential",
    "category": "highway",
    "subcategory": "residential",
    "latitude": 32.2785143,
    "longitude": 72.2714171,
    "id": 658556311
  },
  {
    "name": "residential",
    "category": "highway",
    "subcategory": "residential",
    "latitude": 32.2752481,
    "longitude": 72.2709294,
    "id": 658556312
  },
  {
    "name": "residential",
    "category": "highway",
    "subcategory": "residential",
    "latitude": 32.275957649999995,
    "longitude": 72.27057260000001,
    "id": 658556313
  },
  {
    "name": "residential",
    "category": "highway",
    "subcategory": "residential",
    "latitude": 32.27531795,
    "longitude": 72.2699202875,
    "id": 658556314
  },
  {
    "name": "residential",
    "category": "highway",
    "subcategory": "residential",
    "latitude": 32.275506675,
    "longitude": 72.26915885,
    "id": 658556315
  },
  {
    "name": "residential",
    "category": "highway",
    "subcategory": "residential",
    "latitude": 32.275065966666666,
    "longitude": 72.27421243333333,
    "id": 658556316
  },
  {
    "name": "residential",
    "category": "highway",
    "subcategory": "residential",
    "latitude": 32.27508013333333,
    "longitude": 72.2734085,
    "id": 658556317
  },
  {
    "name": "residential",
    "category": "highway",
    "subcategory": "residential",
    "latitude": 32.27556463333334,
    "longitude": 72.27433326666666,
    "id": 658556318
  },
  {
    "name": "residential",
    "category": "highway",
    "subcategory": "residential",
    "latitude": 32.275581933333335,
    "longitude": 72.27352826666667,
    "id": 658556319
  },
  {
    "name": "residential",
    "category": "highway",
    "subcategory": "residential",
    "latitude": 32.275430166666666,
    "longitude": 72.27281526666667,
    "id": 658556320
  },
  {
    "name": "residential",
    "category": "highway",
    "subcategory": "residential",
    "latitude": 32.27577746666667,
    "longitude": 72.27051014444444,
    "id": 658556321
  },
  {
    "name": "residential",
    "category": "highway",
    "subcategory": "residential",
    "latitude": 32.27445900769231,
    "longitude": 72.27282073076923,
    "id": 658556322
  },
  {
    "name": "residential",
    "category": "highway",
    "subcategory": "residential",
    "latitude": 32.27477154,
    "longitude": 72.27449618,
    "id": 658556323
  },
  {
    "name": "residential",
    "category": "highway",
    "subcategory": "residential",
    "latitude": 32.275474800000005,
    "longitude": 72.27198963333333,
    "id": 658556324
  },
  {
    "name": "Gali 10",
    "category": "highway",
    "subcategory": "residential",
    "latitude": 32.274004860000005,
    "longitude": 72.29104364,
    "id": 658558212
  },
  {
    "name": "residential",
    "category": "highway",
    "subcategory": "residential",
    "latitude": 32.27654912,
    "longitude": 72.28531056,
    "id": 658558213
  },
  {
    "name": "residential",
    "category": "highway",
    "subcategory": "residential",
    "latitude": 32.2757014,
    "longitude": 72.28601842500001,
    "id": 658558215
  },
  {
    "name": "residential",
    "category": "highway",
    "subcategory": "residential",
    "latitude": 32.27525238571429,
    "longitude": 72.28627814285714,
    "id": 658558216
  },
  {
    "name": "residential",
    "category": "highway",
    "subcategory": "residential",
    "latitude": 32.2762258,
    "longitude": 72.28686315714286,
    "id": 658558217
  },
  {
    "name": "residential",
    "category": "highway",
    "subcategory": "residential",
    "latitude": 32.27618615,
    "longitude": 72.285344725,
    "id": 658558219
  },
  {
    "name": "residential",
    "category": "highway",
    "subcategory": "residential",
    "latitude": 32.27561034285714,
    "longitude": 72.28642714285715,
    "id": 658558220
  },
  {
    "name": "Gali 5",
    "category": "highway",
    "subcategory": "residential",
    "latitude": 32.27709878,
    "longitude": 72.29029435999999,
    "id": 658558222
  },
  {
    "name": "residential",
    "category": "highway",
    "subcategory": "residential",
    "latitude": 32.27719945,
    "longitude": 72.28765100000001,
    "id": 658558223
  },
  {
    "name": "residential",
    "category": "highway",
    "subcategory": "residential",
    "latitude": 32.277955229999996,
    "longitude": 72.28713146,
    "id": 658558225
  },
  {
    "name": "Gali 7",
    "category": "highway",
    "subcategory": "residential",
    "latitude": 32.27657813333334,
    "longitude": 72.29152625,
    "id": 658558226
  },
  {
    "name": "residential",
    "category": "highway",
    "subcategory": "residential",
    "latitude": 32.277339325,
    "longitude": 72.2890915,
    "id": 658558228
  },
  {
    "name": "Gali 3",
    "category": "highway",
    "subcategory": "residential",
    "latitude": 32.27747306,
    "longitude": 72.29046098,
    "id": 658558229
  },
  {
    "name": "residential",
    "category": "highway",
    "subcategory": "residential",
    "latitude": 32.2768652,
    "longitude": 72.2904034888889,
    "id": 658558231
  },
  {
    "name": "residential",
    "category": "highway",
    "subcategory": "residential",
    "latitude": 32.27545205,
    "longitude": 72.2932569,
    "id": 658558233
  },
  {
    "name": "residential",
    "category": "highway",
    "subcategory": "residential",
    "latitude": 32.27510903333334,
    "longitude": 72.2938928,
    "id": 658558234
  },
  {
    "name": "Gali 9",
    "category": "highway",
    "subcategory": "residential",
    "latitude": 32.27446142307692,
    "longitude": 72.29063073076924,
    "id": 658558236
  },
  {
    "name": "residential",
    "category": "highway",
    "subcategory": "residential",
    "latitude": 32.274743225,
    "longitude": 72.290177175,
    "id": 658558238
  },
  {
    "name": "residential",
    "category": "highway",
    "subcategory": "residential",
    "latitude": 32.2752265,
    "longitude": 72.28976990000001,
    "id": 658558239
  },
  {
    "name": "residential",
    "category": "highway",
    "subcategory": "residential",
    "latitude": 32.27529666153846,
    "longitude": 72.28996821538462,
    "id": 658558241
  },
  {
    "name": "residential",
    "category": "highway",
    "subcategory": "residential",
    "latitude": 32.2758102,
    "longitude": 72.2929657,
    "id": 658558242
  },
  {
    "name": "residential",
    "category": "highway",
    "subcategory": "residential",
    "latitude": 32.275249566666666,
    "longitude": 72.2914415,
    "id": 658558244
  },
  {
    "name": "Gali 8",
    "category": "highway",
    "subcategory": "residential",
    "latitude": 32.274853863636366,
    "longitude": 72.28915580909091,
    "id": 658558245
  },
  {
    "name": "Gali 8",
    "category": "highway",
    "subcategory": "residential",
    "latitude": 32.2762079,
    "longitude": 72.29102725454545,
    "id": 658558247
  },
  {
    "name": "Gali 4",
    "category": "highway",
    "subcategory": "residential",
    "latitude": 32.27643668181818,
    "longitude": 72.29135817272727,
    "id": 658558249
  },
  {
    "name": "Gali 6",
    "category": "highway",
    "subcategory": "residential",
    "latitude": 32.276941220000005,
    "longitude": 72.28974652000001,
    "id": 658558250
  },
  {
    "name": "residential",
    "category": "highway",
    "subcategory": "residential",
    "latitude": 32.276933220000004,
    "longitude": 72.29481436,
    "id": 658558252
  },
  {
    "name": "residential",
    "category": "highway",
    "subcategory": "residential",
    "latitude": 32.277335574999995,
    "longitude": 72.295147425,
    "id": 658558253
  },
  {
    "name": "residential",
    "category": "highway",
    "subcategory": "residential",
    "latitude": 32.27794188888889,
    "longitude": 72.29592675555556,
    "id": 658558255
  },
  {
    "name": "residential",
    "category": "highway",
    "subcategory": "residential",
    "latitude": 32.27823785,
    "longitude": 72.2949526,
    "id": 658558256
  },
  {
    "name": "Gali 1",
    "category": "highway",
    "subcategory": "residential",
    "latitude": 32.27822571666667,
    "longitude": 72.29048696666666,
    "id": 658558258
  },
  {
    "name": "Gali 2",
    "category": "highway",
    "subcategory": "residential",
    "latitude": 32.27784751666667,
    "longitude": 72.2900356,
    "id": 658558259
  },
  {
    "name": "residential",
    "category": "highway",
    "subcategory": "residential",
    "latitude": 32.27722728181818,
    "longitude": 72.28571896363636,
    "id": 658558260
  },
  {
    "name": "residential",
    "category": "highway",
    "subcategory": "residential",
    "latitude": 32.27726734,
    "longitude": 72.28534724,
    "id": 658558261
  },
  {
    "name": "residential",
    "category": "highway",
    "subcategory": "residential",
    "latitude": 32.277497600000004,
    "longitude": 72.28329755,
    "id": 658558262
  },
  {
    "name": "residential",
    "category": "highway",
    "subcategory": "residential",
    "latitude": 32.277963060000005,
    "longitude": 72.28441136000001,
    "id": 658558263
  },
  {
    "name": "Naseem Colony Main Road",
    "category": "highway",
    "subcategory": "residential",
    "latitude": 32.274898254545455,
    "longitude": 72.28829157272727,
    "id": 658558264
  },
  {
    "name": "residential",
    "category": "highway",
    "subcategory": "residential",
    "latitude": 32.278127975000004,
    "longitude": 72.286375025,
    "id": 658558265
  },
  {
    "name": "residential",
    "category": "highway",
    "subcategory": "residential",
    "latitude": 32.275578208,
    "longitude": 72.2939777,
    "id": 658558266
  },
  {
    "name": "residential",
    "category": "highway",
    "subcategory": "residential",
    "latitude": 32.280063569999996,
    "longitude": 72.30002849,
    "id": 658558582
  },
  {
    "name": "residential",
    "category": "highway",
    "subcategory": "residential",
    "latitude": 32.281372766666664,
    "longitude": 72.2955654,
    "id": 658558583
  },
  {
    "name": "residential",
    "category": "highway",
    "subcategory": "residential",
    "latitude": 32.2810723,
    "longitude": 72.29626280000001,
    "id": 658558584
  },
  {
    "name": "residential",
    "category": "highway",
    "subcategory": "residential",
    "latitude": 32.279134400000004,
    "longitude": 72.29727865000001,
    "id": 658558585
  },
  {
    "name": "residential",
    "category": "highway",
    "subcategory": "residential",
    "latitude": 32.279493175,
    "longitude": 72.297085825,
    "id": 658558586
  },
  {
    "name": "residential",
    "category": "highway",
    "subcategory": "residential",
    "latitude": 32.279296725,
    "longitude": 72.296872325,
    "id": 658558587
  },
  {
    "name": "residential",
    "category": "highway",
    "subcategory": "residential",
    "latitude": 32.279559,
    "longitude": 72.29914959999999,
    "id": 658558588
  },
  {
    "name": "residential",
    "category": "highway",
    "subcategory": "residential",
    "latitude": 32.279925666666664,
    "longitude": 72.2994557,
    "id": 658558589
  },
  {
    "name": "residential",
    "category": "highway",
    "subcategory": "residential",
    "latitude": 32.2796736,
    "longitude": 72.2987778,
    "id": 658558590
  },
  {
    "name": "residential",
    "category": "highway",
    "subcategory": "residential",
    "latitude": 32.280182425,
    "longitude": 72.298430325,
    "id": 658558591
  },
  {
    "name": "residential",
    "category": "highway",
    "subcategory": "residential",
    "latitude": 32.28049595,
    "longitude": 72.2977514,
    "id": 658558592
  },
  {
    "name": "residential",
    "category": "highway",
    "subcategory": "residential",
    "latitude": 32.27657238125,
    "longitude": 72.3003294875,
    "id": 658558593
  },
  {
    "name": "residential",
    "category": "highway",
    "subcategory": "residential",
    "latitude": 32.27801176666667,
    "longitude": 72.29801566666667,
    "id": 658558594
  },
  {
    "name": "residential",
    "category": "highway",
    "subcategory": "residential",
    "latitude": 32.2778731,
    "longitude": 72.2978584,
    "id": 658558595
  },
  {
    "name": "residential",
    "category": "highway",
    "subcategory": "residential",
    "latitude": 32.27867113333333,
    "longitude": 72.2985034,
    "id": 658558596
  },
  {
    "name": "residential",
    "category": "highway",
    "subcategory": "residential",
    "latitude": 32.278813075,
    "longitude": 72.297693925,
    "id": 658558597
  },
  {
    "name": "residential",
    "category": "highway",
    "subcategory": "residential",
    "latitude": 32.27878502,
    "longitude": 72.29738932000001,
    "id": 658558598
  },
  {
    "name": "residential",
    "category": "highway",
    "subcategory": "residential",
    "latitude": 32.279167612500004,
    "longitude": 72.29587075,
    "id": 658558599
  },
  {
    "name": "residential",
    "category": "highway",
    "subcategory": "residential",
    "latitude": 32.27869489230769,
    "longitude": 72.29990990384616,
    "id": 658558600
  },
  {
    "name": "residential",
    "category": "highway",
    "subcategory": "residential",
    "latitude": 32.2774151,
    "longitude": 72.30611784999999,
    "id": 658560791
  },
  {
    "name": "residential",
    "category": "highway",
    "subcategory": "residential",
    "latitude": 32.277125133333335,
    "longitude": 72.30553483333334,
    "id": 658560792
  },
  {
    "name": "residential",
    "category": "highway",
    "subcategory": "residential",
    "latitude": 32.27741365,
    "longitude": 72.3055281,
    "id": 658560793
  },
  {
    "name": "residential",
    "category": "highway",
    "subcategory": "residential",
    "latitude": 32.27549786666666,
    "longitude": 72.30022903333334,
    "id": 658560794
  },
  {
    "name": "residential",
    "category": "highway",
    "subcategory": "residential",
    "latitude": 32.2760673,
    "longitude": 72.3025199,
    "id": 658560795
  },
  {
    "name": "residential",
    "category": "highway",
    "subcategory": "residential",
    "latitude": 32.27530024166666,
    "longitude": 72.302004225,
    "id": 658560796
  },
  {
    "name": "residential",
    "category": "highway",
    "subcategory": "residential",
    "latitude": 32.2747967,
    "longitude": 72.3012382,
    "id": 658560798
  },
  {
    "name": "residential",
    "category": "highway",
    "subcategory": "residential",
    "latitude": 32.27662458333333,
    "longitude": 72.30260716666668,
    "id": 658560799
  },
  {
    "name": "residential",
    "category": "highway",
    "subcategory": "residential",
    "latitude": 32.276779725,
    "longitude": 72.302859125,
    "id": 658560801
  },
  {
    "name": "residential",
    "category": "highway",
    "subcategory": "residential",
    "latitude": 32.27704995,
    "longitude": 72.3025418,
    "id": 658560802
  },
  {
    "name": "residential",
    "category": "highway",
    "subcategory": "residential",
    "latitude": 32.276064733333335,
    "longitude": 72.30180849999999,
    "id": 658560803
  },
  {
    "name": "residential",
    "category": "highway",
    "subcategory": "residential",
    "latitude": 32.276097225,
    "longitude": 72.3008439,
    "id": 658560805
  },
  {
    "name": "residential",
    "category": "highway",
    "subcategory": "residential",
    "latitude": 32.276464,
    "longitude": 72.300855075,
    "id": 658560806
  },
  {
    "name": "residential",
    "category": "highway",
    "subcategory": "residential",
    "latitude": 32.27677356666667,
    "longitude": 72.30180766666666,
    "id": 658560807
  },
  {
    "name": "residential",
    "category": "highway",
    "subcategory": "residential",
    "latitude": 32.27681955,
    "longitude": 72.300861425,
    "id": 658560808
  },
  {
    "name": "residential",
    "category": "highway",
    "subcategory": "residential",
    "latitude": 32.27534425454545,
    "longitude": 72.30130262727272,
    "id": 658560810
  },
  {
    "name": "residential",
    "category": "highway",
    "subcategory": "residential",
    "latitude": 32.2771738,
    "longitude": 72.30087955,
    "id": 658560813
  },
  {
    "name": "residential",
    "category": "highway",
    "subcategory": "residential",
    "latitude": 32.2755112117647,
    "longitude": 72.30079567647059,
    "id": 658560814
  },
  {
    "name": "residential",
    "category": "highway",
    "subcategory": "residential",
    "latitude": 32.277406766666665,
    "longitude": 72.300777,
    "id": 658560815
  },
  {
    "name": "residential",
    "category": "highway",
    "subcategory": "residential",
    "latitude": 32.27777188333334,
    "longitude": 72.30063511666667,
    "id": 658560817
  },
  {
    "name": "residential",
    "category": "highway",
    "subcategory": "residential",
    "latitude": 32.27803165,
    "longitude": 72.30082014999999,
    "id": 658560818
  },
  {
    "name": "residential",
    "category": "highway",
    "subcategory": "residential",
    "latitude": 32.28030225,
    "longitude": 72.300072,
    "id": 658560820
  },
  {
    "name": "residential",
    "category": "highway",
    "subcategory": "residential",
    "latitude": 32.2793489,
    "longitude": 72.30315718333334,
    "id": 658560822
  },
  {
    "name": "residential",
    "category": "highway",
    "subcategory": "residential",
    "latitude": 32.278438449999996,
    "longitude": 72.30550635,
    "id": 658560825
  },
  {
    "name": "residential",
    "category": "highway",
    "subcategory": "residential",
    "latitude": 32.2780516,
    "longitude": 72.30582294999999,
    "id": 658560827
  },
  {
    "name": "residential",
    "category": "highway",
    "subcategory": "residential",
    "latitude": 32.27819908,
    "longitude": 72.3047139,
    "id": 658560828
  },
  {
    "name": "residential",
    "category": "highway",
    "subcategory": "residential",
    "latitude": 32.27767956666667,
    "longitude": 72.30569115,
    "id": 658560830
  },
  {
    "name": "residential",
    "category": "highway",
    "subcategory": "residential",
    "latitude": 32.27719617,
    "longitude": 72.30318883999999,
    "id": 658560832
  },
  {
    "name": "residential",
    "category": "highway",
    "subcategory": "residential",
    "latitude": 32.277480385714284,
    "longitude": 72.30190457142858,
    "id": 658560834
  },
  {
    "name": "residential",
    "category": "highway",
    "subcategory": "residential",
    "latitude": 32.2772833,
    "longitude": 72.3039491,
    "id": 658560835
  },
  {
    "name": "residential",
    "category": "highway",
    "subcategory": "residential",
    "latitude": 32.27851282857143,
    "longitude": 72.30395371428571,
    "id": 658560837
  },
  {
    "name": "residential",
    "category": "highway",
    "subcategory": "residential",
    "latitude": 32.27828251428571,
    "longitude": 72.30324678571428,
    "id": 658560839
  },
  {
    "name": "residential",
    "category": "highway",
    "subcategory": "residential",
    "latitude": 32.278615939999995,
    "longitude": 72.30316776,
    "id": 658560840
  },
  {
    "name": "residential",
    "category": "highway",
    "subcategory": "residential",
    "latitude": 32.27895541666667,
    "longitude": 72.30216513333333,
    "id": 658560842
  },
  {
    "name": "residential",
    "category": "highway",
    "subcategory": "residential",
    "latitude": 32.2794236,
    "longitude": 72.30054439999999,
    "id": 658560843
  },
  {
    "name": "residential",
    "category": "highway",
    "subcategory": "residential",
    "latitude": 32.2794185,
    "longitude": 72.3000489,
    "id": 658560845
  },
  {
    "name": "residential",
    "category": "highway",
    "subcategory": "residential",
    "latitude": 32.279232314285714,
    "longitude": 72.30197335714286,
    "id": 658560847
  },
  {
    "name": "residential",
    "category": "highway",
    "subcategory": "residential",
    "latitude": 32.27950425,
    "longitude": 72.30136285,
    "id": 658560848
  },
  {
    "name": "residential",
    "category": "highway",
    "subcategory": "residential",
    "latitude": 32.287592225,
    "longitude": 72.30705215,
    "id": 658562201
  },
  {
    "name": "residential",
    "category": "highway",
    "subcategory": "residential",
    "latitude": 32.28299737142857,
    "longitude": 72.30398692857143,
    "id": 658562202
  },
  {
    "name": "residential",
    "category": "highway",
    "subcategory": "residential",
    "latitude": 32.28139973636364,
    "longitude": 72.30696253636364,
    "id": 658562203
  },
  {
    "name": "residential",
    "category": "highway",
    "subcategory": "residential",
    "latitude": 32.2824193,
    "longitude": 72.302856,
    "id": 658562204
  },
  {
    "name": "residential",
    "category": "highway",
    "subcategory": "residential",
    "latitude": 32.283288,
    "longitude": 72.3032209,
    "id": 658562205
  },
  {
    "name": "residential",
    "category": "highway",
    "subcategory": "residential",
    "latitude": 32.281423200000006,
    "longitude": 72.29932045000001,
    "id": 658562206
  },
  {
    "name": "residential",
    "category": "highway",
    "subcategory": "residential",
    "latitude": 32.28253625,
    "longitude": 72.29825835,
    "id": 658562207
  },
  {
    "name": "residential",
    "category": "highway",
    "subcategory": "residential",
    "latitude": 32.283098249999995,
    "longitude": 72.2964826,
    "id": 658562208
  },
  {
    "name": "residential",
    "category": "highway",
    "subcategory": "residential",
    "latitude": 32.28409345,
    "longitude": 72.2974826,
    "id": 658562209
  },
  {
    "name": "residential",
    "category": "highway",
    "subcategory": "residential",
    "latitude": 32.2840445,
    "longitude": 72.29894875,
    "id": 658562210
  },
  {
    "name": "residential",
    "category": "highway",
    "subcategory": "residential",
    "latitude": 32.2816805625,
    "longitude": 72.3047505625,
    "id": 658562211
  },
  {
    "name": "residential",
    "category": "highway",
    "subcategory": "residential",
    "latitude": 32.2838452,
    "longitude": 72.30562833333333,
    "id": 658562212
  },
  {
    "name": "residential",
    "category": "highway",
    "subcategory": "residential",
    "latitude": 32.28431683333333,
    "longitude": 72.30154156666667,
    "id": 658562213
  },
  {
    "name": "residential",
    "category": "highway",
    "subcategory": "residential",
    "latitude": 32.2841706,
    "longitude": 72.30113036666667,
    "id": 658562214
  },
  {
    "name": "residential",
    "category": "highway",
    "subcategory": "residential",
    "latitude": 32.28307565555556,
    "longitude": 72.30068539999999,
    "id": 658562215
  },
  {
    "name": "residential",
    "category": "highway",
    "subcategory": "residential",
    "latitude": 32.282559375,
    "longitude": 72.305235375,
    "id": 658562216
  },
  {
    "name": "residential",
    "category": "highway",
    "subcategory": "residential",
    "latitude": 32.2846891,
    "longitude": 72.2973884,
    "id": 658562217
  },
  {
    "name": "residential",
    "category": "highway",
    "subcategory": "residential",
    "latitude": 32.28433335217391,
    "longitude": 72.30010461739131,
    "id": 658562218
  },
  {
    "name": "residential",
    "category": "highway",
    "subcategory": "residential",
    "latitude": 32.28190326666667,
    "longitude": 72.29914816666667,
    "id": 658562219
  },
  {
    "name": "residential",
    "category": "highway",
    "subcategory": "residential",
    "latitude": 32.28199746666667,
    "longitude": 72.29881586666666,
    "id": 658562220
  },
  {
    "name": "residential",
    "category": "highway",
    "subcategory": "residential",
    "latitude": 32.28274606666667,
    "longitude": 72.30136463333334,
    "id": 658562221
  },
  {
    "name": "residential",
    "category": "highway",
    "subcategory": "residential",
    "latitude": 32.2818187,
    "longitude": 72.3024674,
    "id": 658562222
  },
  {
    "name": "residential",
    "category": "highway",
    "subcategory": "residential",
    "latitude": 32.2852875,
    "longitude": 72.3053528125,
    "id": 658562223
  },
  {
    "name": "residential",
    "category": "highway",
    "subcategory": "residential",
    "latitude": 32.282900027272724,
    "longitude": 72.30179677272727,
    "id": 658562224
  },
  {
    "name": "residential",
    "category": "highway",
    "subcategory": "residential",
    "latitude": 32.2827632,
    "longitude": 72.2999242,
    "id": 658562225
  },
  {
    "name": "residential",
    "category": "highway",
    "subcategory": "residential",
    "latitude": 32.28296856,
    "longitude": 72.29839438,
    "id": 658562226
  },
  {
    "name": "residential",
    "category": "highway",
    "subcategory": "residential",
    "latitude": 32.28501358,
    "longitude": 72.2959163,
    "id": 658562227
  },
  {
    "name": "residential",
    "category": "highway",
    "subcategory": "residential",
    "latitude": 32.28572169230769,
    "longitude": 72.29708416923077,
    "id": 658562228
  },
  {
    "name": "residential",
    "category": "highway",
    "subcategory": "residential",
    "latitude": 32.28375644411764,
    "longitude": 72.3014715,
    "id": 658562229
  },
  {
    "name": "residential",
    "category": "highway",
    "subcategory": "residential",
    "latitude": 32.28645694615385,
    "longitude": 72.29544362307692,
    "id": 658562230
  },
  {
    "name": "residential",
    "category": "highway",
    "subcategory": "residential",
    "latitude": 32.28159176896552,
    "longitude": 72.30057497586206,
    "id": 658562231
  },
  {
    "name": "residential",
    "category": "highway",
    "subcategory": "residential",
    "latitude": 32.28517456666666,
    "longitude": 72.29661563333333,
    "id": 658573017
  },
  {
    "name": "residential",
    "category": "highway",
    "subcategory": "residential",
    "latitude": 32.285371575,
    "longitude": 72.3098933125,
    "id": 658573018
  },
  {
    "name": "residential",
    "category": "highway",
    "subcategory": "residential",
    "latitude": 32.284338133333335,
    "longitude": 72.30231193333333,
    "id": 658573019
  },
  {
    "name": "residential",
    "category": "highway",
    "subcategory": "residential",
    "latitude": 32.28610656,
    "longitude": 72.29947038,
    "id": 658573020
  },
  {
    "name": "residential",
    "category": "highway",
    "subcategory": "residential",
    "latitude": 32.2859108,
    "longitude": 72.29937363333333,
    "id": 658573021
  },
  {
    "name": "residential",
    "category": "highway",
    "subcategory": "residential",
    "latitude": 32.28725844,
    "longitude": 72.29873988,
    "id": 658573022
  },
  {
    "name": "residential",
    "category": "highway",
    "subcategory": "residential",
    "latitude": 32.28730673333333,
    "longitude": 72.29596873333334,
    "id": 658573023
  },
  {
    "name": "residential",
    "category": "highway",
    "subcategory": "residential",
    "latitude": 32.287144,
    "longitude": 72.2956315,
    "id": 658573024
  },
  {
    "name": "residential",
    "category": "highway",
    "subcategory": "residential",
    "latitude": 32.28874567142857,
    "longitude": 72.2964120857143,
    "id": 658573025
  },
  {
    "name": "residential",
    "category": "highway",
    "subcategory": "residential",
    "latitude": 32.28671637647059,
    "longitude": 72.29699258235294,
    "id": 658573026
  },
  {
    "name": "residential",
    "category": "highway",
    "subcategory": "residential",
    "latitude": 32.2864462,
    "longitude": 72.29674815,
    "id": 658573027
  },
  {
    "name": "residential",
    "category": "highway",
    "subcategory": "residential",
    "latitude": 32.28733076666666,
    "longitude": 72.29831171666667,
    "id": 658573028
  },
  {
    "name": "residential",
    "category": "highway",
    "subcategory": "residential",
    "latitude": 32.28991632857143,
    "longitude": 72.30147684285714,
    "id": 658573029
  },
  {
    "name": "residential",
    "category": "highway",
    "subcategory": "residential",
    "latitude": 32.29023515,
    "longitude": 72.30301145,
    "id": 658573030
  },
  {
    "name": "residential",
    "category": "highway",
    "subcategory": "residential",
    "latitude": 32.28859595555556,
    "longitude": 72.3040019,
    "id": 658573031
  },
  {
    "name": "residential",
    "category": "highway",
    "subcategory": "residential",
    "latitude": 32.286785,
    "longitude": 72.2610448,
    "id": 658574714
  },
  {
    "name": "residential",
    "category": "highway",
    "subcategory": "residential",
    "latitude": 32.278403857142855,
    "longitude": 72.28044898571429,
    "id": 658574715
  },
  {
    "name": "residential",
    "category": "highway",
    "subcategory": "residential",
    "latitude": 32.28641152,
    "longitude": 72.26818316,
    "id": 658574716
  },
  {
    "name": "service",
    "category": "highway",
    "subcategory": "service",
    "latitude": 32.2916805,
    "longitude": 72.2692233875,
    "id": 658574717
  },
  {
    "name": "residential",
    "category": "highway",
    "subcategory": "residential",
    "latitude": 32.28988593333333,
    "longitude": 72.26626366666666,
    "id": 658574718
  },
  {
    "name": "residential",
    "category": "highway",
    "subcategory": "residential",
    "latitude": 32.2894222,
    "longitude": 72.268018625,
    "id": 658574719
  },