[
  {
    "name": "Liprary",
    "category": "amenity",
    "subcategory": "library",
    "latitude": 30.4025574,
    "longitude": 71.8686097,
    "id": 4762260834
  },
  {
    "name": "Madina Mobile & Repairing Shop",
    "category": "shop",
    "subcategory": "mobile_phone",
    "latitude": 30.4043887,
    "longitude": 71.8675013,
    "id": 6608785985
  },
  {
    "name": "Papo Shop",
    "category": "shop",
    "subcategory": "convenience",
    "latitude": 30.4027125,
    "longitude": 71.8708802,
    "id": 7270692700
  },
  {
    "name": "KABIRWALA CITY (کبیروالا)",
    "category": "tourism",
    "subcategory": "attraction",
    "latitude": 30.4043639,
    "longitude": 71.8680665,
    "id": 7677589885
  },
  {
    "name": "Faizan Tahir House",
    "category": "tourism",
    "subcategory": "apartment",
    "latitude": 30.41223,
    "longitude": 71.8539874,
    "id": 8357080517
  },
  {
    "name": "Kabirwala NB",
    "category": "amenity",
    "subcategory": "weighbridge",
    "latitude": 30.3641742,
    "longitude": 71.8893383,
    "id": 10768174678
  }
]