[
  {
    "name": "Kot Wali Masjid",
    "category": "amenity",
    "subcategory": "place_of_worship",
    "latitude": 32.4168154,
    "longitude": 71.6958245,
    "id": 4298566030
  },
  {
    "name": "Muhajireen Masjid",
    "category": "amenity",
    "subcategory": "place_of_worship",
    "latitude": 32.4175791,
    "longitude": 71.6957605,
    "id": 4298566031
  },
  {
    "name": "Police Station Wan Bhachran",
    "category": "amenity",
    "subcategory": "police",
    "latitude": 32.426302,
    "longitude": 71.6897295,
    "id": 4305135499
  },
  {
    "name": "Jamia Masjid/Eid Gah",
    "category": "amenity",
    "subcategory": "place_of_worship",
    "latitude": 32.4229946,
    "longitude": 71.6961645,
    "id": 4305149124
  },
  {
    "name": "Ghanjera Petroleum",
    "category": "amenity",
    "subcategory": "fuel",
    "latitude": 32.4410474,
    "longitude": 71.7006804,
    "id": 4316742857
  }
]