[
  {
    "name": "شریف ہوٹل (Sharif Hotel)",
    "category": "tourism",
    "subcategory": "hotel",
    "latitude": 31.7178234,
    "longitude": 72.9849595,
    "id": 6994302185
  },
  {
    "name": "Arooj Marquee",
    "category": "amenity",
    "subcategory": "restaurant",
    "latitude": 31.6931776,
    "longitude": 72.9991767,
    "id": 8008800772
  },
  {
    "name": "Noor (Taghlighi)",
    "category": "amenity",
    "subcategory": "place_of_worship",
    "latitude": 31.716844,
    "longitude": 72.9814171,
    "id": 8604993565
  },
  {
    "name": "Shahi Masjid",
    "category": "amenity",
    "subcategory": "place_of_worship",
    "latitude": 31.7199253,
    "longitude": 72.9768272,
    "id": 8604993566
  },
  {
    "name": "LRBT Chiniot - Free Eye Hospital",
    "category": "amenity",
    "subcategory": "hospital",
    "latitude": 31.7191689,
    "longitude": 72.9781974,
    "id": 8604993570
  },
  {
    "name": "Al Rubat Al Noor",
    "category": "amenity",
    "subcategory": "place_of_worship",
    "latitude": 31.7153342,
    "longitude": 72.9836692,
    "id": 8604993573
  },
  {
    "name": "Abandoned Bara Temple",
    "category": "amenity",
    "subcategory": "place_of_worship",
    "latitude": 31.723314,
    "longitude": 72.9824762,
    "id": 8605106090
  },
  {
    "name": "Gulzar-e-Madina",
    "category": "amenity",
    "subcategory": "place_of_worship",
    "latitude": 31.7124116,
    "longitude": 72.9728546,
    "id": 8605109922
  },
  {
    "name": "Ali",
    "category": "amenity",
    "subcategory": "place_of_worship",
    "latitude": 31.712789,
    "longitude": 72.9753171,
    "id": 8605109939
  },
  {
    "name": "Shaikh Ismail Bukhari",
    "category": "amenity",
    "subcategory": "place_of_worship",
    "latitude": 31.7127206,
    "longitude": 72.9762505,
    "id": 8605109944
  },
  {
    "name": "Gulzar-e-Mehboob",
    "category": "amenity",
    "subcategory": "place_of_worship",
    "latitude": 31.7145465,
    "longitude": 72.9770773,
    "id": 8605109963
  },
  {
    "name": "پاکستان اسٹیٹ آئل",
    "category": "amenity",
    "subcategory": "fuel",
    "latitude": 31.7123049,
    "longitude": 72.9795128,
    "id": 8605109984
  },
  {
    "name": "Janazagah",
    "category": "amenity",
    "subcategory": "place_of_worship",
    "latitude": 31.713369,
    "longitude": 72.9816397,
    "id": 8605110007
  },
  {
    "name": "Aqsa",
    "category": "amenity",
    "subcategory": "place_of_worship",
    "latitude": 31.7135179,
    "longitude": 72.9822783,
    "id": 8605110008
  },
  {
    "name": "Khadeja Tulkubra",
    "category": "amenity",
    "subcategory": "place_of_worship",
    "latitude": 31.719467,
    "longitude": 72.9889297,
    "id": 8605137855
  },
  {
    "name": "Shrine of Pir Khadam",
    "category": "amenity",
    "subcategory": "place_of_worship",
    "latitude": 31.7165523,
    "longitude": 72.960659,
    "id": 8605152148
  },
  {
    "name": "Noor-e-Mehboob",
    "category": "amenity",
    "subcategory": "place_of_worship",
    "latitude": 31.7063761,
    "longitude": 72.9695201,
    "id": 8605152149
  },
  {
    "name": "Taqwa",
    "category": "amenity",
    "subcategory": "place_of_worship",
    "latitude": 31.7104814,
    "longitude": 72.9683777,
    "id": 8605152150
  },
  {
    "name": "Touheed",
    "category": "amenity",
    "subcategory": "place_of_worship",
    "latitude": 31.7181236,
    "longitude": 72.9720441,
    "id": 8628147653
  },
  {
    "name": "Imam Bargah Shadi Malang",
    "category": "amenity",
    "subcategory": "place_of_worship",
    "latitude": 31.717718,
    "longitude": 72.9727485,
    "id": 8628147654
  },
  {
    "name": "Shah Burhan",
    "category": "amenity",
    "subcategory": "place_of_worship",
    "latitude": 31.7163228,
    "longitude": 72.9737833,
    "id": 8628147655
  },
  {
    "name": "Huzaifa",
    "category": "amenity",
    "subcategory": "place_of_worship",
    "latitude": 31.7130195,
    "longitude": 72.9709469,
    "id": 8628147661
  },
  {
    "name": "Rashidiya",
    "category": "amenity",
    "subcategory": "place_of_worship",
    "latitude": 31.7261374,
    "longitude": 72.9823226,
    "id": 8628172196
  },
  {
    "name": "Chiniot Cinema",
    "category": "amenity",
    "subcategory": "cinema",
    "latitude": 31.7254946,
    "longitude": 72.9867752,
    "id": 8628172202
  },
  {
    "name": "مسجد بلال",
    "category": "amenity",
    "subcategory": "place_of_worship",
    "latitude": 31.7260612,
    "longitude": 72.9872777,
    "id": 8628172203
  },
  {
    "name": "Khayyam Restaurant",
    "category": "amenity",
    "subcategory": "restaurant",
    "latitude": 31.7307883,
    "longitude": 72.98083,
    "id": 8975580181
  }
]