[
  {
    "name": "New Karachi Town",
    "category": "place",
    "subcategory": "neighbourhood",
    "latitude": 24.9739837,
    "longitude": 67.0627467,
    "id": 293144735
  },
  {
    "name": "Disco More",
    "category": "highway",
    "subcategory": "traffic_signals",
    "latitude": 24.9716804,
    "longitude": 67.0530437,
    "id": 763498117
  },
  {
    "name": "Shipowner College Chowrangi",
    "category": "highway",
    "subcategory": "traffic_signals",
    "latitude": 24.9483154,
    "longitude": 67.0405687,
    "id": 2299988225
  },
  {
    "name": "Anda More",
    "category": "highway",
    "subcategory": "traffic_signals",
    "latitude": 24.9647349,
    "longitude": 67.0535442,
    "id": 2315050930
  },
  {
    "name": "North Karachi Sector 7D-3",
    "category": "place",
    "subcategory": "neighbourhood",
    "latitude": 24.968263,
    "longitude": 67.0481404,
    "id": 2683407993
  },
  {
    "name": "crossing",
    "category": "highway",
    "subcategory": "crossing",
    "latitude": 24.9617162,
    "longitude": 67.0509119,
    "id": 2683417132
  },
  {
    "name": "Qalandaria",
    "category": "amenity",
    "subcategory": "place_of_worship",
    "latitude": 24.9596104,
    "longitude": 67.0510135,
    "id": 3846602555
  },
  {
    "name": "Corner Chemist",
    "category": "amenity",
    "subcategory": "pharmacy",
    "latitude": 24.9567061,
    "longitude": 67.0506469,
    "id": 3847129039
  },
  {
    "name": "Rainbow Super Mart",
    "category": "shop",
    "subcategory": "supermarket",
    "latitude": 24.9557128,
    "longitude": 67.0508461,
    "id": 3847129791
  },
  {
    "name": "Baba Medial",
    "category": "amenity",
    "subcategory": "pharmacy",
    "latitude": 24.9565833,
    "longitude": 67.050498,
    "id": 3848452397
  },
  {
    "name": "Abbasi General Store",
    "category": "shop",
    "subcategory": "yes",
    "latitude": 24.9577136,
    "longitude": 67.0469375,
    "id": 3849287776
  },
  {
    "name": "Ashraf Bakery",
    "category": "shop",
    "subcategory": "bakery",
    "latitude": 24.95776,
    "longitude": 67.0469064,
    "id": 3849287777
  },
  {
    "name": "Mustaqeem CNG",
    "category": "amenity",
    "subcategory": "fuel",
    "latitude": 25.0257298,
    "longitude": 67.0675312,
    "id": 3902581659
  },
  {
    "name": "North Nazimabad Block T",
    "category": "highway",
    "subcategory": "bus_stop",
    "latitude": 24.9591186,
    "longitude": 67.0492983,
    "id": 4336501164
  },
  {
    "name": "Nusrat Bhutto Colony",
    "category": "place",
    "subcategory": "neighbourhood",
    "latitude": 24.9624416,
    "longitude": 67.047952,
    "id": 4340681783
  },
  {
    "name": "Sunny Paan House",
    "category": "shop",
    "subcategory": "yes",
    "latitude": 24.9932725,
    "longitude": 67.0586078,
    "id": 4408187392
  },
  {
    "name": "Cafe Pyala",
    "category": "amenity",
    "subcategory": "cafe",
    "latitude": 24.973854,
    "longitude": 67.066784,
    "id": 4515898790
  },
  {
    "name": "Taj Dhaka",
    "category": "shop",
    "subcategory": "bakery",
    "latitude": 24.9723102,
    "longitude": 67.0655197,
    "id": 4575737989
  },
  {
    "name": "electronics",
    "category": "shop",
    "subcategory": "electronics",
    "latitude": 24.9809771,
    "longitude": 67.0666497,
    "id": 4591853194
  },
  {
    "name": "Nadeem Avenue",
    "category": "shop",
    "subcategory": "bookmaker",
    "latitude": 24.9860025,
    "longitude": 67.0590015,
    "id": 4641915091
  },
  {
    "name": "Disco More",
    "category": "highway",
    "subcategory": "bus_stop",
    "latitude": 24.9715885,
    "longitude": 67.0531333,
    "id": 4698964290
  },
  {
    "name": "Al HaajAkhtar Restaurant & Banquet",
    "category": "amenity",
    "subcategory": "restaurant",
    "latitude": 24.9687097,
    "longitude": 67.0664852,
    "id": 4739833642
  },
  {
    "name": "پیزا ہٹ",
    "category": "amenity",
    "subcategory": "restaurant",
    "latitude": 24.9698106,
    "longitude": 67.0663687,
    "id": 4740020127
  },
  {
    "name": "بینک اسلامی",
    "category": "amenity",
    "subcategory": "bank",
    "latitude": 24.9696316,
    "longitude": 67.0663293,
    "id": 4740020128
  },
  {
    "name": "میزان بینک",
    "category": "amenity",
    "subcategory": "bank",
    "latitude": 24.9695059,
    "longitude": 67.0663532,
    "id": 4740020130
  },
  {
    "name": "Bank Al Habib limited",
    "category": "amenity",
    "subcategory": "bank",
    "latitude": 24.968832,
    "longitude": 67.0664702,
    "id": 4740020131
  },
  {
    "name": "ٹوٹل",
    "category": "amenity",
    "subcategory": "fuel",
    "latitude": 24.9690849,
    "longitude": 67.0664179,
    "id": 4740020132
  },
  {
    "name": "بينک الحبيب",
    "category": "amenity",
    "subcategory": "bank",
    "latitude": 24.9724149,
    "longitude": 67.0653061,
    "id": 4740020133
  },
  {
    "name": "Bilal Ddepartmental Store",
    "category": "shop",
    "subcategory": "supermarket",
    "latitude": 24.9723292,
    "longitude": 67.0646433,
    "id": 4740020134
  },
  {
    "name": "Ldeal Foods",
    "category": "amenity",
    "subcategory": "restaurant",
    "latitude": 24.972002,
    "longitude": 67.06453,
    "id": 4740020135
  },
  {
    "name": "Abdullah Juice Center",
    "category": "amenity",
    "subcategory": "restaurant",
    "latitude": 24.9719777,
    "longitude": 67.0639787,
    "id": 4740020136
  },
  {
    "name": "Book Store",
    "category": "shop",
    "subcategory": "books",
    "latitude": 24.971827,
    "longitude": 67.0631143,
    "id": 4740020137
  },
  {
    "name": "North Karachi Hhospital",
    "category": "amenity",
    "subcategory": "hospital",
    "latitude": 24.9727584,
    "longitude": 67.0630717,
    "id": 4740020139
  },
  {
    "name": "Programmer School",
    "category": "amenity",
    "subcategory": "school",
    "latitude": 24.9722328,
    "longitude": 67.0622405,
    "id": 4740020140
  },
  {
    "name": "Hot Top Krispy Bburgers",
    "category": "amenity",
    "subcategory": "restaurant",
    "latitude": 24.9719218,
    "longitude": 67.0629316,
    "id": 4740020141
  },
  {
    "name": "Pakwanistan",
    "category": "amenity",
    "subcategory": "restaurant",
    "latitude": 24.9716783,
    "longitude": 67.0618638,
    "id": 4740020142
  },
  {
    "name": "Shahid Bakers",
    "category": "amenity",
    "subcategory": "restaurant",
    "latitude": 24.9718396,
    "longitude": 67.0614054,
    "id": 4740020143
  },
  {
    "name": "Al Dania Sancks & lce Crem",
    "category": "amenity",
    "subcategory": "restaurant",
    "latitude": 24.9718748,
    "longitude": 67.0621444,
    "id": 4740020144
  },
  {
    "name": "Hot Top Krispy Burgers",
    "category": "amenity",
    "subcategory": "restaurant",
    "latitude": 24.9718934,
    "longitude": 67.0626553,
    "id": 4740020145
  },
  {
    "name": "Govt Boys Secondary School",
    "category": "amenity",
    "subcategory": "school",
    "latitude": 24.9699476,
    "longitude": 67.0582017,
    "id": 4740020147
  },
  {
    "name": "Muhammadi",
    "category": "amenity",
    "subcategory": "place_of_worship",
    "latitude": 24.96974,
    "longitude": 67.0593018,
    "id": 4740020148
  },
  {
    "name": "A To Z Clinic",
    "category": "amenity",
    "subcategory": "clinic",
    "latitude": 24.9658342,
    "longitude": 67.0630589,
    "id": 4740020149
  },
  {
    "name": "Public School And College",
    "category": "amenity",
    "subcategory": "school",
    "latitude": 24.9658036,
    "longitude": 67.0615758,
    "id": 4740020150
  },
  {
    "name": "Shed Homes Complex & Hospital",
    "category": "amenity",
    "subcategory": "hospital",
    "latitude": 24.9657302,
    "longitude": 67.0585065,
    "id": 4740020151
  },
  {
    "name": "Aiwan e Tijarat O Sanat Hospital",
    "category": "amenity",
    "subcategory": "hospital",
    "latitude": 24.965884,
    "longitude": 67.0568476,
    "id": 4740020152
  },
  {
    "name": "Kalyana Hall",
    "category": "amenity",
    "subcategory": "community_centre",
    "latitude": 24.9654371,
    "longitude": 67.0562794,
    "id": 4740020153
  },
  {
    "name": "Masjid E Habibia",
    "category": "amenity",
    "subcategory": "place_of_worship",
    "latitude": 24.9654505,
    "longitude": 67.0538404,
    "id": 4740020154
  },
  {
    "name": "Habibia Hotal",
    "category": "amenity",
    "subcategory": "restaurant",
    "latitude": 24.9650735,
    "longitude": 67.0539756,
    "id": 4740020155
  },
  {
    "name": "Bank lslami",
    "category": "amenity",
    "subcategory": "bank",
    "latitude": 24.9649575,
    "longitude": 67.054021,
    "id": 4740020156
  },
  {
    "name": "Kashif  Bakers and Sweets",
    "category": "amenity",
    "subcategory": "restaurant",
    "latitude": 24.9643391,
    "longitude": 67.0543568,
    "id": 4740020157
  },
  {
    "name": "Khizra",
    "category": "amenity",
    "subcategory": "place_of_worship",
    "latitude": 24.9635516,
    "longitude": 67.0541147,
    "id": 4740020158
  },
  {
    "name": "Ma Ma Burger",
    "category": "amenity",
    "subcategory": "restaurant",
    "latitude": 24.9633434,
    "longitude": 67.0542269,
    "id": 4740020159
  },
  {
    "name": "Kamran Medical Store",
    "category": "amenity",
    "subcategory": "pharmacy",
    "latitude": 24.9626529,
    "longitude": 67.0540646,
    "id": 4740020160
  },
  {
    "name": "New Al Madina Hotel",
    "category": "amenity",
    "subcategory": "restaurant",
    "latitude": 24.9638617,
    "longitude": 67.0535614,
    "id": 4740020161
  },
  {
    "name": "Hijazi Foods",
    "category": "amenity",
    "subcategory": "restaurant",
    "latitude": 24.9644478,
    "longitude": 67.0534544,
    "id": 4740117245
  },
  {
    "name": "North City Public School",
    "category": "amenity",
    "subcategory": "kindergarten",
    "latitude": 24.9644667,
    "longitude": 67.0528728,
    "id": 4740117246
  },
  {
    "name": "Treandz Dy Sana Ansari",
    "category": "shop",
    "subcategory": "clothes",
    "latitude": 24.9642289,
    "longitude": 67.050726,
    "id": 4740117247
  },
  {
    "name": "Riayaz-ul-Jannah",
    "category": "amenity",
    "subcategory": "place_of_worship",
    "latitude": 24.9647995,
    "longitude": 67.0514153,
    "id": 4740117248
  },
  {
    "name": "Lrfan Model School",
    "category": "amenity",
    "subcategory": "kindergarten",
    "latitude": 24.9642617,
    "longitude": 67.0493064,
    "id": 4740117249
  },
  {
    "name": "Gulzar-e-Madina",
    "category": "amenity",
    "subcategory": "place_of_worship",
    "latitude": 24.963381,
    "longitude": 67.0484941,
    "id": 4740117250
  },
  {
    "name": "Hira",
    "category": "amenity",
    "subcategory": "place_of_worship",
    "latitude": 24.9690666,
    "longitude": 67.0476217,
    "id": 4740117251
  },
  {
    "name": "Ahl-e-Hadith",
    "category": "amenity",
    "subcategory": "place_of_worship",
    "latitude": 24.9706636,
    "longitude": 67.0468374,
    "id": 4740117252
  },
  {
    "name": "Jama Masjid",
    "category": "amenity",
    "subcategory": "place_of_worship",
    "latitude": 24.9651248,
    "longitude": 67.0454548,
    "id": 4740117253
  },
  {
    "name": "Shoaib General Store",
    "category": "shop",
    "subcategory": "convenience",
    "latitude": 24.9651984,
    "longitude": 67.0459749,
    "id": 4740117254
  },
  {
    "name": "Ghausia",
    "category": "amenity",
    "subcategory": "place_of_worship",
    "latitude": 24.9634197,
    "longitude": 67.046476,
    "id": 4740117255
  },
  {
    "name": "Bismillah Milk Shop Mazhar Chachi",
    "category": "shop",
    "subcategory": "dairy",
    "latitude": 24.9635451,
    "longitude": 67.045951,
    "id": 4740117256
  },
  {
    "name": "Kashmir Hotel",
    "category": "amenity",
    "subcategory": "restaurant",
    "latitude": 24.9611286,
    "longitude": 67.0477609,
    "id": 4740117257
  },
  {
    "name": "Mg Cng",
    "category": "amenity",
    "subcategory": "fuel",
    "latitude": 24.9571572,
    "longitude": 67.0537087,
    "id": 4740117258
  },
  {
    "name": "Taj ul Aulia",
    "category": "amenity",
    "subcategory": "place_of_worship",
    "latitude": 24.9594047,
    "longitude": 67.0591193,
    "id": 4741397127
  },
  {
    "name": "Sakhi Hasan Graveyard",
    "category": "amenity",
    "subcategory": "grave_yard",
    "latitude": 24.957175,
    "longitude": 67.0543476,
    "id": 4741397128
  },
  {
    "name": "Shadman Park",
    "category": "leisure",
    "subcategory": "park",
    "latitude": 24.9612097,
    "longitude": 67.0574939,
    "id": 4741397129
  },
  {
    "name": "Oxford HIgh School",
    "category": "amenity",
    "subcategory": "school",
    "latitude": 24.9637347,
    "longitude": 67.0572686,
    "id": 4741397131
  },
  {
    "name": "Tikon Park",
    "category": "leisure",
    "subcategory": "park",
    "latitude": 24.963507,
    "longitude": 67.0587385,
    "id": 4741397132
  },
  {
    "name": "Government Children Hospital",
    "category": "amenity",
    "subcategory": "hospital",
    "latitude": 24.9631608,
    "longitude": 67.0611149,
    "id": 4741397133
  },
  {
    "name": "Erum Shopping Mall",
    "category": "shop",
    "subcategory": "mall",
    "latitude": 24.9612053,
    "longitude": 67.0644553,
    "id": 4741397135
  },
  {
    "name": "Shadman",
    "category": "amenity",
    "subcategory": "place_of_worship",
    "latitude": 24.96217,
    "longitude": 67.0584662,
    "id": 4741397151
  },
  {
    "name": "Apna Pakwan Centre",
    "category": "amenity",
    "subcategory": "restaurant",
    "latitude": 24.9935116,
    "longitude": 67.0657587,
    "id": 4764692591
  },
  {
    "name": "Star Haleem",
    "category": "amenity",
    "subcategory": "restaurant",
    "latitude": 24.9996364,
    "longitude": 67.0644359,
    "id": 4764692592
  },
  {
    "name": "سونیری بینک",
    "category": "amenity",
    "subcategory": "bank",
    "latitude": 24.9992173,
    "longitude": 67.0645387,
    "id": 4764692593
  },
  {
    "name": "Karachi Catering",
    "category": "amenity",
    "subcategory": "restaurant",
    "latitude": 24.9999453,
    "longitude": 67.0669063,
    "id": 4764692594
  },
  {
    "name": "Hasan bhai roll chips and mirchi",
    "category": "amenity",
    "subcategory": "restaurant",
    "latitude": 25.0001221,
    "longitude": 67.0668994,
    "id": 4764692595
  },
  {
    "name": "Naeem Shereen",
    "category": "amenity",
    "subcategory": "restaurant",
    "latitude": 25.0003103,
    "longitude": 67.0698125,
    "id": 4764692596
  },
  {
    "name": "Farooq Azam Jama Masjid",
    "category": "amenity",
    "subcategory": "place_of_worship",
    "latitude": 25.001243,
    "longitude": 67.0703777,
    "id": 4764692597
  },
  {
    "name": "Jama Masjid O Imam Bargah e Jafaria",
    "category": "amenity",
    "subcategory": "place_of_worship",
    "latitude": 25.0025648,
    "longitude": 67.070015,
    "id": 4764692598
  },
  {
    "name": "Noorani Masjid",
    "category": "amenity",
    "subcategory": "place_of_worship",
    "latitude": 25.0032638,
    "longitude": 67.0692714,
    "id": 4764692599
  },
  {
    "name": "Cafe Al-Bilal Hotel",
    "category": "amenity",
    "subcategory": "restaurant",
    "latitude": 25.0062141,
    "longitude": 67.0634037,
    "id": 4764692600
  },
  {
    "name": "Jama Masjid Aziziya",
    "category": "amenity",
    "subcategory": "place_of_worship",
    "latitude": 25.0012473,
    "longitude": 67.0643575,
    "id": 4764692601
  },
  {
    "name": "Bank Al-Habib",
    "category": "amenity",
    "subcategory": "bank",
    "latitude": 25.0018832,
    "longitude": 67.0651457,
    "id": 4764692602
  },
  {
    "name": "BankIslami",
    "category": "amenity",
    "subcategory": "bank",
    "latitude": 25.0021832,
    "longitude": 67.0651296,
    "id": 4764692603
  },
  {
    "name": "Naseem CNG",
    "category": "amenity",
    "subcategory": "fuel",
    "latitude": 25.0025068,
    "longitude": 67.0651179,
    "id": 4764692604
  },
  {
    "name": "ایچ بی ایل پاکستان",
    "category": "amenity",
    "subcategory": "bank",
    "latitude": 24.9901495,
    "longitude": 67.0651257,
    "id": 4764692605
  },
  {
    "name": "UBL Bank north karachi",
    "category": "amenity",
    "subcategory": "bank",
    "latitude": 24.9906553,
    "longitude": 67.0659046,
    "id": 4764692606
  },
  {
    "name": "Mr Roll Paratha AC",
    "category": "amenity",
    "subcategory": "restaurant",
    "latitude": 24.9862036,
    "longitude": 67.0661807,
    "id": 4764692607
  },
  {
    "name": "Bakery haroon view",
    "category": "amenity",
    "subcategory": "restaurant",
    "latitude": 24.9867789,
    "longitude": 67.0662793,
    "id": 4764692608
  },
  {
    "name": "M.I. General Store",
    "category": "amenity",
    "subcategory": "pharmacy",
    "latitude": 24.9868061,
    "longitude": 67.0661198,
    "id": 4764692609
  },
  {
    "name": "mr cone icecream",
    "category": "amenity",
    "subcategory": "place_of_worship",
    "latitude": 24.9868124,
    "longitude": 67.0669941,
    "id": 4764692610
  },
  {
    "name": "Jam-e-Masjid Rizwan",
    "category": "amenity",
    "subcategory": "place_of_worship",
    "latitude": 24.987734,
    "longitude": 67.0679769,
    "id": 4764692611
  },
  {
    "name": "Jama E Masjid Allah wali",
    "category": "amenity",
    "subcategory": "place_of_worship",
    "latitude": 24.9835641,
    "longitude": 67.0674059,
    "id": 4764692613
  },
  {
    "name": "Masjid Siddiq-e-Akbar",
    "category": "amenity",
    "subcategory": "place_of_worship",
    "latitude": 24.9831714,
    "longitude": 67.063962,
    "id": 4764692614
  },
  {
    "name": "Sada Bahar Bakery",
    "category": "amenity",
    "subcategory": "bank",
    "latitude": 24.9817962,
    "longitude": 67.0639598,
    "id": 4764692615
  },
  {
    "name": "Shah Medicos",
    "category": "amenity",
    "subcategory": "pharmacy",
    "latitude": 24.9816183,
    "longitude": 67.0640861,
    "id": 4764692616
  },
  {
    "name": "Pizza Abroad",
    "category": "amenity",
    "subcategory": "fast_food",
    "latitude": 24.9816493,
    "longitude": 67.0650208,
    "id": 4764692617
  },
  {
    "name": "Hotway Pizza & Fast Food",
    "category": "amenity",
    "subcategory": "restaurant",
    "latitude": 24.981645,
    "longitude": 67.0651072,
    "id": 4764692618
  },
  {
    "name": "BBQ",
    "category": "amenity",
    "subcategory": "restaurant",
    "latitude": 24.9816524,
    "longitude": 67.0651666,
    "id": 4764692619
  },
  {
    "name": "Dehli hotel",
    "category": "amenity",
    "subcategory": "restaurant",
    "latitude": 24.9816017,
    "longitude": 67.0635719,
    "id": 4764692620
  },
  {
    "name": "kfzzzz Burgers",
    "category": "amenity",
    "subcategory": "cafe",
    "latitude": 24.9815068,
    "longitude": 67.0615866,
    "id": 4764697121
  },
  {
    "name": "place_of_worship",
    "category": "amenity",
    "subcategory": "place_of_worship",
    "latitude": 24.9825472,
    "longitude": 67.0548477,
    "id": 4764697123
  },
  {
    "name": "Pk park",
    "category": "leisure",
    "subcategory": "park",
    "latitude": 24.9821149,
    "longitude": 67.0540493,
    "id": 4764697124
  },
  {
    "name": "مسجد بلال",
    "category": "amenity",
    "subcategory": "place_of_worship",
    "latitude": 24.9810308,
    "longitude": 67.0534277,
    "id": 4764697125
  },
  {
    "name": "Big Bites Resturant",
    "category": "amenity",
    "subcategory": "restaurant",
    "latitude": 24.9792512,
    "longitude": 67.0555112,
    "id": 4764697126
  },
  {
    "name": "Seekh Gosalah",
    "category": "amenity",
    "subcategory": "restaurant",
    "latitude": 24.9788041,
    "longitude": 67.0558216,
    "id": 4764697127
  },
  {
    "name": "New Karachi Sector B 3",
    "category": "highway",
    "subcategory": "bus_stop",
    "latitude": 24.9945434,
    "longitude": 67.0597928,
    "id": 4777267206
  },
  {
    "name": "North Karachi TWP",
    "category": "place",
    "subcategory": "neighbourhood",
    "latitude": 24.9765092,
    "longitude": 67.0611456,
    "id": 4777267207
  },
  {
    "name": "New Karachi Police Station",
    "category": "amenity",
    "subcategory": "police",
    "latitude": 24.9790897,
    "longitude": 67.070215,
    "id": 4785718475
  },
  {
    "name": "Ajmer Nagri Police Station",
    "category": "amenity",
    "subcategory": "police",
    "latitude": 24.9856,
    "longitude": 67.0530054,
    "id": 4785718491
  },
  {
    "name": "Surjani Town Police Station",
    "category": "amenity",
    "subcategory": "police",
    "latitude": 25.0210024,
    "longitude": 67.0637935,
    "id": 4785718493
  },
  {
    "name": "سرجانی",
    "category": "place",
    "subcategory": "suburb",
    "latitude": 25.0253824,
    "longitude": 67.0649138,
    "id": 4785718494
  },
  {
    "name": "Manghopir Police Station",
    "category": "amenity",
    "subcategory": "police",
    "latitude": 24.9847442,
    "longitude": 67.0386799,
    "id": 4785857327
  },
  {
    "name": "Sir Syed Town Police Station",
    "category": "amenity",
    "subcategory": "police",
    "latitude": 24.9680928,
    "longitude": 67.0622878,
    "id": 4785866890
  },
  {
    "name": "Kalyana Town Sector 10 Park",
    "category": "leisure",
    "subcategory": "park",
    "latitude": 24.969913,
    "longitude": 67.0548164,
    "id": 4788748522
  },
  {
    "name": "Jama Masjid Fatah",
    "category": "amenity",
    "subcategory": "place_of_worship",
    "latitude": 25.0134322,
    "longitude": 67.0584407,
    "id": 4807606655
  },
  {
    "name": "Makkah CNG Station",
    "category": "amenity",
    "subcategory": "fuel",
    "latitude": 25.0066145,
    "longitude": 67.0574439,
    "id": 4807680507
  },
  {
    "name": "Jama Masjid Hussainia Hanfia",
    "category": "amenity",
    "subcategory": "place_of_worship",
    "latitude": 25.0097578,
    "longitude": 67.0590308,
    "id": 4807746295
  },
  {
    "name": "Sunrise Ground",
    "category": "leisure",
    "subcategory": "playground",
    "latitude": 25.0093324,
    "longitude": 67.0600956,
    "id": 4807746296
  },
  {
    "name": "Millenium CNG",
    "category": "amenity",
    "subcategory": "fuel",
    "latitude": 25.0169301,
    "longitude": 67.0642923,
    "id": 4807860225
  },
  {
    "name": "Qalandaria Chowk",
    "category": "highway",
    "subcategory": "bus_stop",
    "latitude": 24.9595388,
    "longitude": 67.0500247,
    "id": 4949746314
  },
  {
    "name": "bicycle",
    "category": "shop",
    "subcategory": "bicycle",
    "latitude": 24.9599164,
    "longitude": 67.0665171,
    "id": 5030866621
  },
  {
    "name": "فیصل بینک",
    "category": "amenity",
    "subcategory": "bank",
    "latitude": 24.9869965,
    "longitude": 67.065222,
    "id": 5065686736
  },
  {
    "name": "Asma Beauty Clinic & Institute",
    "category": "shop",
    "subcategory": "beauty",
    "latitude": 24.9872286,
    "longitude": 67.0652555,
    "id": 5065686737
  },
  {
    "name": "Agha Khan Laboratory Collection Point",
    "category": "amenity",
    "subcategory": "clinic",
    "latitude": 24.9868263,
    "longitude": 67.0651871,
    "id": 5065686738
  },
  {
    "name": "Pak Folks Grammer School.",
    "category": "amenity",
    "subcategory": "school",
    "latitude": 24.988426,
    "longitude": 67.0610887,
    "id": 5065686739
  },
  {
    "name": "Jamia Masjid Rehmania Ahle Hadees",
    "category": "amenity",
    "subcategory": "place_of_worship",
    "latitude": 24.9882193,
    "longitude": 67.0608687,
    "id": 5065686740
  },
  {
    "name": "Shohda e Haqparast Health Gym",
    "category": "leisure",
    "subcategory": "fitness_centre",
    "latitude": 24.9878668,
    "longitude": 67.0628804,
    "id": 5065686741
  },
  {
    "name": "Children Paradise Secondary School",
    "category": "amenity",
    "subcategory": "school",
    "latitude": 24.9882947,
    "longitude": 67.0616707,
    "id": 5065686742
  },
  {
    "name": "Shabbir Govt Girls & Boys Elementary School",
    "category": "amenity",
    "subcategory": "school",
    "latitude": 24.9880394,
    "longitude": 67.0625639,
    "id": 5065686743
  },
  {
    "name": "Play Ground",
    "category": "leisure",
    "subcategory": "playground",
    "latitude": 24.9881014,
    "longitude": 67.0635992,
    "id": 5065686744
  },
  {
    "name": "پاکستان اسٹیٹ آئل",
    "category": "amenity",
    "subcategory": "fuel",
    "latitude": 24.9883798,
    "longitude": 67.0649672,
    "id": 5065686745
  },
  {
    "name": "Makki Masjid",
    "category": "amenity",
    "subcategory": "place_of_worship",
    "latitude": 24.9886885,
    "longitude": 67.0638004,
    "id": 5065686746
  },
  {
    "name": "Masjid e Ibrahim Khalil Ullah",
    "category": "amenity",
    "subcategory": "place_of_worship",
    "latitude": 24.9895747,
    "longitude": 67.0647553,
    "id": 5065686747
  },
  {
    "name": "میزان بینک",
    "category": "amenity",
    "subcategory": "bank",
    "latitude": 24.989114,
    "longitude": 67.0651442,
    "id": 5065693679
  },
  {
    "name": "الائیڈ بینک لمیٹڈ",
    "category": "amenity",
    "subcategory": "bank",
    "latitude": 24.9886423,
    "longitude": 67.0651442,
    "id": 5065693680
  },
  {
    "name": "Masjid e Quba",
    "category": "amenity",
    "subcategory": "place_of_worship",
    "latitude": 24.9880151,
    "longitude": 67.0649698,
    "id": 5065693681
  },
  {
    "name": "A J Marriage Garden",
    "category": "amenity",
    "subcategory": "community_centre",
    "latitude": 25.0061559,
    "longitude": 67.0638368,
    "id": 5071224377
  },
  {
    "name": "Usman Public School",
    "category": "amenity",
    "subcategory": "school",
    "latitude": 25.005733,
    "longitude": 67.0640728,
    "id": 5071224378
  },
  {
    "name": "KTC Bus Terminal",
    "category": "amenity",
    "subcategory": "bus_station",
    "latitude": 25.0057573,
    "longitude": 67.0655105,
    "id": 5071224379
  },
  {
    "name": "Taj Mahal Marriage Hall",
    "category": "amenity",
    "subcategory": "community_centre",
    "latitude": 25.0049746,
    "longitude": 67.0649204,
    "id": 5071224380
  },
  {
    "name": "Jama Masjid Al Tuheed",
    "category": "amenity",
    "subcategory": "place_of_worship",
    "latitude": 25.0055162,
    "longitude": 67.0665485,
    "id": 5071224381
  },
  {
    "name": "Mini Mart",
    "category": "shop",
    "subcategory": "convenience",
    "latitude": 25.0053893,
    "longitude": 67.0665727,
    "id": 5071224382
  },
  {
    "name": "Jama Masjid Khizra",
    "category": "amenity",
    "subcategory": "place_of_worship",
    "latitude": 25.0056853,
    "longitude": 67.0676241,
    "id": 5071224383
  },
  {
    "name": "AL Fatima Shopping Mall",
    "category": "shop",
    "subcategory": "mall",
    "latitude": 25.0060422,
    "longitude": 67.0695284,
    "id": 5071224384
  },
  {
    "name": "Syed Rashid Jillani Shaheed Family Park",
    "category": "leisure",
    "subcategory": "park",
    "latitude": 25.0026439,
    "longitude": 67.0688311,
    "id": 5071224385
  },
  {
    "name": "Shaheed Dilawar Abbas Family Park",
    "category": "leisure",
    "subcategory": "park",
    "latitude": 25.0021869,
    "longitude": 67.0691556,
    "id": 5071224386
  },
  {
    "name": "Muslim Masjid",
    "category": "amenity",
    "subcategory": "place_of_worship",
    "latitude": 25.0034237,
    "longitude": 67.065489,
    "id": 5071294420
  },
  {
    "name": "Aqeela Latif Memorial Hospital",
    "category": "amenity",
    "subcategory": "hospital",
    "latitude": 25.0012,
    "longitude": 67.063981,
    "id": 5071297221
  },
  {
    "name": "ٹوٹل",
    "category": "amenity",
    "subcategory": "fuel",
    "latitude": 25.0016956,
    "longitude": 67.0642465,
    "id": 5071297222
  },
  {
    "name": "Tayaba Masjid",
    "category": "amenity",
    "subcategory": "place_of_worship",
    "latitude": 25.0014209,
    "longitude": 67.0599282,
    "id": 5071297224
  },
  {
    "name": "Iman Bargah",
    "category": "amenity",
    "subcategory": "place_of_worship",
    "latitude": 25.0017746,
    "longitude": 67.0608267,
    "id": 5071297225
  },
  {
    "name": "Masjid Qayyum",
    "category": "amenity",
    "subcategory": "place_of_worship",
    "latitude": 25.0037356,
    "longitude": 67.0556554,
    "id": 5071495074
  },
  {
    "name": "Eid Gaah Ground",
    "category": "amenity",
    "subcategory": "place_of_worship",
    "latitude": 25.0041756,
    "longitude": 67.0559397,
    "id": 5071495075
  },
  {
    "name": "Lucky Frech Fries",
    "category": "amenity",
    "subcategory": "restaurant",
    "latitude": 25.0027438,
    "longitude": 67.0557841,
    "id": 5071495076
  },
  {
    "name": "Hani Fast Food",
    "category": "amenity",
    "subcategory": "restaurant",
    "latitude": 25.0025199,
    "longitude": 67.0548199,
    "id": 5071495077
  },
  {
    "name": "Ambitious Ice Cream Parlor",
    "category": "amenity",
    "subcategory": "ice_cream",
    "latitude": 25.0026755,
    "longitude": 67.0542861,
    "id": 5071495078
  },
  {
    "name": "Fine Dairy Shop",
    "category": "shop",
    "subcategory": "dairy",
    "latitude": 25.0025467,
    "longitude": 67.0551391,
    "id": 5071495079
  },
  {
    "name": "High Star Public School",
    "category": "amenity",
    "subcategory": "school",
    "latitude": 25.0024251,
    "longitude": 67.0542888,
    "id": 5071495080
  },
  {
    "name": "Jaama Masjid Noor e Haram",
    "category": "amenity",
    "subcategory": "place_of_worship",
    "latitude": 25.0024653,
    "longitude": 67.0539787,
    "id": 5071495081
  },
  {
    "name": "Zain Bakery",
    "category": "shop",
    "subcategory": "bakery",
    "latitude": 25.0029646,
    "longitude": 67.0539465,
    "id": 5071495082
  },
  {
    "name": "Zoom Public School",
    "category": "amenity",
    "subcategory": "school",
    "latitude": 25.003463,
    "longitude": 67.0538955,
    "id": 5071495083
  },
  {
    "name": "masjid Ashat Ul Quran",
    "category": "amenity",
    "subcategory": "place_of_worship",
    "latitude": 25.0056434,
    "longitude": 67.0535844,
    "id": 5071495084
  },
  {
    "name": "Makkah Restaurant",
    "category": "amenity",
    "subcategory": "restaurant",
    "latitude": 25.0058714,
    "longitude": 67.0577928,
    "id": 5071540158
  },
  {
    "name": "Al Madina Restaurant",
    "category": "amenity",
    "subcategory": "restaurant",
    "latitude": 25.0058319,
    "longitude": 67.0576218,
    "id": 5071540159
  },
  {
    "name": "Utility Store",
    "category": "shop",
    "subcategory": "convenience",
    "latitude": 25.0058264,
    "longitude": 67.0574173,
    "id": 5071540160
  },
  {
    "name": "Masjid Usman Ghani",
    "category": "amenity",
    "subcategory": "place_of_worship",
    "latitude": 25.0047608,
    "longitude": 67.0576459,
    "id": 5071540161
  },
  {
    "name": "fuel",
    "category": "amenity",
    "subcategory": "fuel",
    "latitude": 24.9668043,
    "longitude": 67.0674736,
    "id": 5083564021
  },
  {
    "name": "Sahar Clinic",
    "category": "amenity",
    "subcategory": "hospital",
    "latitude": 24.962149,
    "longitude": 67.0628213,
    "id": 5084119281
  },
  {
    "name": "Al Madina Fast Food",
    "category": "amenity",
    "subcategory": "restaurant",
    "latitude": 24.9664257,
    "longitude": 67.0664495,
    "id": 5084136002
  },
  {
    "name": "Haji Ahktar Pakwan & Baryani Center",
    "category": "amenity",
    "subcategory": "restaurant",
    "latitude": 24.9665805,
    "longitude": 67.0664455,
    "id": 5084136003
  },
  {
    "name": "Haji Ahktar Pakwan & Baryani Center",
    "category": "amenity",
    "subcategory": "restaurant",
    "latitude": 24.9668127,
    "longitude": 67.0664333,
    "id": 5084136004
  },
  {
    "name": "Karachi Pakwan",
    "category": "amenity",
    "subcategory": "restaurant",
    "latitude": 24.9673508,
    "longitude": 67.0664211,
    "id": 5084136005
  },
  {
    "name": "Fayyaz Foods",
    "category": "amenity",
    "subcategory": "restaurant",
    "latitude": 24.9674945,
    "longitude": 67.066417,
    "id": 5084136006
  },
  {
    "name": "Haji Asghar Rabri",
    "category": "amenity",
    "subcategory": "restaurant",
    "latitude": 24.9679112,
    "longitude": 67.066329,
    "id": 5084136007
  },
  {
    "name": "Mehran Ice Cream",
    "category": "amenity",
    "subcategory": "restaurant",
    "latitude": 24.9679626,
    "longitude": 67.0663845,
    "id": 5084136008
  },
  {
    "name": "TCS",
    "category": "office",
    "subcategory": "courier",
    "latitude": 24.9682685,
    "longitude": 67.0663682,
    "id": 5084136009
  },
  {
    "name": "Al-Haaj Akhtar Restaurant",
    "category": "amenity",
    "subcategory": "restaurant",
    "latitude": 24.9686289,
    "longitude": 67.0663254,
    "id": 5084136010
  },
  {
    "name": "Qureshi Kababish & Nihari Hotel",
    "category": "amenity",
    "subcategory": "restaurant",
    "latitude": 24.9660172,
    "longitude": 67.0673942,
    "id": 5084136011
  },
  {
    "name": "Jamia Masjid Siddiq-e-Akbar",
    "category": "amenity",
    "subcategory": "place_of_worship",
    "latitude": 24.9658729,
    "longitude": 67.0678366,
    "id": 5084136012
  },
  {
    "name": "Fazl e Rabbi daal chawal",
    "category": "amenity",
    "subcategory": "restaurant",
    "latitude": 24.966059,
    "longitude": 67.0678897,
    "id": 5084136013
  },
  {
    "name": "Masha Allah Cafe Day Night",
    "category": "amenity",
    "subcategory": "cafe",
    "latitude": 24.9660982,
    "longitude": 67.0673695,
    "id": 5084136014
  },
  {
    "name": "UBL Omni",
    "category": "shop",
    "subcategory": "yes",
    "latitude": 24.9662629,
    "longitude": 67.0673609,
    "id": 5084136015
  },
  {
    "name": "Jameel Medicos",
    "category": "amenity",
    "subcategory": "pharmacy",
    "latitude": 24.9669405,
    "longitude": 67.068484,
    "id": 5084136016
  },
  {
    "name": "Muslim Commercial Bank",
    "category": "amenity",
    "subcategory": "bank",
    "latitude": 24.9696321,
    "longitude": 67.0671244,
    "id": 5084136017
  },
  {
    "name": "شیل",
    "category": "amenity",
    "subcategory": "fuel",
    "latitude": 24.9698863,
    "longitude": 67.067109,
    "id": 5084136018
  },
  {
    "name": "Soneri Bank Limited",
    "category": "amenity",
    "subcategory": "bank",
    "latitude": 24.970336,
    "longitude": 67.067072,
    "id": 5084136019
  },
  {
    "name": "Bismillah Kachori Corner",
    "category": "amenity",
    "subcategory": "cafe",
    "latitude": 24.9720146,
    "longitude": 67.0669734,
    "id": 5084136020
  },
  {
    "name": "Kashif Bakers and Sweets",
    "category": "amenity",
    "subcategory": "restaurant",
    "latitude": 24.9710842,
    "longitude": 67.0688723,
    "id": 5084136121
  },
  {
    "name": "Pizza Bite - North Karachi Branch 2",
    "category": "amenity",
    "subcategory": "restaurant",
    "latitude": 24.9753829,
    "longitude": 67.0659688,
    "id": 5084136122
  },
  {
    "name": "United Queen Foods",
    "category": "amenity",
    "subcategory": "fast_food",
    "latitude": 24.9744604,
    "longitude": 67.066017,
    "id": 5084136123
  },
  {
    "name": "Hakimi",
    "category": "amenity",
    "subcategory": "place_of_worship",
    "latitude": 24.9740191,
    "longitude": 67.0655857,
    "id": 5084136124
  },
  {
    "name": "Amina Motors",
    "category": "shop",
    "subcategory": "car",
    "latitude": 24.9622045,
    "longitude": 67.064128,
    "id": 5084174885
  },
  {
    "name": "Warsi Decoration",
    "category": "shop",
    "subcategory": "interior_decoration",
    "latitude": 24.96123,
    "longitude": 67.0633057,
    "id": 5084174886
  },
  {
    "name": "Qureshi Health Center",
    "category": "amenity",
    "subcategory": "clinic",
    "latitude": 24.9609892,
    "longitude": 67.0630803,
    "id": 5084174888
  },
  {
    "name": "Sana Medicos",
    "category": "amenity",
    "subcategory": "pharmacy",
    "latitude": 24.9609332,
    "longitude": 67.063036,
    "id": 5084174889
  },
  {
    "name": "Warsi Pakwan & Fast Foods",
    "category": "amenity",
    "subcategory": "fast_food",
    "latitude": 24.9610962,
    "longitude": 67.0631688,
    "id": 5084174890
  },
  {
    "name": "Lasani 7",
    "category": "amenity",
    "subcategory": "restaurant",
    "latitude": 24.9608579,
    "longitude": 67.0629569,
    "id": 5084174891
  },
  {
    "name": "Zeeshan Bar B Q",
    "category": "amenity",
    "subcategory": "restaurant",
    "latitude": 24.9606761,
    "longitude": 67.0628329,
    "id": 5084174893
  },
  {
    "name": "Laraib Foods",
    "category": "amenity",
    "subcategory": "fast_food",
    "latitude": 24.9603594,
    "longitude": 67.062517,
    "id": 5084174894
  },
  {
    "name": "Anglophile English Learning Centre",
    "category": "office",
    "subcategory": "educational_institution",
    "latitude": 24.9738069,
    "longitude": 67.065863,
    "id": 5084201531
  },
  {
    "name": "Tayyaba",
    "category": "amenity",
    "subcategory": "place_of_worship",
    "latitude": 24.9750902,
    "longitude": 67.0637858,
    "id": 5084201532
  },
  {
    "name": "Shah Jee Burger",
    "category": "amenity",
    "subcategory": "fast_food",
    "latitude": 24.9761016,
    "longitude": 67.0649043,
    "id": 5084201533
  },
  {
    "name": "Bank-Al-Falah",
    "category": "amenity",
    "subcategory": "bank",
    "latitude": 24.9765512,
    "longitude": 67.0658882,
    "id": 5084201534
  },
  {
    "name": "Roadway",
    "category": "amenity",
    "subcategory": "restaurant",
    "latitude": 24.9768534,
    "longitude": 67.0658516,
    "id": 5084201535
  },
  {
    "name": "Sir Adamjee Institute",
    "category": "office",
    "subcategory": "educational_institution",
    "latitude": 24.9770782,
    "longitude": 67.0658475,
    "id": 5084201536
  },
  {
    "name": "Pizza Bite",
    "category": "amenity",
    "subcategory": "restaurant",
    "latitude": 24.9773325,
    "longitude": 67.0658394,
    "id": 5084201537
  },
  {
    "name": "Huzaifa Juice",
    "category": "amenity",
    "subcategory": "restaurant",
    "latitude": 24.977551,
    "longitude": 67.0658389,
    "id": 5084201538
  },
  {
    "name": "Dawat Inn",
    "category": "amenity",
    "subcategory": "restaurant",
    "latitude": 24.9776567,
    "longitude": 67.0658144,
    "id": 5084201539
  },
  {
    "name": "Ayyan Ice Cream Parlour",
    "category": "amenity",
    "subcategory": "restaurant",
    "latitude": 24.9778914,
    "longitude": 67.0658214,
    "id": 5084201540
  },
  {
    "name": "Arena Multimedia",
    "category": "office",
    "subcategory": "educational_institution",
    "latitude": 24.9780393,
    "longitude": 67.0657898,
    "id": 5084201541
  },
  {
    "name": "Pizza Point",
    "category": "amenity",
    "subcategory": "restaurant",
    "latitude": 24.9782208,
    "longitude": 67.0657528,
    "id": 5084201542
  },
  {
    "name": "Qadri Chaat House",
    "category": "amenity",
    "subcategory": "restaurant",
    "latitude": 24.9784135,
    "longitude": 67.0657466,
    "id": 5084201543
  },
  {
    "name": "Habib Metro Bank",
    "category": "amenity",
    "subcategory": "bank",
    "latitude": 24.978609,
    "longitude": 67.0657589,
    "id": 5084201544
  },
  {
    "name": "Nice Bakers And Sweets",
    "category": "shop",
    "subcategory": "bakery",
    "latitude": 24.9792877,
    "longitude": 67.0656449,
    "id": 5084201546
  },
  {
    "name": "Dhamthal Sweets and Bakers",
    "category": "shop",
    "subcategory": "bakery",
    "latitude": 24.9795895,
    "longitude": 67.0656907,
    "id": 5084201547
  },
  {
    "name": "Fish Master",
    "category": "amenity",
    "subcategory": "restaurant",
    "latitude": 24.9798204,
    "longitude": 67.0656659,
    "id": 5084201548
  },
  {
    "name": "Al Hidayah Academy",
    "category": "office",
    "subcategory": "educational_institution",
    "latitude": 24.9800141,
    "longitude": 67.0656735,
    "id": 5084201549
  },
  {
    "name": "Lycos Grammar School",
    "category": "office",
    "subcategory": "educational_institution",
    "latitude": 24.9803339,
    "longitude": 67.065641,
    "id": 5084201550
  },
  {
    "name": "Karachi Cafe",
    "category": "amenity",
    "subcategory": "restaurant",
    "latitude": 24.9599576,
    "longitude": 67.0635547,
    "id": 5084230973
  },
  {
    "name": "Spicy Hut",
    "category": "amenity",
    "subcategory": "restaurant",
    "latitude": 24.9602188,
    "longitude": 67.0636949,
    "id": 5084230974
  },
  {
    "name": "Shiraz Cold",
    "category": "shop",
    "subcategory": "yes",
    "latitude": 24.9603082,
    "longitude": 67.0637103,
    "id": 5084230975
  },
  {
    "name": "S A Fast Foods",
    "category": "amenity",
    "subcategory": "fast_food",
    "latitude": 24.9597691,
    "longitude": 67.0638828,
    "id": 5084230976
  },
  {
    "name": "Dil Pasand Chat",
    "category": "amenity",
    "subcategory": "fast_food",
    "latitude": 24.959797,
    "longitude": 67.0638381,
    "id": 5084230977
  },
  {
    "name": "Al Siraj Dehli Pakwan & Biryani Center",
    "category": "amenity",
    "subcategory": "restaurant",
    "latitude": 24.9596643,
    "longitude": 67.0640168,
    "id": 5084230978
  },
  {
    "name": "Panther Snooker Club",
    "category": "leisure",
    "subcategory": "sports_centre",
    "latitude": 24.959642,
    "longitude": 67.0643896,
    "id": 5084230979
  },
  {
    "name": "Ghosia fast Food Center",
    "category": "amenity",
    "subcategory": "fast_food",
    "latitude": 24.9593124,
    "longitude": 67.0645468,
    "id": 5084230980
  },
  {
    "name": "AA Pakwan Fast Food Center",
    "category": "amenity",
    "subcategory": "fast_food",
    "latitude": 24.9591113,
    "longitude": 67.0648194,
    "id": 5084230981
  },
  {
    "name": "Syed Medical Store",
    "category": "amenity",
    "subcategory": "pharmacy",
    "latitude": 24.9590819,
    "longitude": 67.0652415,
    "id": 5084230982
  },
  {
    "name": "Islahi Book Center and Stationeries",
    "category": "shop",
    "subcategory": "stationery",
    "latitude": 24.9589772,
    "longitude": 67.0653894,
    "id": 5084230983
  },
  {
    "name": "Doner Bite",
    "category": "amenity",
    "subcategory": "restaurant",
    "latitude": 24.9584157,
    "longitude": 67.0657545,
    "id": 5084230984
  },
  {
    "name": "Decent Lawn",
    "category": "amenity",
    "subcategory": "community_centre",
    "latitude": 24.9806648,
    "longitude": 67.0656242,
    "id": 5084263552
  },
  {
    "name": "شیل",
    "category": "amenity",
    "subcategory": "fuel",
    "latitude": 24.9814811,
    "longitude": 67.0655554,
    "id": 5084263553
  },
  {
    "name": "Woodland Secondary School",
    "category": "office",
    "subcategory": "educational_institution",
    "latitude": 24.9821517,
    "longitude": 67.0655554,
    "id": 5084263554
  },
  {
    "name": "Little Flowers Secondary School",
    "category": "office",
    "subcategory": "educational_institution",
    "latitude": 24.9828003,
    "longitude": 67.0654944,
    "id": 5084263555
  },
  {
    "name": "KARACHI DHABA",
    "category": "amenity",
    "subcategory": "restaurant",
    "latitude": 24.982745,
    "longitude": 67.0653277,
    "id": 5084263556
  },
  {
    "name": "Alpine Gelato",
    "category": "amenity",
    "subcategory": "restaurant",
    "latitude": 24.9829422,
    "longitude": 67.0654965,
    "id": 5084263557
  },
  {
    "name": "Aisha Lawn",
    "category": "amenity",
    "subcategory": "community_centre",
    "latitude": 24.9833383,
    "longitude": 67.065468,
    "id": 5084263558
  },
  {
    "name": "SHS Schooling System",
    "category": "office",
    "subcategory": "educational_institution",
    "latitude": 24.9836921,
    "longitude": 67.0653115,
    "id": 5084263559
  },
  {
    "name": "Mahrose Beauty Parlour",
    "category": "shop",
    "subcategory": "beauty",
    "latitude": 24.9839298,
    "longitude": 67.0654212,
    "id": 5084263560
  },
  {
    "name": "Al-Khidmat Medical Centre",
    "category": "amenity",
    "subcategory": "hospital",
    "latitude": 24.9847271,
    "longitude": 67.0653554,
    "id": 5084263561
  },
  {
    "name": "Al-Huda Mosque",
    "category": "amenity",
    "subcategory": "place_of_worship",
    "latitude": 24.9848012,
    "longitude": 67.064582,
    "id": 5084263562
  },
  {
    "name": "Usman Public School - Campus 2",
    "category": "office",
    "subcategory": "educational_institution",
    "latitude": 24.9850129,
    "longitude": 67.0651199,
    "id": 5084263563
  },
  {
    "name": "Usman Public School System Campus-II",
    "category": "office",
    "subcategory": "educational_institution",
    "latitude": 24.9852439,
    "longitude": 67.0650952,
    "id": 5084263564
  },
  {
    "name": "Apna Driving School",
    "category": "amenity",
    "subcategory": "driving_school",
    "latitude": 24.9597074,
    "longitude": 67.0632027,
    "id": 5084285049
  },
  {
    "name": "Zain Radiator Works",
    "category": "shop",
    "subcategory": "yes",
    "latitude": 24.9616922,
    "longitude": 67.0649143,
    "id": 5084285050
  },
  {
    "name": "Advance Pakistan Microfinance Bank Ltd",
    "category": "amenity",
    "subcategory": "bank",
    "latitude": 24.9615899,
    "longitude": 67.0636192,
    "id": 5084285052
  },
  {
    "name": "TFC Burger",
    "category": "amenity",
    "subcategory": "fast_food",
    "latitude": 24.9600967,
    "longitude": 67.0619682,
    "id": 5084285053
  },
  {
    "name": "QMobile Customer Care Center",
    "category": "shop",
    "subcategory": "mobile_phone",
    "latitude": 24.959824,
    "longitude": 67.062111,
    "id": 5084285054
  },
  {
    "name": "بينک الحبيب",
    "category": "amenity",
    "subcategory": "bank",
    "latitude": 24.9597223,
    "longitude": 67.0620054,
    "id": 5084285055
  },
  {
    "name": "Shadman Bus Stop",
    "category": "highway",
    "subcategory": "bus_stop",
    "latitude": 24.9599293,
    "longitude": 67.0621918,
    "id": 5084285056
  },
  {
    "name": "Pakistan Post",
    "category": "amenity",
    "subcategory": "post_office",
    "latitude": 24.9594765,
    "longitude": 67.0617134,
    "id": 5084285057
  },
  {
    "name": "الائیڈ بینک لمیٹڈ",
    "category": "amenity",
    "subcategory": "bank",
    "latitude": 24.9590915,
    "longitude": 67.0613885,
    "id": 5084285058
  },
  {
    "name": "بینک اسلامی",
    "category": "amenity",
    "subcategory": "bank",
    "latitude": 24.9578085,
    "longitude": 67.0603701,
    "id": 5084285059
  },
  {
    "name": "Bank Al Habib",
    "category": "amenity",
    "subcategory": "bank",
    "latitude": 24.9571741,
    "longitude": 67.0609736,
    "id": 5084285060
  },
  {
    "name": "Riaz Wella Mens Beauty Saloon",
    "category": "shop",
    "subcategory": "hairdresser",
    "latitude": 24.9571702,
    "longitude": 67.059815,
    "id": 5084285061
  },
  {
    "name": "A A Food Center",
    "category": "amenity",
    "subcategory": "fast_food",
    "latitude": 24.957042,
    "longitude": 67.0597136,
    "id": 5084324797
  },
  {
    "name": "Nice Bakery",
    "category": "shop",
    "subcategory": "bakery",
    "latitude": 24.9562248,
    "longitude": 67.0691542,
    "id": 5086170862
  },
  {
    "name": "FR Communication & General Store",
    "category": "shop",
    "subcategory": "yes",
    "latitude": 24.9559104,
    "longitude": 67.069206,
    "id": 5086170863
  },
  {
    "name": "Al Rehman General Store",
    "category": "shop",
    "subcategory": "supermarket",
    "latitude": 24.9560394,
    "longitude": 67.069023,
    "id": 5086170864
  },
  {
    "name": "Uzma Medical Center",
    "category": "amenity",
    "subcategory": "hospital",
    "latitude": 24.956594,
    "longitude": 67.0682913,
    "id": 5086170865
  },
  {
    "name": "Noor Chicken Shop",
    "category": "shop",
    "subcategory": "yes",
    "latitude": 24.9567374,
    "longitude": 67.0677347,
    "id": 5086170866
  },
  {
    "name": "Al-Wardah Mart",
    "category": "shop",
    "subcategory": "supermarket",
    "latitude": 24.9565574,
    "longitude": 67.0675845,
    "id": 5086170868
  },
  {
    "name": "Food Zone Karachi",
    "category": "amenity",
    "subcategory": "fast_food",
    "latitude": 24.9569101,
    "longitude": 67.0674715,
    "id": 5086170869
  },
  {
    "name": "Hiba Electronic",
    "category": "shop",
    "subcategory": "electronics",
    "latitude": 24.9565344,
    "longitude": 67.0671607,
    "id": 5086170870
  },
  {
    "name": "Print Corner",
    "category": "shop",
    "subcategory": "yes",
    "latitude": 24.9564845,
    "longitude": 67.0671138,
    "id": 5086170871
  },
  {
    "name": "jaints clothes market",
    "category": "amenity",
    "subcategory": "marketplace",
    "latitude": 24.9558484,
    "longitude": 66.9957201,
    "id": 5098122932
  },
  {
    "name": "Jama Masjid Halima Sadia",
    "category": "amenity",
    "subcategory": "place_of_worship",
    "latitude": 24.9566456,
    "longitude": 66.9954616,
    "id": 5098122934
  },
  {
    "name": "Dhaka Cloth",
    "category": "shop",
    "subcategory": "clothes",
    "latitude": 24.9576012,
    "longitude": 66.9955508,
    "id": 5098122936
  },
  {
    "name": "Pak Islamia Secondary School",
    "category": "amenity",
    "subcategory": "school",
    "latitude": 24.9583384,
    "longitude": 66.9955684,
    "id": 5098122937
  },
  {
    "name": "Al Macca hardware",
    "category": "shop",
    "subcategory": "hardware",
    "latitude": 24.9586005,
    "longitude": 66.99526,
    "id": 5098122938
  },
  {
    "name": "Imran Zari Center",
    "category": "shop",
    "subcategory": "clothes",
    "latitude": 24.959223,
    "longitude": 66.9953237,
    "id": 5098122939
  },
  {
    "name": "Ghousia Palace",
    "category": "amenity",
    "subcategory": "community_centre",
    "latitude": 24.9600614,
    "longitude": 66.9948741,
    "id": 5098122941
  },
  {
    "name": "New Dew Pharma",
    "category": "amenity",
    "subcategory": "pharmacy",
    "latitude": 24.9601701,
    "longitude": 66.9950828,
    "id": 5098122942
  },
  {
    "name": "Sultan Mini Franchise",
    "category": "shop",
    "subcategory": "furniture",
    "latitude": 24.9600737,
    "longitude": 66.9954383,
    "id": 5098122943
  },
  {
    "name": "Irfan Book Salers",
    "category": "shop",
    "subcategory": "books",
    "latitude": 24.9602245,
    "longitude": 66.9954947,
    "id": 5098122944
  },
  {
    "name": "Al Ashraf Lawn",
    "category": "amenity",
    "subcategory": "community_centre",
    "latitude": 24.9616352,
    "longitude": 66.9947166,
    "id": 5098122946
  },
  {
    "name": "G  Ali Resturant",
    "category": "amenity",
    "subcategory": "restaurant",
    "latitude": 24.96175,
    "longitude": 66.994449,
    "id": 5098122947
  },
  {
    "name": "Bilal Autos",
    "category": "shop",
    "subcategory": "car_repair",
    "latitude": 24.9623177,
    "longitude": 66.9945585,
    "id": 5098122948
  },
  {
    "name": "Awais Karni Masjid",
    "category": "amenity",
    "subcategory": "place_of_worship",
    "latitude": 24.963089,
    "longitude": 66.9944352,
    "id": 5098145981
  },
  {
    "name": "Galaxy Garden",
    "category": "amenity",
    "subcategory": "community_centre",
    "latitude": 24.964126,
    "longitude": 66.9941155,
    "id": 5098145983
  },
  {
    "name": "M R Computers 2",
    "category": "shop",
    "subcategory": "computer",
    "latitude": 24.9643255,
    "longitude": 66.9940388,
    "id": 5098241755
  },
  {
    "name": "sami&Ayaz general store",
    "category": "shop",
    "subcategory": "supermarket",
    "latitude": 24.9647239,
    "longitude": 66.9956733,
    "id": 5098241756
  },
  {
    "name": "Pak American English Language Center",
    "category": "office",
    "subcategory": "educational_institution",
    "latitude": 24.9655421,
    "longitude": 66.9937177,
    "id": 5098241757
  },
  {
    "name": "Masjid Gulshan E attar",
    "category": "amenity",
    "subcategory": "place_of_worship",
    "latitude": 24.9653592,
    "longitude": 66.9928789,
    "id": 5098241758
  },
  {
    "name": "Suhag Lawn",
    "category": "amenity",
    "subcategory": "community_centre",
    "latitude": 24.9667805,
    "longitude": 66.9933213,
    "id": 5098241759
  },
  {
    "name": "CNG Station",
    "category": "amenity",
    "subcategory": "fuel",
    "latitude": 24.9676532,
    "longitude": 66.9930912,
    "id": 5098241760
  },
  {
    "name": "Norwegian School",
    "category": "amenity",
    "subcategory": "school",
    "latitude": 24.9683463,
    "longitude": 66.9926878,
    "id": 5098241761
  },
  {
    "name": "Sadaf Stationary",
    "category": "shop",
    "subcategory": "stationery",
    "latitude": 24.9697515,
    "longitude": 66.9925238,
    "id": 5098274617
  },
  {
    "name": "Pre Grammar School",
    "category": "amenity",
    "subcategory": "school",
    "latitude": 24.9695475,
    "longitude": 66.9918547,
    "id": 5098274618
  },
  {
    "name": "Al Basit Lawn",
    "category": "amenity",
    "subcategory": "community_centre",
    "latitude": 24.9701528,
    "longitude": 66.9927843,
    "id": 5098274619
  },
  {
    "name": "school",
    "category": "amenity",
    "subcategory": "school",
    "latitude": 24.970109,
    "longitude": 66.9924461,
    "id": 5098274620
  },
  {
    "name": "Al Rehman Air Conditoned & Fridge",
    "category": "shop",
    "subcategory": "yes",
    "latitude": 24.9713307,
    "longitude": 66.9917995,
    "id": 5098337021
  },
  {
    "name": "City garden",
    "category": "amenity",
    "subcategory": "community_centre",
    "latitude": 24.9698526,
    "longitude": 66.992862,
    "id": 5098337022
  },
  {
    "name": "Byco Filling Station",
    "category": "shop",
    "subcategory": "fuel",
    "latitude": 24.9707399,
    "longitude": 66.9927295,
    "id": 5098337023
  },
  {
    "name": "Gulshan e Bhar Marriage Hall",
    "category": "amenity",
    "subcategory": "community_centre",
    "latitude": 24.9716892,
    "longitude": 66.9924509,
    "id": 5098337024
  },
  {
    "name": "Ashiana Enterprises and Photocopier",
    "category": "shop",
    "subcategory": "printing",
    "latitude": 24.9731399,
    "longitude": 66.9919803,
    "id": 5098337025
  },
  {
    "name": "cosmetics",
    "category": "shop",
    "subcategory": "cosmetics",
    "latitude": 24.9733661,
    "longitude": 66.9917191,
    "id": 5098337026
  },
  {
    "name": "Qadirya Medical Store",
    "category": "amenity",
    "subcategory": "pharmacy",
    "latitude": 24.9733864,
    "longitude": 66.9919244,
    "id": 5098337027
  },
  {
    "name": "Ezn mobil shop",
    "category": "shop",
    "subcategory": "mobile_phone",
    "latitude": 24.9709458,
    "longitude": 66.992635,
    "id": 5100414898
  },
  {
    "name": "Ghousia Bakers",
    "category": "shop",
    "subcategory": "bakery",
    "latitude": 24.9736674,
    "longitude": 66.9919071,
    "id": 5100414899
  },
  {
    "name": "Masjid E Aqsa",
    "category": "amenity",
    "subcategory": "place_of_worship",
    "latitude": 24.9740798,
    "longitude": 66.9916897,
    "id": 5100414901
  },
  {
    "name": "Touheed Super Store",
    "category": "shop",
    "subcategory": "supermarket",
    "latitude": 24.9744007,
    "longitude": 66.9917923,
    "id": 5100414902
  },
  {
    "name": "Khursheed Computer",
    "category": "shop",
    "subcategory": "computer",
    "latitude": 24.9746485,
    "longitude": 66.991728,
    "id": 5100414903
  },
  {
    "name": "ITBW College of IT Campus 1",
    "category": "amenity",
    "subcategory": "college",
    "latitude": 24.9748041,
    "longitude": 66.9917146,
    "id": 5100414904
  },
  {
    "name": "Hamid Hardware Paint & Sanitary Store",
    "category": "shop",
    "subcategory": "hardware",
    "latitude": 24.9748691,
    "longitude": 66.9917218,
    "id": 5100414905
  },
  {
    "name": "Prince Public School",
    "category": "amenity",
    "subcategory": "school",
    "latitude": 24.9755141,
    "longitude": 66.9918648,
    "id": 5100414906
  },
  {
    "name": "Karachi Cadet School",
    "category": "amenity",
    "subcategory": "school",
    "latitude": 24.9753846,
    "longitude": 66.9932054,
    "id": 5100414907
  },
  {
    "name": "Arkania Masjid",
    "category": "amenity",
    "subcategory": "place_of_worship",
    "latitude": 24.9751806,
    "longitude": 66.9935967,
    "id": 5100414908
  },
  {
    "name": "Rakhshanda Public School",
    "category": "amenity",
    "subcategory": "school",
    "latitude": 24.977808,
    "longitude": 66.9915919,
    "id": 5100414909
  },
  {
    "name": "Sun Rise Public Secondary School",
    "category": "amenity",
    "subcategory": "school",
    "latitude": 24.9797974,
    "longitude": 66.9916136,
    "id": 5100535616
  },
  {
    "name": "School For Special Childeren",
    "category": "amenity",
    "subcategory": "school",
    "latitude": 24.9804101,
    "longitude": 66.9914098,
    "id": 5100535617
  },
  {
    "name": "Aaia Ground",
    "category": "leisure",
    "subcategory": "playground",
    "latitude": 24.9799816,
    "longitude": 66.9946467,
    "id": 5100535618
  },
  {
    "name": "Pakistan Bazar Police Station",
    "category": "amenity",
    "subcategory": "police",
    "latitude": 24.982393,
    "longitude": 66.9932157,
    "id": 5100535619
  },
  {
    "name": "The Educator Professional Campus",
    "category": "amenity",
    "subcategory": "school",
    "latitude": 24.9726963,
    "longitude": 67.0632207,
    "id": 5107996602
  },
  {
    "name": "crossing",
    "category": "highway",
    "subcategory": "crossing",
    "latitude": 24.9601203,
    "longitude": 67.0630884,
    "id": 5109629907
  },
  {
    "name": "crossing",
    "category": "highway",
    "subcategory": "crossing",
    "latitude": 24.960258,
    "longitude": 67.0628817,
    "id": 5109629908
  },
  {
    "name": "crossing",
    "category": "highway",
    "subcategory": "crossing",
    "latitude": 25.0003481,
    "longitude": 67.0648993,
    "id": 5109642412
  },
  {
    "name": "crossing",
    "category": "highway",
    "subcategory": "crossing",
    "latitude": 25.000338,
    "longitude": 67.0646761,
    "id": 5109642413
  },
  {
    "name": "crossing",
    "category": "highway",
    "subcategory": "crossing",
    "latitude": 24.9901132,
    "longitude": 67.0653158,
    "id": 5109678869
  },
  {
    "name": "crossing",
    "category": "highway",
    "subcategory": "crossing",
    "latitude": 24.9901278,
    "longitude": 67.0655814,
    "id": 5109678870
  },
  {
    "name": "KDA Chowrangi Surjani",
    "category": "highway",
    "subcategory": "bus_stop",
    "latitude": 25.0180939,
    "longitude": 67.0635958,
    "id": 5112958729
  },
  {
    "name": "Al Asif Furniture",
    "category": "shop",
    "subcategory": "furniture",
    "latitude": 24.9615151,
    "longitude": 67.0710627,
    "id": 5117644623
  },
  {
    "name": "Al Habib",
    "category": "amenity",
    "subcategory": "restaurant",
    "latitude": 24.9617913,
    "longitude": 67.0706967,
    "id": 5117644624
  },
  {
    "name": "F M Public School",
    "category": "amenity",
    "subcategory": "school",
    "latitude": 24.9634158,
    "longitude": 67.0684288,
    "id": 5117644629
  },
  {
    "name": "Advance Pakistan Microfinance Bank Ltd - ATM",
    "category": "amenity",
    "subcategory": "bank",
    "latitude": 24.961722,
    "longitude": 67.0637435,
    "id": 5119395447
  },
  {
    "name": "Karachi Mobile Bara Market.",
    "category": "amenity",
    "subcategory": "marketplace",
    "latitude": 24.9899592,
    "longitude": 67.0650161,
    "id": 5126962165
  },
  {
    "name": "Ansari Eye Hospital",
    "category": "amenity",
    "subcategory": "clinic",
    "latitude": 24.9735532,
    "longitude": 67.067793,
    "id": 5130498598
  },
  {
    "name": "Sunny Medical Haroon Palaza",
    "category": "amenity",
    "subcategory": "clinic",
    "latitude": 24.9732902,
    "longitude": 67.0685227,
    "id": 5130498599
  },
  {
    "name": "Jama-e-Masjid CHaman Aziz",
    "category": "amenity",
    "subcategory": "place_of_worship",
    "latitude": 24.9730215,
    "longitude": 67.0683132,
    "id": 5130498600
  },
  {
    "name": "Aurangzeb Memorial Maternity & General Hospital",
    "category": "amenity",
    "subcategory": "hospital",
    "latitude": 24.9800994,
    "longitude": 67.065178,
    "id": 5130682840
  },
  {
    "name": "Muhammadi Park",
    "category": "leisure",
    "subcategory": "park",
    "latitude": 24.9802962,
    "longitude": 67.0649912,
    "id": 5130682841
  },
  {
    "name": "Shadman Town Children Hospital",
    "category": "amenity",
    "subcategory": "hospital",
    "latitude": 24.9628212,
    "longitude": 67.060746,
    "id": 5130890302
  },
  {
    "name": "FM Hospital",
    "category": "amenity",
    "subcategory": "hospital",
    "latitude": 24.9579644,
    "longitude": 67.0525905,
    "id": 5130954910
  },
  {
    "name": "Royal Snooker Club",
    "category": "leisure",
    "subcategory": "sports_centre",
    "latitude": 24.9774644,
    "longitude": 67.065796,
    "id": 5132544674
  },
  {
    "name": "Masjid Ayesha",
    "category": "amenity",
    "subcategory": "place_of_worship",
    "latitude": 24.977034,
    "longitude": 67.0639318,
    "id": 5132544675
  },
  {
    "name": "Junaid Clinic & Medical Store",
    "category": "amenity",
    "subcategory": "clinic",
    "latitude": 24.9590098,
    "longitude": 67.0625895,
    "id": 5132578832
  },
  {
    "name": "Erum Shopping Mall",
    "category": "tourism",
    "subcategory": "apartment",
    "latitude": 24.9584588,
    "longitude": 67.0621189,
    "id": 5132578833
  },
  {
    "name": "Dr.Arsalan Siddiqi",
    "category": "amenity",
    "subcategory": "clinic",
    "latitude": 24.9579335,
    "longitude": 67.0619553,
    "id": 5132578834
  },
  {
    "name": "Khalil Welfare Eye Hospital",
    "category": "amenity",
    "subcategory": "hospital",
    "latitude": 24.9723063,
    "longitude": 67.0704884,
    "id": 5132720024
  },
  {
    "name": "National Medical Store",
    "category": "amenity",
    "subcategory": "pharmacy",
    "latitude": 24.9723196,
    "longitude": 67.0706051,
    "id": 5132720025
  },
  {
    "name": "UP Shopping Centre",
    "category": "shop",
    "subcategory": "mall",
    "latitude": 24.9722698,
    "longitude": 67.0710155,
    "id": 5132720026
  },
  {
    "name": "Sindh Govt Hospital",
    "category": "amenity",
    "subcategory": "hospital",
    "latitude": 24.972701,
    "longitude": 67.0706301,
    "id": 5132720028
  },
  {
    "name": "UP Urdu Bazar",
    "category": "amenity",
    "subcategory": "marketplace",
    "latitude": 24.9720987,
    "longitude": 67.0674065,
    "id": 5132720029
  },
  {
    "name": "MoneyGram",
    "category": "amenity",
    "subcategory": "bureau_de_change",
    "latitude": 24.9721308,
    "longitude": 67.0672601,
    "id": 5132720030
  },
  {
    "name": "Zeenat Mahal Marriage Hall",
    "category": "amenity",
    "subcategory": "community_centre",
    "latitude": 24.9716224,
    "longitude": 67.067076,
    "id": 5132720031
  },
  {
    "name": "UP Gold Mobile Mall",
    "category": "shop",
    "subcategory": "mall",
    "latitude": 24.9714489,
    "longitude": 67.0671037,
    "id": 5132720032
  },
  {
    "name": "Medicall General Hospital",
    "category": "amenity",
    "subcategory": "hospital",
    "latitude": 24.9785405,
    "longitude": 67.0645751,
    "id": 5133102870
  },
  {
    "name": "Meezan Bank - ATM",
    "category": "amenity",
    "subcategory": "atm",
    "latitude": 24.9891966,
    "longitude": 67.0651388,
    "id": 5135284354
  },
  {
    "name": "Allied Bank - ATM",
    "category": "amenity",
    "subcategory": "atm",
    "latitude": 24.988725,
    "longitude": 67.0651469,
    "id": 5135284355
  },
  {
    "name": "Faysal Bank - ATM",
    "category": "amenity",
    "subcategory": "atm",
    "latitude": 24.987067,
    "longitude": 67.065222,
    "id": 5135284356
  },
  {
    "name": "New National Scholar High School",
    "category": "amenity",
    "subcategory": "school",
    "latitude": 24.9613856,
    "longitude": 67.0521616,
    "id": 5137634756
  },
  {
    "name": "Mustafa Masjid",
    "category": "amenity",
    "subcategory": "place_of_worship",
    "latitude": 24.9617408,
    "longitude": 67.0512706,
    "id": 5137634757
  },
  {
    "name": "New Naheed Super Store",
    "category": "shop",
    "subcategory": "supermarket",
    "latitude": 24.9622957,
    "longitude": 67.0530582,
    "id": 5137634758
  },
  {
    "name": "Al Madina Bakery",
    "category": "shop",
    "subcategory": "bakery",
    "latitude": 24.9621784,
    "longitude": 67.0529642,
    "id": 5137634759
  },
  {
    "name": "Ali Icecream Parlour",
    "category": "amenity",
    "subcategory": "ice_cream",
    "latitude": 24.9619173,
    "longitude": 67.0531876,
    "id": 5137634760
  },
  {
    "name": "Haider Foods",
    "category": "amenity",
    "subcategory": "restaurant",
    "latitude": 24.9617916,
    "longitude": 67.0531106,
    "id": 5137634761
  },
  {
    "name": "Medina Fast Foods",
    "category": "amenity",
    "subcategory": "fast_food",
    "latitude": 24.9619697,
    "longitude": 67.0528048,
    "id": 5137634762
  },
  {
    "name": "Abdal Park",
    "category": "leisure",
    "subcategory": "park",
    "latitude": 24.9625617,
    "longitude": 67.0518687,
    "id": 5137634763
  },
  {
    "name": "Dua Medicos",
    "category": "amenity",
    "subcategory": "pharmacy",
    "latitude": 24.9641079,
    "longitude": 67.0540017,
    "id": 5137634764
  },
  {
    "name": "Utility Store Shadman Town Karachi",
    "category": "shop",
    "subcategory": "supermarket",
    "latitude": 24.963609,
    "longitude": 67.0577787,
    "id": 5137634766
  },
  {
    "name": "Pak Social Welfare Network",
    "category": "amenity",
    "subcategory": "community_centre",
    "latitude": 24.9635058,
    "longitude": 67.0579108,
    "id": 5137634767
  },
  {
    "name": "Alhamd Sweets & Bakers",
    "category": "shop",
    "subcategory": "bakery",
    "latitude": 24.9638716,
    "longitude": 67.0577523,
    "id": 5137634768
  },
  {
    "name": "Bab-e-Rahmat",
    "category": "amenity",
    "subcategory": "place_of_worship",
    "latitude": 24.9635142,
    "longitude": 67.0627511,
    "id": 5137634769
  },
  {
    "name": "Green Shield School",
    "category": "amenity",
    "subcategory": "school",
    "latitude": 24.9598362,
    "longitude": 67.0490156,
    "id": 5137634771
  },
  {
    "name": "Madina",
    "category": "amenity",
    "subcategory": "place_of_worship",
    "latitude": 24.9592479,
    "longitude": 67.0464079,
    "id": 5137634772
  },
  {
    "name": "AL Qutub Bus Stand",
    "category": "highway",
    "subcategory": "bus_stop",
    "latitude": 24.9584672,
    "longitude": 67.0457794,
    "id": 5137634773
  },
  {
    "name": "Metropolis School for Girls (Sakhi Hasan Campus - V)",
    "category": "amenity",
    "subcategory": "school",
    "latitude": 24.9557798,
    "longitude": 67.0547588,
    "id": 5140896523
  },
  {
    "name": "The Pinnacle School",
    "category": "amenity",
    "subcategory": "school",
    "latitude": 24.956633,
    "longitude": 67.0535773,
    "id": 5140896524
  },
  {
    "name": "Mak Way Grammar School Boys Campus",
    "category": "amenity",
    "subcategory": "school",
    "latitude": 24.9569749,
    "longitude": 67.0531502,
    "id": 5140896525
  },
  {
    "name": "Micro Engineering",
    "category": "shop",
    "subcategory": "yes",
    "latitude": 24.9576163,
    "longitude": 67.0531055,
    "id": 5140896526
  },
  {
    "name": "Mughal Garden",
    "category": "amenity",
    "subcategory": "community_centre",
    "latitude": 24.9558291,
    "longitude": 67.0579269,
    "id": 5140896534
  },
  {
    "name": "Zahida Mumta Hospital",
    "category": "amenity",
    "subcategory": "hospital",
    "latitude": 24.9565718,
    "longitude": 67.058015,
    "id": 5140896535
  },
  {
    "name": "The Spirit School",
    "category": "amenity",
    "subcategory": "school",
    "latitude": 24.9562824,
    "longitude": 67.0577763,
    "id": 5140896536
  },
  {
    "name": "Muneer General Store",
    "category": "shop",
    "subcategory": "supermarket",
    "latitude": 24.9564915,
    "longitude": 67.0582859,
    "id": 5140896537
  },
  {
    "name": "The Pizza Street",
    "category": "amenity",
    "subcategory": "fast_food",
    "latitude": 24.9569463,
    "longitude": 67.0587057,
    "id": 5140896538
  },
  {
    "name": "Makkah",
    "category": "amenity",
    "subcategory": "place_of_worship",
    "latitude": 24.957128,
    "longitude": 67.0589287,
    "id": 5140896539
  },
  {
    "name": "Kings Bakkery",
    "category": "shop",
    "subcategory": "bakery",
    "latitude": 24.9570071,
    "longitude": 67.0587755,
    "id": 5140896540
  },
  {
    "name": "Alfa Cooking Point",
    "category": "amenity",
    "subcategory": "restaurant",
    "latitude": 24.9570034,
    "longitude": 67.0587352,
    "id": 5140896541
  },
  {
    "name": "Sugarcane Juice Point",
    "category": "amenity",
    "subcategory": "ice_cream",
    "latitude": 24.9567845,
    "longitude": 67.0595439,
    "id": 5140896542
  },
  {
    "name": "Smoothies Icecream",
    "category": "amenity",
    "subcategory": "ice_cream",
    "latitude": 24.9571347,
    "longitude": 67.0594675,
    "id": 5140896544
  },
  {
    "name": "Samosa Shop",
    "category": "shop",
    "subcategory": "yes",
    "latitude": 24.9572575,
    "longitude": 67.0593012,
    "id": 5140896545
  },
  {
    "name": "Aquarium city",
    "category": "shop",
    "subcategory": "yes",
    "latitude": 24.9574326,
    "longitude": 67.0600227,
    "id": 5140896546
  },
  {
    "name": "Scissors",
    "category": "shop",
    "subcategory": "hairdresser",
    "latitude": 24.9575749,
    "longitude": 67.0601206,
    "id": 5140896547
  },
  {
    "name": "Yaseen Refrigeration & A.c Works",
    "category": "shop",
    "subcategory": "yes",
    "latitude": 24.9559899,
    "longitude": 67.0471219,
    "id": 5140919496
  },
  {
    "name": "Standard Ice Land",
    "category": "shop",
    "subcategory": "yes",
    "latitude": 24.9558436,
    "longitude": 67.05082,
    "id": 5140919499
  },
  {
    "name": "MIDWAY GAMING AR3NA",
    "category": "shop",
    "subcategory": "video_games",
    "latitude": 24.9560476,
    "longitude": 67.0507649,
    "id": 5140919500
  },
  {
    "name": "Sunny Burger and Juice Centre",
    "category": "amenity",
    "subcategory": "fast_food",
    "latitude": 24.9563113,
    "longitude": 67.0507256,
    "id": 5140919501
  },
  {
    "name": "Sessior Club Hair Saloon",
    "category": "shop",
    "subcategory": "hairdresser",
    "latitude": 24.9562159,
    "longitude": 67.0509379,
    "id": 5140919502
  },
  {
    "name": "Ro Pure Drinking Water",
    "category": "office",
    "subcategory": "company",
    "latitude": 24.9568996,
    "longitude": 67.0503809,
    "id": 5140919503
  },
  {
    "name": "Pink Rose Beauty Parlou",
    "category": "shop",
    "subcategory": "beauty",
    "latitude": 24.965468,
    "longitude": 67.061337,
    "id": 5142741162
  },
  {
    "name": "Pizza Max",
    "category": "amenity",
    "subcategory": "fast_food",
    "latitude": 24.9737007,
    "longitude": 67.0669113,
    "id": 5144678697
  },
  {
    "name": "جے ایس بینک",
    "category": "amenity",
    "subcategory": "bank",
    "latitude": 24.9735573,
    "longitude": 67.0669194,
    "id": 5144678698
  },
  {
    "name": "Jamia Abuzar Ghaffari",
    "category": "amenity",
    "subcategory": "place_of_worship",
    "latitude": 24.9746309,
    "longitude": 67.0668585,
    "id": 5144678700
  },
  {
    "name": "Hoor Apartment",
    "category": "tourism",
    "subcategory": "apartment",
    "latitude": 24.9752035,
    "longitude": 67.0668462,
    "id": 5144678701
  },
  {
    "name": "APECO",
    "category": "amenity",
    "subcategory": "community_centre",
    "latitude": 24.9746244,
    "longitude": 67.0674867,
    "id": 5144678702
  },
  {
    "name": "PTCL Telephone Exchange",
    "category": "office",
    "subcategory": "telecommunication",
    "latitude": 24.9762596,
    "longitude": 67.0668249,
    "id": 5144678703
  },
  {
    "name": "Galaxy Plaza",
    "category": "tourism",
    "subcategory": "apartment",
    "latitude": 24.9770584,
    "longitude": 67.0667223,
    "id": 5144678704
  },
  {
    "name": "National Bank",
    "category": "amenity",
    "subcategory": "bank",
    "latitude": 24.9774113,
    "longitude": 67.0666884,
    "id": 5144678705
  },
  {
    "name": "Saleem center Masjid",
    "category": "amenity",
    "subcategory": "place_of_worship",
    "latitude": 24.9779622,
    "longitude": 67.0667087,
    "id": 5144678706
  },
  {
    "name": "Mazar Shareef Hafiz Jee Sarkar R.A.",
    "category": "historic",
    "subcategory": "tomb",
    "latitude": 24.9781297,
    "longitude": 67.0692497,
    "id": 5144678708
  },
  {
    "name": "college",
    "category": "amenity",
    "subcategory": "college",
    "latitude": 24.9774045,
    "longitude": 67.0685737,
    "id": 5144678709
  },
  {
    "name": "NADRA OFFICE",
    "category": "office",
    "subcategory": "government",
    "latitude": 24.9761895,
    "longitude": 67.069022,
    "id": 5144678710
  },
  {
    "name": "Modern Complex",
    "category": "tourism",
    "subcategory": "apartment",
    "latitude": 24.9759016,
    "longitude": 67.0703857,
    "id": 5144678711
  },
  {
    "name": "New Karachi Library",
    "category": "amenity",
    "subcategory": "library",
    "latitude": 24.9797259,
    "longitude": 67.0705647,
    "id": 5144678713
  },
  {
    "name": "Dhaka Secondary School",
    "category": "amenity",
    "subcategory": "school",
    "latitude": 24.9796842,
    "longitude": 67.070186,
    "id": 5144678714
  },
  {
    "name": "Afza Altaf Park",
    "category": "leisure",
    "subcategory": "park",
    "latitude": 24.98251,
    "longitude": 67.0688957,
    "id": 5144678717
  },
  {
    "name": "Shadman Town Sector 14 B",
    "category": "highway",
    "subcategory": "bus_stop",
    "latitude": 24.9649416,
    "longitude": 67.0614003,
    "id": 5158643453
  },
  {
    "name": "Shadman Town Sector 7D 4",
    "category": "highway",
    "subcategory": "bus_stop",
    "latitude": 24.9645035,
    "longitude": 67.0526421,
    "id": 5158643455
  },
  {
    "name": "North Karachi Sector 7 C",
    "category": "place",
    "subcategory": "neighbourhood",
    "latitude": 24.9672431,
    "longitude": 67.0450986,
    "id": 5158643456
  },
  {
    "name": "North Karachi Sector 11 C 1",
    "category": "highway",
    "subcategory": "bus_stop",
    "latitude": 24.9662302,
    "longitude": 67.0666023,
    "id": 5158643457
  },
  {
    "name": "Sir Syed Town",
    "category": "highway",
    "subcategory": "bus_stop",
    "latitude": 24.9701789,
    "longitude": 67.0581855,
    "id": 5158643459
  },
  {
    "name": "North Karachi Sector 10",
    "category": "highway",
    "subcategory": "bus_stop",
    "latitude": 24.9693189,
    "longitude": 67.0543345,
    "id": 5158643460
  },
  {
    "name": "North Karachi Sector 7 D 3",
    "category": "place",
    "subcategory": "neighbourhood",
    "latitude": 24.966519,
    "longitude": 67.0477486,
    "id": 5158643461
  },
  {
    "name": "Government Degree College",
    "category": "amenity",
    "subcategory": "college",
    "latitude": 24.9655605,
    "longitude": 67.0527777,
    "id": 5158643462
  },
  {
    "name": "North Karachi Sector 7 D 2",
    "category": "place",
    "subcategory": "neighbourhood",
    "latitude": 24.9653852,
    "longitude": 67.0527849,
    "id": 5158643463
  },
  {
    "name": "Jamia Masjid Ahmed Raza",
    "category": "amenity",
    "subcategory": "place_of_worship",
    "latitude": 24.9741982,
    "longitude": 67.0544627,
    "id": 5158643464
  },
  {
    "name": "North Karachi Sector 8",
    "category": "highway",
    "subcategory": "bus_stop",
    "latitude": 24.9816738,
    "longitude": 67.0535941,
    "id": 5158643467
  },
  {
    "name": "North Karachi Sector 11 A",
    "category": "highway",
    "subcategory": "bus_stop",
    "latitude": 24.981988,
    "longitude": 67.057664,
    "id": 5158643468
  },
  {
    "name": "Falcon House Grammer School",
    "category": "amenity",
    "subcategory": "school",
    "latitude": 24.982603,
    "longitude": 67.0563111,
    "id": 5158643469
  },
  {
    "name": "North Karachi Sector 11 L",
    "category": "highway",
    "subcategory": "bus_stop",
    "latitude": 24.9826036,
    "longitude": 67.0679825,
    "id": 5158643470
  },
  {
    "name": "New Karachi Post Office",
    "category": "amenity",
    "subcategory": "post_office",
    "latitude": 24.9742139,
    "longitude": 67.0703622,
    "id": 5158643479
  },
  {
    "name": "North Karachi Sector 11 I",
    "category": "highway",
    "subcategory": "bus_stop",
    "latitude": 24.9759603,
    "longitude": 67.0668403,
    "id": 5158643480
  },
  {
    "name": "North Karachi Sector 14 A",
    "category": "place",
    "subcategory": "neighbourhood",
    "latitude": 24.9612638,
    "longitude": 67.051591,
    "id": 5158643484
  },
  {
    "name": "New Karachi Sector 5 C 3",
    "category": "highway",
    "subcategory": "bus_stop",
    "latitude": 24.9874782,
    "longitude": 67.0563431,
    "id": 5158643486
  },
  {
    "name": "North Karachi Sector 5 C 4",
    "category": "highway",
    "subcategory": "bus_stop",
    "latitude": 24.988352,
    "longitude": 67.062721,
    "id": 5158643487
  },
  {
    "name": "North Karachi Sector 5 C 1",
    "category": "highway",
    "subcategory": "bus_stop",
    "latitude": 24.9906012,
    "longitude": 67.0566735,
    "id": 5158643489
  },
  {
    "name": "North Karachi Sector 4",
    "category": "highway",
    "subcategory": "bus_stop",
    "latitude": 24.9884769,
    "longitude": 67.0534716,
    "id": 5158643490
  },
  {
    "name": "North Karachi Sector 3",
    "category": "highway",
    "subcategory": "bus_stop",
    "latitude": 24.9955557,
    "longitude": 67.0527395,
    "id": 5158643491
  },
  {
    "name": "North Karachi Sector 2",
    "category": "highway",
    "subcategory": "bus_stop",
    "latitude": 25.0024748,
    "longitude": 67.0523143,
    "id": 5158643492
  },
  {
    "name": "New Karachi Sector 5 A 3",
    "category": "highway",
    "subcategory": "bus_stop",
    "latitude": 25.0010144,
    "longitude": 67.0558794,
    "id": 5158643493
  },
  {
    "name": "Government Degree Boys College",
    "category": "amenity",
    "subcategory": "college",
    "latitude": 24.9865625,
    "longitude": 67.0697105,
    "id": 5158643494
  },
  {
    "name": "New Karachi Sector 5 L",
    "category": "place",
    "subcategory": "neighbourhood",
    "latitude": 24.9862088,
    "longitude": 67.0698609,
    "id": 5158643495
  },
  {
    "name": "New Karachi Sector 5 I",
    "category": "highway",
    "subcategory": "bus_stop",
    "latitude": 24.9965177,
    "longitude": 67.0660472,
    "id": 5158643496
  },
  {
    "name": "New Karachi Sector 5 E",
    "category": "place",
    "subcategory": "neighbourhood",
    "latitude": 24.9919091,
    "longitude": 67.0709951,
    "id": 5158643497
  },
  {
    "name": "North Karachi Sector 5 D",
    "category": "place",
    "subcategory": "neighbourhood",
    "latitude": 25.0035058,
    "longitude": 67.0705457,
    "id": 5158643499
  },
  {
    "name": "New Karachi Sector 5 M",
    "category": "place",
    "subcategory": "neighbourhood",
    "latitude": 24.9988793,
    "longitude": 67.0702615,
    "id": 5158643503
  },
  {
    "name": "Umme Khadija",
    "category": "shop",
    "subcategory": "clothes",
    "latitude": 24.9579305,
    "longitude": 66.9956958,
    "id": 5158974732
  },
  {
    "name": "Ghazala Public Secondary School",
    "category": "amenity",
    "subcategory": "school",
    "latitude": 24.9591322,
    "longitude": 66.9992794,
    "id": 5158974734
  },
  {
    "name": "Abu Huraira Jama Masjid",
    "category": "amenity",
    "subcategory": "place_of_worship",
    "latitude": 24.9662231,
    "longitude": 66.996714,
    "id": 5158974737
  },
  {
    "name": "Jama Masjid Noor e hanfia Bholo Masjid",
    "category": "amenity",
    "subcategory": "place_of_worship",
    "latitude": 24.9610182,
    "longitude": 66.9913723,
    "id": 5159216083
  },
  {
    "name": "Surjani L 1",
    "category": "place",
    "subcategory": "neighbourhood",
    "latitude": 25.0079327,
    "longitude": 67.0574587,
    "id": 5160354661
  },
  {
    "name": "Afza Altaf Park Surjani Sector L1",
    "category": "leisure",
    "subcategory": "park",
    "latitude": 25.0082275,
    "longitude": 67.0576212,
    "id": 5160354662
  },
  {
    "name": "Jamia Masjid Aloom e Sharia",
    "category": "amenity",
    "subcategory": "place_of_worship",
    "latitude": 25.007714,
    "longitude": 67.0553143,
    "id": 5160354663
  },
  {
    "name": "Surjani Sector 5 D",
    "category": "highway",
    "subcategory": "bus_stop",
    "latitude": 25.0145911,
    "longitude": 67.062194,
    "id": 5160354664
  },
  {
    "name": "Masjid O Imambargha Ammer Ul Momineen",
    "category": "amenity",
    "subcategory": "place_of_worship",
    "latitude": 25.0144647,
    "longitude": 67.0610102,
    "id": 5160354665
  },
  {
    "name": "Maymarabad Surjani",
    "category": "highway",
    "subcategory": "bus_stop",
    "latitude": 25.016421,
    "longitude": 67.0620272,
    "id": 5160354668
  },
  {
    "name": "Diyar e Habbib Masjid",
    "category": "amenity",
    "subcategory": "place_of_worship",
    "latitude": 25.0175751,
    "longitude": 67.0610028,
    "id": 5160354669
  },
  {
    "name": "Dulhan Banquet",
    "category": "amenity",
    "subcategory": "community_centre",
    "latitude": 25.0170796,
    "longitude": 67.0634998,
    "id": 5160354670
  },
  {
    "name": "Zam Zam Banquet",
    "category": "amenity",
    "subcategory": "community_centre",
    "latitude": 25.0191169,
    "longitude": 67.063886,
    "id": 5160354674
  },
  {
    "name": "Nadra Surjani Town",
    "category": "office",
    "subcategory": "government",
    "latitude": 25.0188078,
    "longitude": 67.0638718,
    "id": 5160354675
  },
  {
    "name": "KDA Office Surjani",
    "category": "office",
    "subcategory": "government",
    "latitude": 25.0183801,
    "longitude": 67.0639795,
    "id": 5160354676
  },
  {
    "name": "Sajida Banquet",
    "category": "amenity",
    "subcategory": "community_centre",
    "latitude": 25.0174777,
    "longitude": 67.064285,
    "id": 5160354677
  },
  {
    "name": "Sara's Beauty Parlour",
    "category": "shop",
    "subcategory": "beauty",
    "latitude": 25.0239612,
    "longitude": 67.0631442,
    "id": 5160354679
  },
  {
    "name": "Blue Diamond Banque",
    "category": "amenity",
    "subcategory": "community_centre",
    "latitude": 25.0230957,
    "longitude": 67.0632181,
    "id": 5160354680
  },
  {
    "name": "Eidgaah Play Ground",
    "category": "leisure",
    "subcategory": "playground",
    "latitude": 25.0154715,
    "longitude": 67.0596357,
    "id": 5160354681
  },
  {
    "name": "Surjani Sector 5 C",
    "category": "place",
    "subcategory": "neighbourhood",
    "latitude": 25.0151848,
    "longitude": 67.0568674,
    "id": 5160354682
  },
  {
    "name": "Jamia Masjid Khanqah Jalilia",
    "category": "amenity",
    "subcategory": "place_of_worship",
    "latitude": 25.0155618,
    "longitude": 67.0539942,
    "id": 5160354683
  },
  {
    "name": "Faizan Mustufa Masjid",
    "category": "amenity",
    "subcategory": "place_of_worship",
    "latitude": 25.0161092,
    "longitude": 67.0567945,
    "id": 5160354684
  },
  {
    "name": "Tumsa Tower",
    "category": "shop",
    "subcategory": "mall",
    "latitude": 25.016345,
    "longitude": 67.0570205,
    "id": 5160354685
  },
  {
    "name": "Surjani Sector 4 B",
    "category": "place",
    "subcategory": "neighbourhood",
    "latitude": 25.0160916,
    "longitude": 67.0690741,
    "id": 5160354686
  },
  {
    "name": "Siddiq e Akbar Jama Masjid",
    "category": "amenity",
    "subcategory": "place_of_worship",
    "latitude": 25.0174547,
    "longitude": 67.0695131,
    "id": 5160354687
  },
  {
    "name": "Hari Masjid",
    "category": "amenity",
    "subcategory": "place_of_worship",
    "latitude": 25.0182628,
    "longitude": 67.0675896,
    "id": 5160354688
  },
  {
    "name": "Surjani Sector 4 A",
    "category": "highway",
    "subcategory": "bus_stop",
    "latitude": 25.0190854,
    "longitude": 67.0654627,
    "id": 5160354697
  },
  {
    "name": "Jamia Masjid Bilal",
    "category": "amenity",
    "subcategory": "place_of_worship",
    "latitude": 25.021831,
    "longitude": 67.0660561,
    "id": 5160354698
  },
  {
    "name": "Surjani Sector 4 D",
    "category": "place",
    "subcategory": "neighbourhood",
    "latitude": 25.0224739,
    "longitude": 67.0695417,
    "id": 5160354699
  },
  {
    "name": "Firdous Bakery",
    "category": "shop",
    "subcategory": "bakery",
    "latitude": 25.0226238,
    "longitude": 67.069528,
    "id": 5160354700
  },
  {
    "name": "Masjid E Aehle Sunnat",
    "category": "amenity",
    "subcategory": "place_of_worship",
    "latitude": 25.0215955,
    "longitude": 67.0696121,
    "id": 5160354701
  },
  {
    "name": "Anamata Lawn",
    "category": "amenity",
    "subcategory": "community_centre",
    "latitude": 25.0258334,
    "longitude": 67.069256,
    "id": 5160354704
  },
  {
    "name": "Surjani Sector 6 B",
    "category": "place",
    "subcategory": "suburb",
    "latitude": 25.0318072,
    "longitude": 67.0626311,
    "id": 5160354708
  },
  {
    "name": "Stress Free Vet Care",
    "category": "amenity",
    "subcategory": "veterinary",
    "latitude": 24.9612842,
    "longitude": 67.0622015,
    "id": 5163208939
  },
  {
    "name": "Shaheen Ground",
    "category": "leisure",
    "subcategory": "park",
    "latitude": 24.9670955,
    "longitude": 67.0499184,
    "id": 5163208940
  },
  {
    "name": "Vetcare services",
    "category": "amenity",
    "subcategory": "veterinary",
    "latitude": 24.9668105,
    "longitude": 67.0504339,
    "id": 5163208941
  },
  {
    "name": "Al Karim Bakery",
    "category": "shop",
    "subcategory": "bakery",
    "latitude": 24.9666987,
    "longitude": 67.0511152,
    "id": 5163208942
  },
  {
    "name": "Orangi Sector 14 C",
    "category": "place",
    "subcategory": "neighbourhood",
    "latitude": 24.9565875,
    "longitude": 66.9971596,
    "id": 5179982958
  },
  {
    "name": "Orangi Sector 14 D",
    "category": "place",
    "subcategory": "neighbourhood",
    "latitude": 24.9568933,
    "longitude": 66.9961301,
    "id": 5179982959
  },
  {
    "name": "Sector 14 E",
    "category": "highway",
    "subcategory": "bus_stop",
    "latitude": 24.9565228,
    "longitude": 66.9957499,
    "id": 5179982960
  },
  {
    "name": "Sector 14 G",
    "category": "highway",
    "subcategory": "bus_stop",
    "latitude": 24.9615127,
    "longitude": 66.9947748,
    "id": 5179982961
  },
  {
    "name": "MD Fast Food",
    "category": "amenity",
    "subcategory": "fast_food",
    "latitude": 24.9562311,
    "longitude": 67.0505744,
    "id": 5190672333
  },
  {
    "name": "Allah Wala Restaurant and Pakwan Centre",
    "category": "tourism",
    "subcategory": "hotel",
    "latitude": 24.9581405,
    "longitude": 67.0487029,
    "id": 5236270722
  },
  {
    "name": "Tomb of Fazlur Rehman Qureshi-Ul-Azeemi",
    "category": "historic",
    "subcategory": "tomb",
    "latitude": 24.9578801,
    "longitude": 67.0559119,
    "id": 5236270819
  },
  {
    "name": "Noor Clinic",
    "category": "amenity",
    "subcategory": "clinic",
    "latitude": 24.9577172,
    "longitude": 67.0469959,
    "id": 5249828329
  },
  {
    "name": "Arham General Store",
    "category": "shop",
    "subcategory": "yes",
    "latitude": 24.9577911,
    "longitude": 67.0470796,
    "id": 5249829406
  },
  {
    "name": "Afroz Beauty Parlour",
    "category": "shop",
    "subcategory": "beauty",
    "latitude": 24.9578652,
    "longitude": 67.0469534,
    "id": 5249829407
  },
  {
    "name": "Al-Asif Milk Shop",
    "category": "shop",
    "subcategory": "dairy",
    "latitude": 24.9559901,
    "longitude": 67.0507787,
    "id": 5249829408
  },
  {
    "name": "Mateen Food",
    "category": "amenity",
    "subcategory": "fast_food",
    "latitude": 24.9560332,
    "longitude": 67.0506003,
    "id": 5249886944
  },
  {
    "name": "Surjani Town Sector 4",
    "category": "place",
    "subcategory": "suburb",
    "latitude": 25.0190981,
    "longitude": 67.0696193,
    "id": 5329124578
  },
  {
    "name": "Surjani Town Sector 7",
    "category": "place",
    "subcategory": "suburb",
    "latitude": 25.0327889,
    "longitude": 67.0689682,
    "id": 5329124579
  },
  {
    "name": "سرجانی ٹاؤن سیکٹر 5",
    "category": "place",
    "subcategory": "suburb",
    "latitude": 25.0148896,
    "longitude": 67.0583115,
    "id": 5329124581
  },
  {
    "name": "Surjani Town Sector 6",
    "category": "place",
    "subcategory": "suburb",
    "latitude": 25.0328836,
    "longitude": 67.0575834,
    "id": 5329124582
  },
  {
    "name": "Abdullah Abad Hospital",
    "category": "amenity",
    "subcategory": "hospital",
    "latitude": 25.0335222,
    "longitude": 67.0607859,
    "id": 5329124584
  },
  {
    "name": "Bismillah Food Center",
    "category": "amenity",
    "subcategory": "restaurant",
    "latitude": 25.0331808,
    "longitude": 67.0596469,
    "id": 5329124585
  },
  {
    "name": "Abdullahbad Masjid",
    "category": "amenity",
    "subcategory": "place_of_worship",
    "latitude": 25.0333099,
    "longitude": 67.058614,
    "id": 5329124586
  },
  {
    "name": "Anarkali Bungalows",
    "category": "tourism",
    "subcategory": "apartment",
    "latitude": 25.0335224,
    "longitude": 67.0534165,
    "id": 5329124587
  },
  {
    "name": "Anarkali Park",
    "category": "leisure",
    "subcategory": "park",
    "latitude": 25.0319769,
    "longitude": 67.0549763,
    "id": 5329124588
  },
  {
    "name": "Jamia Masjid Mujadid Alf Sani R.a And Al Nisar Intitute Of Islamic Studies",
    "category": "amenity",
    "subcategory": "place_of_worship",
    "latitude": 25.0312108,
    "longitude": 67.0572082,
    "id": 5329124589
  },
  {
    "name": "Surjani Town Sector 1",
    "category": "place",
    "subcategory": "suburb",
    "latitude": 25.0078575,
    "longitude": 67.0577811,
    "id": 5329124594
  },
  {
    "name": "North Karachi Sector 5",
    "category": "place",
    "subcategory": "suburb",
    "latitude": 24.9963385,
    "longitude": 67.0698599,
    "id": 5329124596
  },
  {
    "name": "North Karachi Sector 9",
    "category": "highway",
    "subcategory": "bus_stop",
    "latitude": 24.9750093,
    "longitude": 67.0540135,
    "id": 5329124599
  },
  {
    "name": "7Dianz Burger Point",
    "category": "amenity",
    "subcategory": "fast_food",
    "latitude": 24.9683569,
    "longitude": 67.0490025,
    "id": 5329124601
  },
  {
    "name": "Rehman Bakery",
    "category": "shop",
    "subcategory": "bakery",
    "latitude": 24.9682682,
    "longitude": 67.0492358,
    "id": 5329124602
  },
  {
    "name": "Jama Masjid Muslim Town Hanafi Barelvi",
    "category": "amenity",
    "subcategory": "place_of_worship",
    "latitude": 24.9674407,
    "longitude": 67.0699007,
    "id": 5329128336
  },
  {
    "name": "Saleem Hospital & Maternity Home",
    "category": "amenity",
    "subcategory": "hospital",
    "latitude": 24.9678457,
    "longitude": 67.067263,
    "id": 5329128337
  },
  {
    "name": "بینک الفلاح",
    "category": "amenity",
    "subcategory": "bank",
    "latitude": 24.968214,
    "longitude": 67.0671882,
    "id": 5329128338
  },
  {
    "name": "Habib Qatar International Exchange",
    "category": "amenity",
    "subcategory": "bureau_de_change",
    "latitude": 24.9687665,
    "longitude": 67.0671766,
    "id": 5329128339
  },
  {
    "name": "ایچ بی ایل پاکستان",
    "category": "amenity",
    "subcategory": "bank",
    "latitude": 24.9694075,
    "longitude": 67.0671693,
    "id": 5329128340
  },
  {
    "name": "الائیڈ بینک لمیٹڈ",
    "category": "amenity",
    "subcategory": "bank",
    "latitude": 24.9706681,
    "longitude": 67.0670624,
    "id": 5329128343
  },
  {
    "name": "North Karachi Sector 11 C 3",
    "category": "highway",
    "subcategory": "bus_stop",
    "latitude": 24.9697101,
    "longitude": 67.057789,
    "id": 5329128345
  },
  {
    "name": "North Karachi Sector 11 C 2",
    "category": "highway",
    "subcategory": "bus_stop",
    "latitude": 24.9697891,
    "longitude": 67.0605367,
    "id": 5329128346
  },
  {
    "name": "North Karachi Sector 11 B",
    "category": "highway",
    "subcategory": "bus_stop",
    "latitude": 24.9754873,
    "longitude": 67.0602599,
    "id": 5329381969
  },
  {
    "name": "North Karachi Sector 5 C 3`",
    "category": "highway",
    "subcategory": "bus_stop",
    "latitude": 24.9880624,
    "longitude": 67.0577406,
    "id": 5329381976
  },
  {
    "name": "North Karachi Sector 5 A 2",
    "category": "highway",
    "subcategory": "bus_stop",
    "latitude": 25.0048332,
    "longitude": 67.0617625,
    "id": 5329381987
  },
  {
    "name": "North Karachi Sector 5 L",
    "category": "place",
    "subcategory": "neighbourhood",
    "latitude": 24.989652,
    "longitude": 67.0675613,
    "id": 5329381988
  },
  {
    "name": "North Karachi Sector 5 B 1",
    "category": "highway",
    "subcategory": "bus_stop",
    "latitude": 24.9962578,
    "longitude": 67.0596116,
    "id": 5329381989
  },
  {
    "name": "Pela school",
    "category": "amenity",
    "subcategory": "school",
    "latitude": 24.995772,
    "longitude": 67.0596371,
    "id": 5329381990
  },
  {
    "name": "North Karachi Sector 5 M",
    "category": "highway",
    "subcategory": "bus_stop",
    "latitude": 24.9965915,
    "longitude": 67.0672846,
    "id": 5329381991
  },
  {
    "name": "North Karachi Sector 5 A 3",
    "category": "highway",
    "subcategory": "bus_stop",
    "latitude": 25.0014251,
    "longitude": 67.0565475,
    "id": 5329381997
  },
  {
    "name": "North Karachi Sector 5 A 4",
    "category": "highway",
    "subcategory": "bus_stop",
    "latitude": 25.0016798,
    "longitude": 67.062072,
    "id": 5329381998
  },
  {
    "name": "North Karachi Sector 5 A 1",
    "category": "highway",
    "subcategory": "bus_stop",
    "latitude": 25.0045412,
    "longitude": 67.0563726,
    "id": 5329381999
  },
  {
    "name": "SUKKUR PAKWAN CENTER",
    "category": "amenity",
    "subcategory": "restaurant",
    "latitude": 25.0230055,
    "longitude": 67.0695181,
    "id": 5329382001
  },
  {
    "name": "Alshifa Medical Store",
    "category": "amenity",
    "subcategory": "pharmacy",
    "latitude": 25.0220074,
    "longitude": 67.0692755,
    "id": 5329382002
  },
  {
    "name": "Cafe Bilal",
    "category": "amenity",
    "subcategory": "restaurant",
    "latitude": 25.0232081,
    "longitude": 67.0692896,
    "id": 5329382003
  },
  {
    "name": "Al Ghousia Burger Point",
    "category": "amenity",
    "subcategory": "restaurant",
    "latitude": 25.0229524,
    "longitude": 67.0704555,
    "id": 5329382004
  },
  {
    "name": "Surjani Town Sector 5 E",
    "category": "place",
    "subcategory": "neighbourhood",
    "latitude": 25.0193568,
    "longitude": 67.0604475,
    "id": 5329382006
  },
  {
    "name": "سرجانی ٹاؤن سیکٹر 5 اے",
    "category": "place",
    "subcategory": "suburb",
    "latitude": 25.0225104,
    "longitude": 67.0554431,
    "id": 5329382009
  },
  {
    "name": "Momin Masjid",
    "category": "amenity",
    "subcategory": "place_of_worship",
    "latitude": 25.0200191,
    "longitude": 67.054529,
    "id": 5329382010
  },
  {
    "name": "Qazi Guest House",
    "category": "tourism",
    "subcategory": "guest_house",
    "latitude": 25.0202725,
    "longitude": 67.0552582,
    "id": 5329382011
  },
  {
    "name": "Surjani Town Sector 5 B",
    "category": "place",
    "subcategory": "neighbourhood",
    "latitude": 25.017768,
    "longitude": 67.0547669,
    "id": 5329382012
  },
  {
    "name": "Masjid Dayar-e-Mustafa",
    "category": "amenity",
    "subcategory": "place_of_worship",
    "latitude": 25.0179131,
    "longitude": 67.0546728,
    "id": 5329382013
  },
  {
    "name": "Surjani Town Sector 5 C",
    "category": "place",
    "subcategory": "neighbourhood",
    "latitude": 25.0138695,
    "longitude": 67.0550782,
    "id": 5329382014
  },
  {
    "name": "Surjani Town Sector 5 D",
    "category": "place",
    "subcategory": "neighbourhood",
    "latitude": 25.0149283,
    "longitude": 67.0604184,
    "id": 5329382015
  },
  {
    "name": "Surjani Town Sector 5 F",
    "category": "place",
    "subcategory": "neighbourhood",
    "latitude": 25.0233067,
    "longitude": 67.060388,
    "id": 5329382016
  },
  {
    "name": "Surjani Town Sector 6 A",
    "category": "place",
    "subcategory": "suburb",
    "latitude": 25.0278591,
    "longitude": 67.0552094,
    "id": 5329382017
  },
  {
    "name": "Surjani Town Sector 6 B",
    "category": "place",
    "subcategory": "suburb",
    "latitude": 25.0282538,
    "longitude": 67.0594738,
    "id": 5329382018
  },
  {
    "name": "Bunyadi Govt Primary School",
    "category": "amenity",
    "subcategory": "school",
    "latitude": 25.0284195,
    "longitude": 67.0698399,
    "id": 5329382225
  },
  {
    "name": "Jamia Masjid Qasim",
    "category": "amenity",
    "subcategory": "place_of_worship",
    "latitude": 25.0279221,
    "longitude": 67.0687104,
    "id": 5329382226
  },
  {
    "name": "Sudaim Lawn",
    "category": "amenity",
    "subcategory": "community_centre",
    "latitude": 25.0253199,
    "longitude": 67.068171,
    "id": 5329382227
  },
  {
    "name": "Al-Habib Public School",
    "category": "amenity",
    "subcategory": "school",
    "latitude": 25.0246217,
    "longitude": 67.0650982,
    "id": 5329382228
  },
  {
    "name": "Jamia Masjid Anwaar-e-Madina",
    "category": "amenity",
    "subcategory": "place_of_worship",
    "latitude": 25.024606,
    "longitude": 67.063932,
    "id": 5329382229
  },
  {
    "name": "Al-Mujeeb Hospital",
    "category": "amenity",
    "subcategory": "hospital",
    "latitude": 25.0239302,
    "longitude": 67.0651327,
    "id": 5329382230
  },
  {
    "name": "Surjani Town Sector 7 B",
    "category": "place",
    "subcategory": "neighbourhood",
    "latitude": 25.0282249,
    "longitude": 67.0673168,
    "id": 5329382232
  },
  {
    "name": "سرجانی ٹاؤن سیکٹر 7 اے",
    "category": "place",
    "subcategory": "suburb",
    "latitude": 25.0337303,
    "longitude": 67.064369,
    "id": 5329382233
  },
  {
    "name": "Surjani Town Sector 4 A",
    "category": "place",
    "subcategory": "neighbourhood",
    "latitude": 25.0219114,
    "longitude": 67.066182,
    "id": 5329382234
  },
  {
    "name": "Surjani Town Sector 4 B",
    "category": "place",
    "subcategory": "neighbourhood",
    "latitude": 25.0147562,
    "longitude": 67.0683295,
    "id": 5329382235
  },
  {
    "name": "North Karachi Sector 7 D-2",
    "category": "place",
    "subcategory": "neighbourhood",
    "latitude": 24.9664533,
    "longitude": 67.0500098,
    "id": 5330850880
  },
  {
    "name": "Gulshan-e-Farooq",
    "category": "amenity",
    "subcategory": "place_of_worship",
    "latitude": 24.9661433,
    "longitude": 67.0495724,
    "id": 5330850881
  },
  {
    "name": "North Karachi Sector 7 D-1",
    "category": "place",
    "subcategory": "neighbourhood",
    "latitude": 24.9694666,
    "longitude": 67.0515077,
    "id": 5330850882
  },
  {
    "name": "Shadman Town Sector 14 A",
    "category": "place",
    "subcategory": "neighbourhood",
    "latitude": 24.961012,
    "longitude": 67.0501852,
    "id": 5330850883
  },