[
  {
    "name": "خانیوال",
    "category": "place",
    "subcategory": "city",
    "latitude": 30.3022528,
    "longitude": 71.9278916,
    "id": 251165455
  },
  {
    "name": "mini_roundabout",
    "category": "highway",
    "subcategory": "mini_roundabout",
    "latitude": 30.2985883,
    "longitude": 71.916586,
    "id": 1907484697
  },
  {
    "name": "Zia Shaheed Chowk",
    "category": "highway",
    "subcategory": "mini_roundabout",
    "latitude": 30.2959494,
    "longitude": 71.9197985,
    "id": 1928707965
  },
  {
    "name": "monument",
    "category": "historic",
    "subcategory": "monument",
    "latitude": 30.2997783,
    "longitude": 71.920403,
    "id": 1928708004
  },
  {
    "name": "Oxford public model school",
    "category": "amenity",
    "subcategory": "school",
    "latitude": 30.2912781,
    "longitude": 71.922665,
    "id": 4269906798
  },
  {
    "name": "guest_house",
    "category": "tourism",
    "subcategory": "guest_house",
    "latitude": 30.2913598,
    "longitude": 71.9309092,
    "id": 4364397694
  },
  {
    "name": "guest_house",
    "category": "tourism",
    "subcategory": "guest_house",
    "latitude": 30.2838533,
    "longitude": 71.9334567,
    "id": 4364397895
  },
  {
    "name": "fuel",
    "category": "amenity",
    "subcategory": "fuel",
    "latitude": 30.2859012,
    "longitude": 71.9315045,
    "id": 4368462490
  },
  {
    "name": "butcher",
    "category": "shop",
    "subcategory": "butcher",
    "latitude": 30.2840327,
    "longitude": 71.9320175,
    "id": 4368464292
  },
  {
    "name": "bus_stop",
    "category": "highway",
    "subcategory": "bus_stop",
    "latitude": 30.2840327,
    "longitude": 71.9320585,
    "id": 4368470292
  },
  {
    "name": "Awan Chowk Khanewal",
    "category": "highway",
    "subcategory": "bus_stop",
    "latitude": 30.2863099,
    "longitude": 71.9320586,
    "id": 4368513189
  },
  {
    "name": "Daewoo Bus Terminal Khanewal",
    "category": "highway",
    "subcategory": "bus_stop",
    "latitude": 30.3190125,
    "longitude": 71.9635747,
    "id": 4483783093
  },
  {
    "name": "Khanewal Lahore Morr",
    "category": "highway",
    "subcategory": "bus_stop",
    "latitude": 30.3189375,
    "longitude": 71.9187783,
    "id": 4483783095
  },
  {
    "name": "FAMILY MART",
    "category": "shop",
    "subcategory": "bakery",
    "latitude": 30.2986148,
    "longitude": 71.9224844,
    "id": 4530241792
  },
  {
    "name": "atm",
    "category": "amenity",
    "subcategory": "atm",
    "latitude": 30.2986105,
    "longitude": 71.9225862,
    "id": 4530271690
  },
  {
    "name": "PAK BURGER AND PIZZA",
    "category": "amenity",
    "subcategory": "fast_food",
    "latitude": 30.2961955,
    "longitude": 71.9221098,
    "id": 4530287997
  },
  {
    "name": "atm",
    "category": "amenity",
    "subcategory": "atm",
    "latitude": 30.2968678,
    "longitude": 71.916997,
    "id": 4530294489
  },
  {
    "name": "atm",
    "category": "amenity",
    "subcategory": "atm",
    "latitude": 30.2980492,
    "longitude": 71.9213515,
    "id": 4530294490
  },
  {
    "name": "LAHORI SAMOSA POINT",
    "category": "amenity",
    "subcategory": "fast_food",
    "latitude": 30.2968966,
    "longitude": 71.9219916,
    "id": 4530299690
  },
  {
    "name": "ak minar masjid road",
    "category": "shop",
    "subcategory": "dry_cleaning",
    "latitude": 30.2944643,
    "longitude": 71.9202649,
    "id": 4577501691
  },
  {
    "name": "bado pan shop",
    "category": "amenity",
    "subcategory": "bar",
    "latitude": 30.2950151,
    "longitude": 71.9200612,
    "id": 4577501694
  },
  {
    "name": "school",
    "category": "amenity",
    "subcategory": "school",
    "latitude": 30.2959531,
    "longitude": 71.9200817,
    "id": 4577501695
  },
  {
    "name": "1 minar masjid",
    "category": "tourism",
    "subcategory": "guest_house",
    "latitude": 30.2938142,
    "longitude": 71.9203041,
    "id": 4577503190
  },
  {
    "name": "sabzi mandi plat",
    "category": "amenity",
    "subcategory": "place_of_worship",
    "latitude": 30.2971379,
    "longitude": 71.919201,
    "id": 4577538890
  },
  {
    "name": "peshwar tea stall",
    "category": "amenity",
    "subcategory": "cafe",
    "latitude": 30.3030203,
    "longitude": 71.9228158,
    "id": 4577563489
  },
  {
    "name": "greeba bad masjid",
    "category": "tourism",
    "subcategory": "guest_house",
    "latitude": 30.2945117,
    "longitude": 71.9182834,
    "id": 4577563889
  },
  {
    "name": "Lucky light house",
    "category": "shop",
    "subcategory": "electronics",
    "latitude": 30.3039757,
    "longitude": 71.9228717,
    "id": 4622204593
  },
  {
    "name": "Rana jameel dry fruits",
    "category": "shop",
    "subcategory": "department_store",
    "latitude": 30.3039486,
    "longitude": 71.9228359,
    "id": 4622605393
  },
  {
    "name": "Rana pharmacy",
    "category": "amenity",
    "subcategory": "pharmacy",
    "latitude": 30.3040381,
    "longitude": 71.9228758,
    "id": 4622653189
  },
  {
    "name": "NRC KHANEWAL(NADRA)",
    "category": "amenity",
    "subcategory": "community_centre",
    "latitude": 30.3119668,
    "longitude": 71.9486388,
    "id": 4679519890
  },
  {
    "name": "Al Hamd Public School",
    "category": "amenity",
    "subcategory": "school",
    "latitude": 30.3140274,
    "longitude": 71.897375,
    "id": 4679523889
  },
  {
    "name": "Al Noor Public School",
    "category": "amenity",
    "subcategory": "school",
    "latitude": 30.2790889,
    "longitude": 71.9329108,
    "id": 4683326990
  },
  {
    "name": "jamia masjid ghousia peer colony",
    "category": "amenity",
    "subcategory": "school",
    "latitude": 30.3228675,
    "longitude": 71.9040532,
    "id": 4683372490
  },
  {
    "name": "Dress Co",
    "category": "shop",
    "subcategory": "clothes",
    "latitude": 30.2955707,
    "longitude": 71.9221674,
    "id": 4686205805
  },
  {
    "name": "Vegetable & Fruite Market",
    "category": "shop",
    "subcategory": "supermarket",
    "latitude": 30.2952127,
    "longitude": 71.913346,
    "id": 4693102297
  },
  {
    "name": "Hassnain Petroleum",
    "category": "amenity",
    "subcategory": "fuel",
    "latitude": 30.2823341,
    "longitude": 71.9052655,
    "id": 4711941594
  },
  {
    "name": "PASSCO",
    "category": "shop",
    "subcategory": "department_store",
    "latitude": 30.2888642,
    "longitude": 71.9311271,
    "id": 4711974692
  },
  {
    "name": "Alkaif pizza chowk",
    "category": "highway",
    "subcategory": "bus_stop",
    "latitude": 30.2962248,
    "longitude": 71.9240597,
    "id": 4712023990
  },
  {
    "name": "Jaswantnagar Chowk",
    "category": "highway",
    "subcategory": "bus_stop",
    "latitude": 30.2936909,
    "longitude": 71.9317452,
    "id": 4712071489
  },
  {
    "name": "Farooq E Azam Chowk",
    "category": "highway",
    "subcategory": "bus_stop",
    "latitude": 30.2937185,
    "longitude": 71.9250473,
    "id": 4712071589
  },
  {
    "name": "Al Kaif",
    "category": "amenity",
    "subcategory": "fast_food",
    "latitude": 30.2960975,
    "longitude": 71.9239676,
    "id": 4712071689
  },
  {
    "name": "Police Line Chowk",
    "category": "highway",
    "subcategory": "bus_stop",
    "latitude": 30.2827995,
    "longitude": 71.9110663,
    "id": 4712085389
  },
  {
    "name": "68/10R Chowk",
    "category": "highway",
    "subcategory": "bus_stop",
    "latitude": 30.2831335,
    "longitude": 71.9180828,
    "id": 4712875589
  },
  {
    "name": "ایچ بی ایل پاکستان",
    "category": "amenity",
    "subcategory": "bank",
    "latitude": 30.296948,
    "longitude": 71.9218126,
    "id": 4718715289
  },
  {
    "name": "Al-Noor Hospital",
    "category": "amenity",
    "subcategory": "hospital",
    "latitude": 30.2959633,
    "longitude": 71.9206824,
    "id": 4723841689
  },
  {
    "name": "Bata",
    "category": "shop",
    "subcategory": "supermarket",
    "latitude": 30.2971126,
    "longitude": 71.9215769,
    "id": 4727723189
  },
  {
    "name": "Police Line Chowk",
    "category": "highway",
    "subcategory": "bus_stop",
    "latitude": 30.2829706,
    "longitude": 71.9113527,
    "id": 4737660722
  },
  {
    "name": "68/10R Chowk",
    "category": "highway",
    "subcategory": "bus_stop",
    "latitude": 30.2833296,
    "longitude": 71.9181066,
    "id": 4737665421
  },
  {
    "name": "PMI",
    "category": "shop",
    "subcategory": "department_store",
    "latitude": 30.2839166,
    "longitude": 71.924062,
    "id": 4737665521
  },
  {
    "name": "nestle pure filter water",
    "category": "amenity",
    "subcategory": "drinking_water",
    "latitude": 30.3052229,
    "longitude": 71.9381979,
    "id": 4746746927
  },
  {
    "name": "playground",
    "category": "leisure",
    "subcategory": "playground",
    "latitude": 30.2902136,
    "longitude": 71.9171622,
    "id": 4746747424
  },
  {
    "name": "Sessions Court - Khanewal",
    "category": "amenity",
    "subcategory": "courthouse",
    "latitude": 30.3023992,
    "longitude": 71.9275184,
    "id": 4746747425
  },
  {
    "name": "Govt model high school",
    "category": "amenity",
    "subcategory": "school",
    "latitude": 30.3026547,
    "longitude": 71.9290167,
    "id": 4746747426
  },
  {
    "name": "Jinah library khanewal",
    "category": "amenity",
    "subcategory": "library",
    "latitude": 30.3026293,
    "longitude": 71.9303354,
    "id": 4746747427
  },
  {
    "name": "District police office",
    "category": "amenity",
    "subcategory": "police",
    "latitude": 30.3024569,
    "longitude": 71.9258042,
    "id": 4746750724
  },
  {
    "name": "district account office",
    "category": "office",
    "subcategory": "government",
    "latitude": 30.3024737,
    "longitude": 71.9287929,
    "id": 4746750725
  },
  {
    "name": "Govt commerce collage khanewal",
    "category": "amenity",
    "subcategory": "school",
    "latitude": 30.3040998,
    "longitude": 71.9383466,
    "id": 4746750726
  },
  {
    "name": "National bank of pakistan",
    "category": "amenity",
    "subcategory": "bank",
    "latitude": 30.3013664,
    "longitude": 71.9243393,
    "id": 4746755621
  },
  {
    "name": "City police station",
    "category": "amenity",
    "subcategory": "police",
    "latitude": 30.3007345,
    "longitude": 71.9245178,
    "id": 4746755622
  },
  {
    "name": "Clinix +",
    "category": "amenity",
    "subcategory": "clinic",
    "latitude": 30.2970705,
    "longitude": 71.923084,
    "id": 4756003624
  },
  {
    "name": "kafy e yousaf",
    "category": "tourism",
    "subcategory": "hotel",
    "latitude": 30.2938658,
    "longitude": 71.9365203,
    "id": 4774897160
  },
  {
    "name": "GULLBERG  SUPER STORE",
    "category": "shop",
    "subcategory": "supermarket",
    "latitude": 30.3070434,
    "longitude": 71.9473169,
    "id": 4786011726
  },
  {
    "name": "Fort Restaurant",
    "category": "amenity",
    "subcategory": "restaurant",
    "latitude": 30.3185127,
    "longitude": 71.9658979,
    "id": 4792489721
  },
  {
    "name": "playground",
    "category": "leisure",
    "subcategory": "playground",
    "latitude": 30.3064536,
    "longitude": 71.9377247,
    "id": 4793620022
  },
  {
    "name": "nestle pure filter water",
    "category": "amenity",
    "subcategory": "drinking_water",
    "latitude": 30.2976298,
    "longitude": 71.9193316,
    "id": 4793674930
  },
  {
    "name": "Noreen Nishat",
    "category": "amenity",
    "subcategory": "hospital",
    "latitude": 30.3067362,
    "longitude": 71.9166999,
    "id": 4845522025
  },
  {
    "name": "Super Tala Gang Hall",
    "category": "tourism",
    "subcategory": "hotel",
    "latitude": 30.2988207,
    "longitude": 71.9519491,
    "id": 4851412224
  },
  {
    "name": "Kashmir Medical Store",
    "category": "amenity",
    "subcategory": "clinic",
    "latitude": 30.2956255,
    "longitude": 71.9220843,
    "id": 4851412225
  },
  {
    "name": "Clanic plus pharmacy",
    "category": "amenity",
    "subcategory": "pharmacy",
    "latitude": 30.2970229,
    "longitude": 71.9234729,
    "id": 4879037023
  },
  {
    "name": "bicycle_parking",
    "category": "amenity",
    "subcategory": "bicycle_parking",
    "latitude": 30.3011268,
    "longitude": 71.9253344,
    "id": 4879040822
  },
  {
    "name": "GPO Khanewal",
    "category": "amenity",
    "subcategory": "post_office",
    "latitude": 30.3003272,
    "longitude": 71.9226066,
    "id": 4879040823
  },
  {
    "name": "united bank limited",
    "category": "amenity",
    "subcategory": "bank",
    "latitude": 30.3009741,
    "longitude": 71.9218993,
    "id": 4879040824
  },
  {
    "name": "choice hair cut",
    "category": "shop",
    "subcategory": "hairdresser",
    "latitude": 30.295281,
    "longitude": 71.9211066,
    "id": 4879040825
  },
  {
    "name": "Bismillah fort bakery",
    "category": "shop",
    "subcategory": "bakery",
    "latitude": 30.2991494,
    "longitude": 71.9185845,
    "id": 4879040923
  },
  {
    "name": "Bismillah bakery",
    "category": "shop",
    "subcategory": "bakery",
    "latitude": 30.2987306,
    "longitude": 71.918615,
    "id": 4879041221
  },
  {
    "name": "bicycle_parking",
    "category": "amenity",
    "subcategory": "bicycle_parking",
    "latitude": 30.3089666,
    "longitude": 71.9297409,
    "id": 4879041321
  },
  {
    "name": "NuNehal Public School",
    "category": "amenity",
    "subcategory": "school",
    "latitude": 30.2947851,
    "longitude": 71.9352994,
    "id": 4880216242
  },
  {
    "name": "Govt Secondary School for Disable Students",
    "category": "amenity",
    "subcategory": "school",
    "latitude": 30.293905,
    "longitude": 71.9381441,
    "id": 4880216243
  },
  {
    "name": "Rehman Public School",
    "category": "amenity",
    "subcategory": "school",
    "latitude": 30.2943252,
    "longitude": 71.9376177,
    "id": 4880228521
  },
  {
    "name": "MASJID",
    "category": "tourism",
    "subcategory": "guest_house",
    "latitude": 30.2825666,
    "longitude": 71.92494,
    "id": 4906477221
  },
  {
    "name": "Dr Ejaz Ahmad",
    "category": "amenity",
    "subcategory": "doctors",
    "latitude": 30.2963852,
    "longitude": 71.9319966,
    "id": 4916682223
  },
  {
    "name": "naveed Mushtaq petroleum services",
    "category": "amenity",
    "subcategory": "fuel",
    "latitude": 30.3201236,
    "longitude": 71.9005144,
    "id": 4943785721
  },
  {
    "name": "Govt English Medium E/S(Deney Wala Kwl)",
    "category": "amenity",
    "subcategory": "school",
    "latitude": 30.3337939,
    "longitude": 71.8978429,
    "id": 5026191521
  },
  {
    "name": "Junction Garments",
    "category": "shop",
    "subcategory": "clothes",
    "latitude": 30.2976618,
    "longitude": 71.9214047,
    "id": 5157398982
  },
  {
    "name": "Jamia Masjid Chowk",
    "category": "historic",
    "subcategory": "monument",
    "latitude": 30.2981476,
    "longitude": 71.9210582,
    "id": 5209311017
  },
  {
    "name": "Babu Marky",
    "category": "tourism",
    "subcategory": "guest_house",
    "latitude": 30.2858395,
    "longitude": 71.9305837,
    "id": 5221370621
  },
  {
    "name": "Al Halal Travels",
    "category": "highway",
    "subcategory": "bus_stop",
    "latitude": 30.3184924,
    "longitude": 71.9194227,
    "id": 5255971322
  },
  {
    "name": "telenor bank microfinance",
    "category": "amenity",
    "subcategory": "bank",
    "latitude": 30.2956764,
    "longitude": 71.9191293,
    "id": 5259743322
  },
  {
    "name": "jahangir Clinic",
    "category": "amenity",
    "subcategory": "clinic",
    "latitude": 30.2947777,
    "longitude": 71.9243557,
    "id": 5260118421
  },
  {
    "name": "UBL 1936",
    "category": "amenity",
    "subcategory": "bank",
    "latitude": 30.2962218,
    "longitude": 71.9207191,
    "id": 5281983421
  },
  {
    "name": "Hassan Febric",
    "category": "shop",
    "subcategory": "variety_store",
    "latitude": 30.2958278,
    "longitude": 71.9230679,
    "id": 5285673821
  },
  {
    "name": "Alnoor School(AlHadi Camp)",
    "category": "amenity",
    "subcategory": "school",
    "latitude": 30.2809997,
    "longitude": 71.928375,
    "id": 5300397422
  },
  {
    "name": "taj mehal",
    "category": "amenity",
    "subcategory": "restaurant",
    "latitude": 30.2887447,
    "longitude": 71.9363771,
    "id": 5323437525
  },
  {
    "name": "national flower school",
    "category": "amenity",
    "subcategory": "school",
    "latitude": 30.2911552,
    "longitude": 71.925867,
    "id": 5325083122
  },
  {
    "name": "Rehman Public school(Usama Camp)",
    "category": "amenity",
    "subcategory": "school",
    "latitude": 30.29489,
    "longitude": 71.9377717,
    "id": 5325106721
  },
  {
    "name": "Dr abdul qadeer khan science midle school",
    "category": "amenity",
    "subcategory": "school",
    "latitude": 30.2953315,
    "longitude": 71.9387435,
    "id": 5325106722
  },
  {
    "name": "Samdia Mobile",
    "category": "shop",
    "subcategory": "mobile_phone",
    "latitude": 30.295563,
    "longitude": 71.9190483,
    "id": 5331083621
  },
  {
    "name": "City Pharmicy",
    "category": "amenity",
    "subcategory": "clinic",
    "latitude": 30.2986743,
    "longitude": 71.9226829,
    "id": 5351112522
  },
  {
    "name": "Hafeez Market",
    "category": "shop",
    "subcategory": "books",
    "latitude": 30.3038369,
    "longitude": 71.9231445,
    "id": 5370688724
  },
  {
    "name": "Govt Girls Hassan Model Middle School",
    "category": "amenity",
    "subcategory": "school",
    "latitude": 30.2989368,
    "longitude": 71.924653,
    "id": 5382369021
  },
  {
    "name": "National Cedit School",
    "category": "amenity",
    "subcategory": "school",
    "latitude": 30.3151542,
    "longitude": 71.9217589,
    "id": 5398725621
  },
  {
    "name": "Noni Brother Stationary Mart",
    "category": "shop",
    "subcategory": "books",
    "latitude": 30.2921233,
    "longitude": 71.9256561,
    "id": 5398725622
  },
  {
    "name": "Batala Sweets",
    "category": "shop",
    "subcategory": "bakery",
    "latitude": 30.2968825,
    "longitude": 71.9173386,
    "id": 5405615262
  },
  {
    "name": "Rajput Dairy Foam",
    "category": "tourism",
    "subcategory": "apartment",
    "latitude": 30.3192457,
    "longitude": 71.9206586,
    "id": 5411408921
  },
  {
    "name": "Humaira Arshad",
    "category": "amenity",
    "subcategory": "doctors",
    "latitude": 30.2949447,
    "longitude": 71.9195306,
    "id": 5414198226
  },
  {
    "name": "DHQ KHANEWAL",
    "category": "amenity",
    "subcategory": "hospital",
    "latitude": 30.2818738,
    "longitude": 71.9145437,
    "id": 5424316021
  },
  {
    "name": "Tehsil Office Khanewal",
    "category": "office",
    "subcategory": "government",
    "latitude": 30.286971,
    "longitude": 71.9338485,
    "id": 5459738722
  },
  {
    "name": "City Gate",
    "category": "tourism",
    "subcategory": "hotel",
    "latitude": 30.3176326,
    "longitude": 71.9606249,
    "id": 5478776321
  },
  {
    "name": "Oxford Public Model School",
    "category": "amenity",
    "subcategory": "school",
    "latitude": 30.3233801,
    "longitude": 71.9048995,
    "id": 5480924021
  },
  {
    "name": "Gujjar Hotel",
    "category": "tourism",
    "subcategory": "hotel",
    "latitude": 30.3234146,
    "longitude": 71.9178712,
    "id": 5483052625
  },
  {
    "name": "POLICE LINE KHANEWAL",
    "category": "office",
    "subcategory": "government",
    "latitude": 30.2690699,
    "longitude": 71.9079159,
    "id": 5486109021
  },
  {
    "name": "Khanewal Jail",
    "category": "office",
    "subcategory": "government",
    "latitude": 30.2713483,
    "longitude": 71.9181132,
    "id": 5486109022
  },
  {
    "name": "SANDHU TRADERS",
    "category": "shop",
    "subcategory": "department_store",
    "latitude": 30.3190279,
    "longitude": 71.9167912,
    "id": 5486109121
  },
  {
    "name": "kaisar Art",
    "category": "shop",
    "subcategory": "copyshop",
    "latitude": 30.3017471,
    "longitude": 71.921357,
    "id": 5490548221
  },
  {
    "name": "Asghar & Sons",
    "category": "shop",
    "subcategory": "hardware",
    "latitude": 30.3190182,
    "longitude": 71.916069,
    "id": 5516178723
  },
  {
    "name": "Punjab Kindergardan School",
    "category": "amenity",
    "subcategory": "school",
    "latitude": 30.2917619,
    "longitude": 71.9274474,
    "id": 5535595722
  },
  {
    "name": "Building Department Khanewal",
    "category": "office",
    "subcategory": "government",
    "latitude": 30.3172548,
    "longitude": 71.9224242,
    "id": 5547896022
  },
  {
    "name": "Fatima Public School Campus",
    "category": "amenity",
    "subcategory": "school",
    "latitude": 30.2817158,
    "longitude": 71.9196522,
    "id": 5562141823
  },
  {
    "name": "Abdul Wadood educational institutie",
    "category": "amenity",
    "subcategory": "school",
    "latitude": 30.2908638,
    "longitude": 71.9202331,
    "id": 5564559121
  },
  {
    "name": "FAISAL MOVERS LAHORE MORE KHANEWAL",
    "category": "highway",
    "subcategory": "bus_stop",
    "latitude": 30.3191145,
    "longitude": 71.9188627,
    "id": 5575270522
  },
  {
    "name": "ideal Gift Center",
    "category": "shop",
    "subcategory": "gift",
    "latitude": 30.2982199,
    "longitude": 71.9216505,
    "id": 5580299221
  },
  {
    "name": "AFC Khanewal",
    "category": "amenity",
    "subcategory": "fast_food",
    "latitude": 30.2959269,
    "longitude": 71.919889,
    "id": 5691773021
  },
  {
    "name": "7up Soda",
    "category": "amenity",
    "subcategory": "cafe",
    "latitude": 30.2948483,
    "longitude": 71.9246935,
    "id": 5701339321
  },
  {
    "name": "Zong",
    "category": "office",
    "subcategory": "company",
    "latitude": 30.2953447,
    "longitude": 71.921157,
    "id": 5704345821
  },
  {
    "name": "Faryal Pump",
    "category": "amenity",
    "subcategory": "fuel",
    "latitude": 30.3024705,
    "longitude": 71.9230188,
    "id": 5916877785
  },
  {
    "name": "LALA Parviosn Store",
    "category": "shop",
    "subcategory": "bakery",
    "latitude": 30.3063806,
    "longitude": 71.9508173,
    "id": 5962388885
  },
  {
    "name": "Coco CAFE",
    "category": "amenity",
    "subcategory": "cafe",
    "latitude": 30.289826,
    "longitude": 71.931814,
    "id": 6006344685
  },
  {
    "name": "ALLIED COLLEGE OF HEALTH SCIENCE",
    "category": "amenity",
    "subcategory": "college",
    "latitude": 30.2828305,
    "longitude": 71.924947,
    "id": 6279104699
  },
  {
    "name": "jamia masjid RAMZAN",
    "category": "tourism",
    "subcategory": "apartment",
    "latitude": 30.3269943,
    "longitude": 71.9164933,
    "id": 6310511486
  },
  {
    "name": "Kh. Khanewal",
    "category": "tourism",
    "subcategory": "apartment",
    "latitude": 30.2960648,
    "longitude": 71.9276286,
    "id": 6338027185
  },
  {
    "name": "iqra Public Model School",
    "category": "amenity",
    "subcategory": "school",
    "latitude": 30.3097375,
    "longitude": 71.9627433,
    "id": 6382578785
  },
  {
    "name": "AXE Saloon",
    "category": "shop",
    "subcategory": "hairdresser",
    "latitude": 30.3070361,
    "longitude": 71.9478006,
    "id": 6522367085
  },
  {
    "name": "Suzuki Motors Khanewal",
    "category": "shop",
    "subcategory": "car",
    "latitude": 30.3143762,
    "longitude": 71.916402,
    "id": 8607634056
  },
  {
    "name": "عزیز آباد",
    "category": "place",
    "subcategory": "village",
    "latitude": 30.2855096,
    "longitude": 71.9020561,
    "id": 9366362999
  },
  {
    "name": "Khanewal Dental Complex",
    "category": "amenity",
    "subcategory": "hospital",
    "latitude": 30.2970044,
    "longitude": 71.9226255,
    "id": 13308145776
  },
  {
    "name": "Railway Colony Road",
    "category": "highway",
    "subcategory": "secondary",
    "latitude": 30.313369899999998,
    "longitude": 71.92193721428572,
    "id": 180315693
  },
  {
    "name": "Khanewal Bypass",
    "category": "highway",
    "subcategory": "secondary",
    "latitude": 30.26619034736842,
    "longitude": 71.89733855263158,
    "id": 180315922
  },
  {
    "name": "residential",
    "category": "highway",
    "subcategory": "residential",
    "latitude": 30.303160647619045,
    "longitude": 71.93608966190476,
    "id": 180317211
  },
  {
    "name": "tertiary",
    "category": "highway",
    "subcategory": "tertiary",
    "latitude": 30.29874165,
    "longitude": 71.924886565,
    "id": 180317212
  },
  {
    "name": "residential",
    "category": "highway",
    "subcategory": "residential",
    "latitude": 30.276968164705885,
    "longitude": 71.91127691764706,
    "id": 180317213
  },
  {
    "name": "residential",
    "category": "highway",
    "subcategory": "residential",
    "latitude": 30.305708364705886,
    "longitude": 71.93808925882352,
    "id": 180317214
  },
  {
    "name": "tertiary",
    "category": "highway",
    "subcategory": "tertiary",
    "latitude": 30.302919033333335,
    "longitude": 71.92510556666667,
    "id": 180317215
  },
  {
    "name": "residential",
    "category": "highway",
    "subcategory": "residential",
    "latitude": 30.302768525,
    "longitude": 71.91982815,
    "id": 180317216
  },
  {
    "name": "tertiary",
    "category": "highway",
    "subcategory": "tertiary",
    "latitude": 30.295940752941178,
    "longitude": 71.91564433529412,
    "id": 180317217
  },
  {
    "name": "residential",
    "category": "highway",
    "subcategory": "residential",
    "latitude": 30.3015429,
    "longitude": 71.9155010125,
    "id": 180317218
  },
  {
    "name": "tertiary",
    "category": "highway",
    "subcategory": "tertiary",
    "latitude": 30.3008365,
    "longitude": 71.91996073333333,
    "id": 180317611
  },
  {
    "name": "residential",
    "category": "highway",
    "subcategory": "residential",
    "latitude": 30.2938327,
    "longitude": 71.935630592,
    "id": 180317613
  },
  {
    "name": "tertiary",
    "category": "highway",
    "subcategory": "tertiary",
    "latitude": 30.291995784210528,
    "longitude": 71.91256807894737,
    "id": 180317614
  },
  {
    "name": "place_of_worship",
    "category": "amenity",
    "subcategory": "place_of_worship",
    "latitude": 30.29382596,
    "longitude": 71.920253,
    "id": 182512268
  },
  {
    "name": "Bairy wala Kabrustaan",
    "category": "landuse",
    "subcategory": "cemetery",
    "latitude": 30.2880629,
    "longitude": 71.92363613846155,
    "id": 182512269
  },
  {
    "name": "tertiary",
    "category": "highway",
    "subcategory": "tertiary",
    "latitude": 30.300232786666665,
    "longitude": 71.92449392666667,
    "id": 182512270
  },
  {
    "name": "tertiary",
    "category": "highway",
    "subcategory": "tertiary",
    "latitude": 30.29980136470588,
    "longitude": 71.9203909,
    "id": 182512271
  },
  {
    "name": "tertiary",
    "category": "highway",
    "subcategory": "tertiary",
    "latitude": 30.29951152222222,
    "longitude": 71.91943997777778,
    "id": 182512273
  },
  {
    "name": "residential",
    "category": "highway",
    "subcategory": "residential",
    "latitude": 30.29440336,
    "longitude": 71.92028214,
    "id": 182512274
  },
  {
    "name": "residential",
    "category": "highway",
    "subcategory": "residential",
    "latitude": 30.30185818,
    "longitude": 71.91882864,
    "id": 182512275
  },
  {
    "name": "residential",
    "category": "highway",
    "subcategory": "residential",
    "latitude": 30.29713837142857,
    "longitude": 71.91359302857143,
    "id": 182512277
  },
  {
    "name": "residential",
    "category": "highway",
    "subcategory": "residential",
    "latitude": 30.296186625,
    "longitude": 71.919693775,
    "id": 182512278
  },
  {
    "name": "tertiary",
    "category": "highway",
    "subcategory": "tertiary",
    "latitude": 30.2989891,
    "longitude": 71.92072245,
    "id": 182512279
  },
  {
    "name": "tertiary",
    "category": "highway",
    "subcategory": "tertiary",
    "latitude": 30.300084933333338,
    "longitude": 71.92230405555556,
    "id": 182512283
  },
  {
    "name": "tertiary",
    "category": "highway",
    "subcategory": "tertiary",
    "latitude": 30.2956603,
    "longitude": 71.9188513,
    "id": 182512284
  },
  {
    "name": "tertiary",
    "category": "highway",
    "subcategory": "tertiary",
    "latitude": 30.297997322222223,
    "longitude": 71.91897786666667,
    "id": 182512285
  },
  {
    "name": "tertiary",
    "category": "highway",
    "subcategory": "tertiary",
    "latitude": 30.297146859999998,
    "longitude": 71.91938125,
    "id": 182512286
  },
  {
    "name": "residential",
    "category": "highway",
    "subcategory": "residential",
    "latitude": 30.29466795333333,
    "longitude": 71.94235998,
    "id": 182512287
  },
  {
    "name": "tertiary",
    "category": "highway",
    "subcategory": "tertiary",
    "latitude": 30.293753335,
    "longitude": 71.92733674,
    "id": 182512288
  },
  {
    "name": "tertiary",
    "category": "highway",
    "subcategory": "tertiary",
    "latitude": 30.29505654333333,
    "longitude": 71.92025245666667,
    "id": 182512290
  },
  {
    "name": "residential",
    "category": "highway",
    "subcategory": "residential",
    "latitude": 30.29015129230769,
    "longitude": 71.92280114615384,
    "id": 193545593
  },
  {
    "name": "unclassified",
    "category": "highway",
    "subcategory": "unclassified",
    "latitude": 30.292186577777777,
    "longitude": 71.92208905555555,
    "id": 193545594
  },
  {
    "name": "residential",
    "category": "highway",
    "subcategory": "residential",
    "latitude": 30.291259131578947,
    "longitude": 71.92971713157895,
    "id": 193545595
  },
  {
    "name": "residential",
    "category": "highway",
    "subcategory": "residential",
    "latitude": 30.2902657625,
    "longitude": 71.92769859583333,
    "id": 193545596
  },
  {
    "name": "residential",
    "category": "highway",
    "subcategory": "residential",
    "latitude": 30.289492391304346,
    "longitude": 71.92617921304348,
    "id": 193545597
  },
  {
    "name": "unclassified",
    "category": "highway",
    "subcategory": "unclassified",
    "latitude": 30.285784070967743,
    "longitude": 71.92180497419355,
    "id": 193545598
  },
  {
    "name": "Civil Hospital Road",
    "category": "highway",
    "subcategory": "tertiary",
    "latitude": 30.278321991666665,
    "longitude": 71.91800236499999,
    "id": 193545599
  },
  {
    "name": "قومی شاہراہ",
    "category": "highway",
    "subcategory": "trunk",
    "latitude": 30.339682696039606,
    "longitude": 72.03277171485148,
    "id": 242075351
  },
  {
    "name": "قومی شاہراہ",
    "category": "highway",
    "subcategory": "trunk",
    "latitude": 30.33386725060241,
    "longitude": 72.01446839156627,
    "id": 242075358
  },
  {
    "name": "قومی شاہراہ",
    "category": "highway",
    "subcategory": "trunk",
    "latitude": 30.31525525,
    "longitude": 71.946392075,
    "id": 242075359
  },
  {
    "name": "قومی شاہراہ",
    "category": "highway",
    "subcategory": "trunk",
    "latitude": 30.31535636,
    "longitude": 71.94770168,
    "id": 242075360
  },
  {
    "name": "trunk_link",
    "category": "highway",
    "subcategory": "trunk_link",
    "latitude": 30.318306425,
    "longitude": 71.921080825,
    "id": 286853281
  },
  {
    "name": "secondary",
    "category": "highway",
    "subcategory": "secondary",
    "latitude": 30.318487240000003,
    "longitude": 71.91688242000001,
    "id": 286853282
  },
  {
    "name": "trunk_link",
    "category": "highway",
    "subcategory": "trunk_link",
    "latitude": 30.31883045,
    "longitude": 71.91570285,
    "id": 286853283
  },
  {
    "name": "primary",
    "category": "highway",
    "subcategory": "primary",
    "latitude": 30.32067177857143,
    "longitude": 71.91929690714285,
    "id": 286853284
  },
  {
    "name": "Kabirwala-Khanewal Road",
    "category": "highway",
    "subcategory": "primary",
    "latitude": 30.372800564,
    "longitude": 71.882220796,
    "id": 287882707
  },
  {
    "name": "قومی شاہراہ",
    "category": "highway",
    "subcategory": "trunk",
    "latitude": 30.324915639873417,
    "longitude": 71.8437684227848,
    "id": 290770443
  },
  {
    "name": "Khanewal Bypass",
    "category": "highway",
    "subcategory": "secondary",
    "latitude": 30.281861677777776,
    "longitude": 71.90320585555556,
    "id": 307508429
  },
  {
    "name": "Khanewal Bypass",
    "category": "highway",
    "subcategory": "secondary",
    "latitude": 30.292641047058822,
    "longitude": 71.93441243235294,
    "id": 307508431
  },
  {
    "name": "trunk_link",
    "category": "highway",
    "subcategory": "trunk_link",
    "latitude": 30.319891650000002,
    "longitude": 71.9671267,
    "id": 307508432
  },
  {
    "name": "trunk_link",
    "category": "highway",
    "subcategory": "trunk_link",
    "latitude": 30.3152984,
    "longitude": 71.9529662,
    "id": 307508433
  },
  {
    "name": "secondary",
    "category": "highway",
    "subcategory": "secondary",
    "latitude": 30.309645003333333,
    "longitude": 71.94235662666667,
    "id": 307508435
  },
  {
    "name": "Ghazi Abbas Road",
    "category": "highway",
    "subcategory": "tertiary",
    "latitude": 30.30661855833333,
    "longitude": 71.91561855833334,
    "id": 307508436
  },
  {
    "name": "Khanewal Bypass",
    "category": "highway",
    "subcategory": "secondary",
    "latitude": 30.28263128333333,
    "longitude": 71.90320925,
    "id": 307508437
  },
  {
    "name": "residential",
    "category": "highway",
    "subcategory": "residential",
    "latitude": 30.307392866666664,
    "longitude": 71.9474844,
    "id": 413843928
  },
  {
    "name": "residential",
    "category": "highway",
    "subcategory": "residential",
    "latitude": 30.307030075,
    "longitude": 71.945459575,
    "id": 413843929
  },
  {
    "name": "residential",
    "category": "highway",
    "subcategory": "residential",
    "latitude": 30.30712816666667,
    "longitude": 71.94742293333333,
    "id": 413843930
  },
  {
    "name": "residential",
    "category": "highway",
    "subcategory": "residential",
    "latitude": 30.3076362625,
    "longitude": 71.95006855,
    "id": 413843931
  },
  {
    "name": "residential",
    "category": "highway",
    "subcategory": "residential",
    "latitude": 30.3078393,
    "longitude": 71.95004048000001,
    "id": 413843932
  },
  {
    "name": "residential",
    "category": "highway",
    "subcategory": "residential",
    "latitude": 30.304683788888887,
    "longitude": 71.94770472777778,
    "id": 413843933
  },
  {
    "name": "residential",
    "category": "highway",
    "subcategory": "residential",
    "latitude": 30.305451299999998,
    "longitude": 71.94917319999999,
    "id": 413843934
  },
  {
    "name": "residential",
    "category": "highway",
    "subcategory": "residential",
    "latitude": 30.305004033333333,
    "longitude": 71.94929563333334,
    "id": 413843935
  },
  {
    "name": "residential",
    "category": "highway",
    "subcategory": "residential",
    "latitude": 30.304612900000002,
    "longitude": 71.9480648,
    "id": 413843936
  },
  {
    "name": "residential",
    "category": "highway",
    "subcategory": "residential",
    "latitude": 30.305019266666665,
    "longitude": 71.94978663333333,
    "id": 413843937
  },
  {
    "name": "residential",
    "category": "highway",
    "subcategory": "residential",
    "latitude": 30.304806566666667,
    "longitude": 71.9465072,
    "id": 413843938
  },
  {
    "name": "residential",
    "category": "highway",
    "subcategory": "residential",
    "latitude": 30.305000485714285,
    "longitude": 71.94551717142858,
    "id": 413843939
  },
  {
    "name": "unclassified",
    "category": "highway",
    "subcategory": "unclassified",
    "latitude": 30.30363997647059,
    "longitude": 71.947171,
    "id": 413843940
  },
  {
    "name": "unclassified",
    "category": "highway",
    "subcategory": "unclassified",
    "latitude": 30.30360303333333,
    "longitude": 71.9461735,
    "id": 413843941
  },
  {
    "name": "residential",
    "category": "highway",
    "subcategory": "residential",
    "latitude": 30.303321433333334,
    "longitude": 71.94553456666667,
    "id": 413843942
  },
  {
    "name": "residential",
    "category": "highway",
    "subcategory": "residential",
    "latitude": 30.303923349999998,
    "longitude": 71.94650594999999,
    "id": 413843943
  },
  {
    "name": "residential",
    "category": "highway",
    "subcategory": "residential",
    "latitude": 30.30389,
    "longitude": 71.94699100000001,
    "id": 413843944
  },
  {
    "name": "residential",
    "category": "highway",
    "subcategory": "residential",
    "latitude": 30.303886050000003,
    "longitude": 71.94717560000001,
    "id": 413843945
  },
  {
    "name": "unclassified",
    "category": "highway",
    "subcategory": "unclassified",
    "latitude": 30.30382505,
    "longitude": 71.9482288,
    "id": 413843946
  },
  {
    "name": "unclassified",
    "category": "highway",
    "subcategory": "unclassified",
    "latitude": 30.3036278,
    "longitude": 71.94814725,
    "id": 413843947
  },
  {
    "name": "unclassified",
    "category": "highway",
    "subcategory": "unclassified",
    "latitude": 30.303689616666663,
    "longitude": 71.95013093333334,
    "id": 413843948
  },
  {
    "name": "unclassified",
    "category": "highway",
    "subcategory": "unclassified",
    "latitude": 30.303497399999998,
    "longitude": 71.94897666666667,
    "id": 413843949
  },
  {
    "name": "residential",
    "category": "highway",
    "subcategory": "residential",
    "latitude": 30.306266516666668,
    "longitude": 71.94643608333332,
    "id": 413844596
  },
  {
    "name": "residential",
    "category": "highway",
    "subcategory": "residential",
    "latitude": 30.306409650000003,
    "longitude": 71.94802835,
    "id": 413844597
  },
  {
    "name": "tertiary",
    "category": "highway",
    "subcategory": "tertiary",
    "latitude": 30.297461496,
    "longitude": 71.89024852,
    "id": 432451018
  },
  {
    "name": "residential",
    "category": "highway",
    "subcategory": "residential",
    "latitude": 30.308417733333332,
    "longitude": 71.94634263333333,
    "id": 435682881
  },
  {
    "name": "primary",
    "category": "highway",
    "subcategory": "primary",
    "latitude": 30.363411336170213,
    "longitude": 71.95249571276595,
    "id": 446357699
  },
  {
    "name": "trunk_link",
    "category": "highway",
    "subcategory": "trunk_link",
    "latitude": 30.3204061,
    "longitude": 71.90021229999999,
    "id": 446357700
  },
  {
    "name": "service",
    "category": "highway",
    "subcategory": "service",
    "latitude": 30.318910640000002,
    "longitude": 71.91926591000001,
    "id": 446357702
  },
  {
    "name": "residential",
    "category": "highway",
    "subcategory": "residential",
    "latitude": 30.307300525,
    "longitude": 71.94008543,
    "id": 450097218
  },
  {
    "name": "residential",
    "category": "highway",
    "subcategory": "residential",
    "latitude": 30.3097090875,
    "longitude": 71.9362966625,
    "id": 450097777
  },
  {
    "name": "residential",
    "category": "highway",
    "subcategory": "residential",
    "latitude": 30.30855835,
    "longitude": 71.934290425,
    "id": 450097778
  },
  {
    "name": "residential",
    "category": "highway",
    "subcategory": "residential",
    "latitude": 30.310080629999998,
    "longitude": 71.94097110999999,
    "id": 450097779
  },
  {
    "name": "residential",
    "category": "highway",
    "subcategory": "residential",
    "latitude": 30.309604699999998,
    "longitude": 71.93939103333334,
    "id": 450097780
  },
  {
    "name": "residential",
    "category": "highway",
    "subcategory": "residential",
    "latitude": 30.310899225,
    "longitude": 71.94199685,
    "id": 450097781
  },
  {
    "name": "residential",
    "category": "highway",
    "subcategory": "residential",
    "latitude": 30.311705885714286,
    "longitude": 71.94696105714286,
    "id": 450097782
  },
  {
    "name": "residential",
    "category": "highway",
    "subcategory": "residential",
    "latitude": 30.31391294736842,
    "longitude": 71.92488305263157,
    "id": 450097783
  },
  {
    "name": "residential",
    "category": "highway",
    "subcategory": "residential",
    "latitude": 30.311888966666668,
    "longitude": 71.9308797,
    "id": 450097784
  },
  {
    "name": "Railway Colony Road",
    "category": "highway",
    "subcategory": "secondary",
    "latitude": 30.30646108888889,
    "longitude": 71.92282693333334,
    "id": 450097848
  },
  {
    "name": "Railway Colony Road",
    "category": "highway",
    "subcategory": "secondary",
    "latitude": 30.30821005,
    "longitude": 71.9224215,
    "id": 450097849
  },
  {
    "name": "tertiary",
    "category": "highway",
    "subcategory": "tertiary",
    "latitude": 30.307746133333335,
    "longitude": 71.92771053055554,
    "id": 450098011
  },
  {
    "name": "residential",
    "category": "highway",
    "subcategory": "residential",
    "latitude": 30.306994933333332,
    "longitude": 71.93127653333333,
    "id": 450098012
  },
  {
    "name": "residential",
    "category": "highway",
    "subcategory": "residential",
    "latitude": 30.30334385,
    "longitude": 71.90608585,
    "id": 513660543
  },
  {
    "name": "residential",
    "category": "highway",
    "subcategory": "residential",
    "latitude": 30.3035500875,
    "longitude": 71.9050766375,
    "id": 513660544
  },
  {
    "name": "residential",
    "category": "highway",
    "subcategory": "residential",
    "latitude": 30.304049325,
    "longitude": 71.90566125000001,
    "id": 513660545
  },
  {
    "name": "residential",
    "category": "highway",
    "subcategory": "residential",
    "latitude": 30.30386325,
    "longitude": 71.90565677500001,
    "id": 513660546
  },
  {
    "name": "residential",
    "category": "highway",
    "subcategory": "residential",
    "latitude": 30.303534925,
    "longitude": 71.90566609999999,
    "id": 513660547
  },
  {
    "name": "residential",
    "category": "highway",
    "subcategory": "residential",
    "latitude": 30.30322305,
    "longitude": 71.905659,
    "id": 513660548
  },
  {
    "name": "residential",
    "category": "highway",
    "subcategory": "residential",
    "latitude": 30.302855175,
    "longitude": 71.9055752,
    "id": 513660549
  },
  {
    "name": "residential",
    "category": "highway",
    "subcategory": "residential",
    "latitude": 30.302490433333332,
    "longitude": 71.9052075,
    "id": 513660550
  },
  {
    "name": "Junction Garments",
    "category": "shop",
    "subcategory": "clothes",
    "latitude": 30.29767468,
    "longitude": 71.92143175999999,
    "id": 531281171
  },
  {
    "name": "place_of_worship",
    "category": "amenity",
    "subcategory": "place_of_worship",
    "latitude": 30.297687225,
    "longitude": 71.92090886875,
    "id": 531281172
  },
  {
    "name": "Old Sabzi Mandi Park",
    "category": "leisure",
    "subcategory": "park",
    "latitude": 30.297297680000003,
    "longitude": 71.9191281,
    "id": 531281173
  },
  {
    "name": "park",
    "category": "leisure",
    "subcategory": "park",
    "latitude": 30.29067804,
    "longitude": 71.91693624,
    "id": 531300651
  },
  {
    "name": "Shabbir Stadium Khanewal",
    "category": "leisure",
    "subcategory": "stadium",
    "latitude": 30.2938072,
    "longitude": 71.91455175454546,
    "id": 531300652
  },
  {
    "name": "Vegetable Market",
    "category": "shop",
    "subcategory": "greengrocer",
    "latitude": 30.29488588,
    "longitude": 71.91315928,
    "id": 531300653
  },
  {
    "name": "residential",
    "category": "highway",
    "subcategory": "residential",
    "latitude": 30.2966072,
    "longitude": 71.92111033333333,
    "id": 538107734
  },
  {
    "name": "residential",
    "category": "highway",
    "subcategory": "residential",
    "latitude": 30.29636504,
    "longitude": 71.92071466,
    "id": 538107735
  },
  {
    "name": "residential",
    "category": "highway",
    "subcategory": "residential",
    "latitude": 30.296468240000003,
    "longitude": 71.92017808,
    "id": 538107736
  },
  {
    "name": "residential",
    "category": "highway",
    "subcategory": "residential",
    "latitude": 30.296928966666666,
    "longitude": 71.91994983333333,
    "id": 538107737
  },
  {
    "name": "residential",
    "category": "highway",
    "subcategory": "residential",
    "latitude": 30.29601045,
    "longitude": 71.91934462500001,
    "id": 538107738
  },
  {
    "name": "residential",
    "category": "highway",
    "subcategory": "residential",
    "latitude": 30.296034525,
    "longitude": 71.91869990000001,
    "id": 538107739
  },
  {
    "name": "residential",
    "category": "highway",
    "subcategory": "residential",
    "latitude": 30.295745699999998,
    "longitude": 71.91830163333333,
    "id": 538107740
  },
  {
    "name": "residential",
    "category": "highway",
    "subcategory": "residential",
    "latitude": 30.2979348,
    "longitude": 71.9174196,
    "id": 538107741
  },
  {
    "name": "residential",
    "category": "highway",
    "subcategory": "residential",
    "latitude": 30.29814485,
    "longitude": 71.917834725,
    "id": 538107742
  },
  {
    "name": "residential",
    "category": "highway",
    "subcategory": "residential",
    "latitude": 30.29828697,
    "longitude": 71.91895056999999,
    "id": 538107743
  },
  {
    "name": "residential",
    "category": "highway",
    "subcategory": "residential",
    "latitude": 30.299067700000002,
    "longitude": 71.91960275,
    "id": 538107744
  },
  {
    "name": "residential",
    "category": "highway",
    "subcategory": "residential",
    "latitude": 30.29892715,
    "longitude": 71.91916075,
    "id": 538107745
  },
  {
    "name": "residential",
    "category": "highway",
    "subcategory": "residential",
    "latitude": 30.2994904,
    "longitude": 71.91678765,
    "id": 538107746
  },
  {
    "name": "residential",
    "category": "highway",
    "subcategory": "residential",
    "latitude": 30.301792640000002,
    "longitude": 71.91653522,
    "id": 538107747
  },
  {
    "name": "residential",
    "category": "highway",
    "subcategory": "residential",
    "latitude": 30.299629,
    "longitude": 71.91723325,
    "id": 538107748
  },
  {
    "name": "residential",
    "category": "highway",
    "subcategory": "residential",
    "latitude": 30.29988583333333,
    "longitude": 71.91763163333333,
    "id": 538107749
  },
  {
    "name": "residential",
    "category": "highway",
    "subcategory": "residential",
    "latitude": 30.298648033333336,
    "longitude": 71.91838423333333,
    "id": 538107750
  },
  {
    "name": "residential",
    "category": "highway",
    "subcategory": "residential",
    "latitude": 30.298854249999998,
    "longitude": 71.91893160000001,
    "id": 538107751
  },
  {
    "name": "Bismillah Chowk",
    "category": "highway",
    "subcategory": "tertiary",
    "latitude": 30.299203499999997,
    "longitude": 71.91847679,
    "id": 538107752
  },
  {
    "name": "residential",
    "category": "highway",
    "subcategory": "residential",
    "latitude": 30.29861836875,
    "longitude": 71.9166957625,
    "id": 538107753
  },
  {
    "name": "tertiary",
    "category": "highway",
    "subcategory": "tertiary",
    "latitude": 30.29829715,
    "longitude": 71.918848825,
    "id": 538107754
  },
  {
    "name": "residential",
    "category": "highway",
    "subcategory": "residential",
    "latitude": 30.3011473,
    "longitude": 71.92362126666667,
    "id": 538107755
  },
  {
    "name": "residential",
    "category": "highway",
    "subcategory": "residential",
    "latitude": 30.302133216666665,
    "longitude": 71.92009121666666,
    "id": 538107756
  },
  {
    "name": "residential",
    "category": "highway",
    "subcategory": "residential",
    "latitude": 30.302667800000002,
    "longitude": 71.9206642,
    "id": 538107757
  },
  {
    "name": "residential",
    "category": "highway",
    "subcategory": "residential",
    "latitude": 30.302123299999998,
    "longitude": 71.92083055,
    "id": 538107758
  },
  {
    "name": "residential",
    "category": "highway",
    "subcategory": "residential",
    "latitude": 30.3017222,
    "longitude": 71.91951945,
    "id": 538107759
  },
  {
    "name": "residential",
    "category": "highway",
    "subcategory": "residential",
    "latitude": 30.3022245,
    "longitude": 71.91923655,
    "id": 538107760
  },
  {
    "name": "Jamia Masjid Chowk",
    "category": "highway",
    "subcategory": "tertiary",
    "latitude": 30.298138266666665,
    "longitude": 71.92106233809524,
    "id": 538107761
  },
  {
    "name": "tertiary",
    "category": "highway",
    "subcategory": "tertiary",
    "latitude": 30.297321500000002,
    "longitude": 71.92139334999999,
    "id": 538107762
  },
  {
    "name": "tertiary",
    "category": "highway",
    "subcategory": "tertiary",
    "latitude": 30.29569826363636,
    "longitude": 71.9136844,
    "id": 538107763
  },
  {
    "name": "residential",
    "category": "highway",
    "subcategory": "residential",
    "latitude": 30.29978260909091,
    "longitude": 71.9213226909091,
    "id": 538107764
  },
  {
    "name": "residential",
    "category": "highway",
    "subcategory": "residential",
    "latitude": 30.29639818,
    "longitude": 71.92319698,
    "id": 538107765
  },
  {
    "name": "tertiary",
    "category": "highway",
    "subcategory": "tertiary",
    "latitude": 30.296521025,
    "longitude": 71.91535615000001,
    "id": 538107766
  },
  {
    "name": "residential",
    "category": "highway",
    "subcategory": "residential",
    "latitude": 30.29408878,
    "longitude": 71.91525708,
    "id": 538109138
  },
  {
    "name": "residential",
    "category": "highway",
    "subcategory": "residential",
    "latitude": 30.297519899999998,
    "longitude": 71.91544268,
    "id": 538109139
  },
  {
    "name": "residential",
    "category": "highway",
    "subcategory": "residential",
    "latitude": 30.29746355,
    "longitude": 71.915967475,
    "id": 538109140
  },
  {
    "name": "residential",
    "category": "highway",
    "subcategory": "residential",
    "latitude": 30.296014900000003,
    "longitude": 71.91703905,
    "id": 538109141
  },
  {
    "name": "residential",
    "category": "highway",
    "subcategory": "residential",
    "latitude": 30.29475265,
    "longitude": 71.9175582,
    "id": 538109142
  },
  {
    "name": "residential",
    "category": "highway",
    "subcategory": "residential",
    "latitude": 30.29462025,
    "longitude": 71.91710985,
    "id": 538109143
  },
  {
    "name": "residential",
    "category": "highway",
    "subcategory": "residential",
    "latitude": 30.2935232,
    "longitude": 71.9173105,
    "id": 538109144
  },
  {
    "name": "residential",
    "category": "highway",
    "subcategory": "residential",
    "latitude": 30.2944879,
    "longitude": 71.91666125,
    "id": 538109145
  },
  {
    "name": "residential",
    "category": "highway",
    "subcategory": "residential",
    "latitude": 30.2943637,
    "longitude": 71.91947564,
    "id": 538109146
  },
  {
    "name": "residential",
    "category": "highway",
    "subcategory": "residential",
    "latitude": 30.293536616666668,
    "longitude": 71.920069575,
    "id": 538109147
  },
  {
    "name": "tertiary",
    "category": "highway",
    "subcategory": "tertiary",
    "latitude": 30.296994543478263,
    "longitude": 71.91722790434783,
    "id": 540063419
  },
  {
    "name": "monument",
    "category": "historic",
    "subcategory": "monument",
    "latitude": 30.296989064999998,
    "longitude": 71.917231735,
    "id": 540063420
  },
  {
    "name": "tertiary",
    "category": "highway",
    "subcategory": "tertiary",
    "latitude": 30.297553461538463,
    "longitude": 71.91914271538461,
    "id": 540068552
  },
  {
    "name": "residential",
    "category": "highway",
    "subcategory": "residential",
    "latitude": 30.2942532,
    "longitude": 71.918443075,
    "id": 540068554
  },
  {
    "name": "Ehlay Hadees Choek",
    "category": "highway",
    "subcategory": "tertiary",
    "latitude": 30.2965462,
    "longitude": 71.92170067272728,
    "id": 540068555
  },
  {
    "name": "tertiary",
    "category": "highway",
    "subcategory": "tertiary",
    "latitude": 30.29683658,
    "longitude": 71.92265064,
    "id": 540068556
  },
  {
    "name": "residential",
    "category": "highway",
    "subcategory": "residential",
    "latitude": 30.293847675,
    "longitude": 71.9226162125,
    "id": 540068557
  },
  {
    "name": "secondary",
    "category": "highway",
    "subcategory": "secondary",
    "latitude": 30.303742905882352,
    "longitude": 71.92590379411764,
    "id": 540089523
  },
  {
    "name": "tertiary",
    "category": "highway",
    "subcategory": "tertiary",
    "latitude": 30.300313309090907,
    "longitude": 71.93172780606061,
    "id": 540089524
  },
  {
    "name": "secondary",
    "category": "highway",
    "subcategory": "secondary",
    "latitude": 30.30386841851852,
    "longitude": 71.92591143703704,
    "id": 540089525
  },
  {
    "name": "monument",
    "category": "historic",
    "subcategory": "monument",
    "latitude": 30.30589637,
    "longitude": 71.93121403500001,
    "id": 540089526
  },
  {
    "name": "secondary",
    "category": "highway",
    "subcategory": "secondary",
    "latitude": 30.301979850000002,
    "longitude": 71.92115340000001,
    "id": 540089527
  },
  {
    "name": "secondary",
    "category": "highway",
    "subcategory": "secondary",
    "latitude": 30.303930833333332,
    "longitude": 71.92176492,
    "id": 540089528
  },
  {
    "name": "secondary",
    "category": "highway",
    "subcategory": "secondary",
    "latitude": 30.302244466666668,
    "longitude": 71.92223673333334,
    "id": 540089529
  },
  {
    "name": "secondary",
    "category": "highway",
    "subcategory": "secondary",
    "latitude": 30.302651523809523,
    "longitude": 71.92277988571429,
    "id": 540089530
  },
  {
    "name": "monument",
    "category": "historic",
    "subcategory": "monument",
    "latitude": 30.302645365,
    "longitude": 71.9227886,
    "id": 540089531
  },
  {
    "name": "secondary",
    "category": "highway",
    "subcategory": "secondary",
    "latitude": 30.302417025,
    "longitude": 71.92242215,
    "id": 540089532
  },
  {
    "name": "secondary",
    "category": "highway",
    "subcategory": "secondary",
    "latitude": 30.302490066666664,
    "longitude": 71.92271666666666,
    "id": 540089533
  },
  {
    "name": "secondary",
    "category": "highway",
    "subcategory": "secondary",
    "latitude": 30.302755474999998,
    "longitude": 71.922935825,
    "id": 540089534
  },
  {
    "name": "secondary",
    "category": "highway",
    "subcategory": "secondary",
    "latitude": 30.30264848,
    "longitude": 71.92293274,
    "id": 540089535
  },
  {
    "name": "secondary",
    "category": "highway",
    "subcategory": "secondary",
    "latitude": 30.302799620000002,
    "longitude": 71.92272272,
    "id": 540089536
  },
  {
    "name": "secondary",
    "category": "highway",
    "subcategory": "secondary",
    "latitude": 30.3014553,
    "longitude": 71.91941465,
    "id": 540089537
  },
  {
    "name": "secondary",
    "category": "highway",
    "subcategory": "secondary",
    "latitude": 30.30174546666667,
    "longitude": 71.92035523333332,
    "id": 540089538
  },
  {
    "name": "secondary",
    "category": "highway",
    "subcategory": "secondary",
    "latitude": 30.30188935,
    "longitude": 71.92113760000001,
    "id": 540089539
  },
  {
    "name": "secondary",
    "category": "highway",
    "subcategory": "secondary",
    "latitude": 30.301626166666665,
    "longitude": 71.92025983333333,
    "id": 540089540
  },
  {
    "name": "secondary",
    "category": "highway",
    "subcategory": "secondary",
    "latitude": 30.30138835,
    "longitude": 71.9194907,
    "id": 540089542
  },
  {
    "name": "secondary",
    "category": "highway",
    "subcategory": "secondary",
    "latitude": 30.3009116625,
    "longitude": 71.918539075,
    "id": 540089543
  },
  {
    "name": "secondary",
    "category": "highway",
    "subcategory": "secondary",
    "latitude": 30.3004882,
    "longitude": 71.91703916666667,
    "id": 540089544
  },
  {
    "name": "secondary",
    "category": "highway",
    "subcategory": "secondary",
    "latitude": 30.3005648,
    "longitude": 71.91750955,
    "id": 540089545
  },
  {
    "name": "secondary",
    "category": "highway",
    "subcategory": "secondary",
    "latitude": 30.300379479999997,
    "longitude": 71.91692345999999,
    "id": 540089546
  },
  {
    "name": "tertiary",
    "category": "highway",
    "subcategory": "tertiary",
    "latitude": 30.300072466666666,
    "longitude": 71.9181327,
    "id": 540089547
  },
  {
    "name": "secondary",
    "category": "highway",
    "subcategory": "secondary",
    "latitude": 30.301298995238096,
    "longitude": 71.91911283809524,
    "id": 540089548
  },
  {
    "name": "secondary",
    "category": "highway",
    "subcategory": "secondary",
    "latitude": 30.300898259999997,
    "longitude": 71.91830172,
    "id": 540089549
  },
  {
    "name": "secondary",
    "category": "highway",
    "subcategory": "secondary",
    "latitude": 30.302050920833334,
    "longitude": 71.92150187083332,
    "id": 540089550
  },
  {
    "name": "secondary",
    "category": "highway",
    "subcategory": "secondary",
    "latitude": 30.30120815,
    "longitude": 71.91902007499999,
    "id": 540089551
  },
  {
    "name": "secondary",
    "category": "highway",
    "subcategory": "secondary",
    "latitude": 30.301379750000002,
    "longitude": 71.9191931,
    "id": 540089552
  },
  {
    "name": "secondary",
    "category": "highway",
    "subcategory": "secondary",
    "latitude": 30.301306,
    "longitude": 71.91923435,
    "id": 540089553
  },
  {
    "name": "tertiary",
    "category": "highway",
    "subcategory": "tertiary",
    "latitude": 30.30012895384615,
    "longitude": 71.92221462307693,
    "id": 540089554
  },
  {
    "name": "tertiary",
    "category": "highway",
    "subcategory": "tertiary",
    "latitude": 30.3000606625,
    "longitude": 71.9212504625,
    "id": 540089555
  },
  {
    "name": "secondary",
    "category": "highway",
    "subcategory": "secondary",
    "latitude": 30.300184333333334,
    "longitude": 71.9163033,
    "id": 540089556
  },
  {
    "name": "secondary",
    "category": "highway",
    "subcategory": "secondary",
    "latitude": 30.300186104545457,
    "longitude": 71.91609144090909,
    "id": 540089557
  },
  {
    "name": "secondary",
    "category": "highway",
    "subcategory": "secondary",
    "latitude": 30.2994110875,
    "longitude": 71.9137185,
    "id": 540089558
  },
  {
    "name": "tertiary",
    "category": "highway",
    "subcategory": "tertiary",
    "latitude": 30.299167049999998,
    "longitude": 71.91637271666667,
    "id": 540089559
  },
  {
    "name": "Railway Colony Road",
    "category": "highway",
    "subcategory": "secondary",
    "latitude": 30.306709869230772,
    "longitude": 71.92188957692308,
    "id": 540089560
  },
  {
    "name": "Railway Colony Road",
    "category": "highway",
    "subcategory": "secondary",
    "latitude": 30.3069485,
    "longitude": 71.9212187,
    "id": 540089561
  },
  {
    "name": "Railway Colony Road",
    "category": "highway",
    "subcategory": "secondary",
    "latitude": 30.3069621,
    "longitude": 71.92126809999999,
    "id": 540089562
  },
  {
    "name": "Railway Colony Road",
    "category": "highway",
    "subcategory": "secondary",
    "latitude": 30.30756553636364,
    "longitude": 71.9218297,
    "id": 540089563
  },
  {
    "name": "Railway Colony Road",
    "category": "highway",
    "subcategory": "secondary",
    "latitude": 30.30711426666667,
    "longitude": 71.92117306666667,
    "id": 540089564
  },
  {
    "name": "Railway Colony Road",
    "category": "highway",
    "subcategory": "secondary",
    "latitude": 30.30711745,
    "longitude": 71.9212014,
    "id": 540089565
  },
  {
    "name": "Railway Colony Road",
    "category": "highway",
    "subcategory": "secondary",
    "latitude": 30.30676596666667,
    "longitude": 71.92131053333333,
    "id": 540089566
  },
  {
    "name": "Railway Colony Road",
    "category": "highway",
    "subcategory": "secondary",
    "latitude": 30.30678545,
    "longitude": 71.92133129999999,
    "id": 540089567
  },
  {
    "name": "Railway Colony Road",
    "category": "highway",
    "subcategory": "secondary",
    "latitude": 30.311099769565217,
    "longitude": 71.92188499565218,
    "id": 540089568
  },
  {
    "name": "Railway Colony Road",
    "category": "highway",
    "subcategory": "secondary",
    "latitude": 30.3042817875,
    "longitude": 71.9228271,
    "id": 540089569
  },
  {
    "name": "Railway Colony Road",
    "category": "highway",
    "subcategory": "secondary",
    "latitude": 30.306200063636364,
    "longitude": 71.92280874545455,
    "id": 540089570
  },
  {
    "name": "secondary",
    "category": "highway",
    "subcategory": "secondary",
    "latitude": 30.30416930714286,
    "longitude": 71.92199358928572,
    "id": 540089571
  },
  {
    "name": "secondary",
    "category": "highway",
    "subcategory": "secondary",
    "latitude": 30.305592133333334,
    "longitude": 71.9228787,
    "id": 540089572
  },
  {
    "name": "Kabristan",
    "category": "landuse",
    "subcategory": "cemetery",
    "latitude": 30.321828560000004,
    "longitude": 71.9133982,
    "id": 540091989
  },
  {
    "name": "tertiary",
    "category": "highway",
    "subcategory": "tertiary",
    "latitude": 30.29736063333333,
    "longitude": 71.923372,
    "id": 540536127
  },
  {
    "name": "tertiary",
    "category": "highway",
    "subcategory": "tertiary",
    "latitude": 30.294771647368417,
    "longitude": 71.92576285789474,
    "id": 540536131
  },
  {
    "name": "fuel",
    "category": "amenity",
    "subcategory": "fuel",
    "latitude": 30.31245764,
    "longitude": 71.92204248,
    "id": 540536136
  },
  {
    "name": "secondary",
    "category": "highway",
    "subcategory": "secondary",
    "latitude": 30.317123213333332,
    "longitude": 71.92164599333334,
    "id": 540536138
  },
  {
    "name": "residential",
    "category": "landuse",
    "subcategory": "residential",
    "latitude": 30.29865609333333,
    "longitude": 71.89960675666666,
    "id": 540536140
  },
  {
    "name": "residential",
    "category": "landuse",
    "subcategory": "residential",
    "latitude": 30.2974388,
    "longitude": 71.90333641578948,
    "id": 540536141
  },
  {
    "name": "residential",
    "category": "landuse",
    "subcategory": "residential",
    "latitude": 30.30029903846154,
    "longitude": 71.90413096153847,
    "id": 540536142
  },
  {
    "name": "residential",
    "category": "landuse",
    "subcategory": "residential",
    "latitude": 30.30362192333333,
    "longitude": 71.90450925,
    "id": 540536143
  },
  {
    "name": "residential",
    "category": "highway",
    "subcategory": "residential",
    "latitude": 30.2995073,
    "longitude": 71.92733693571428,
    "id": 540536144
  },
  {
    "name": "residential",
    "category": "highway",
    "subcategory": "residential",
    "latitude": 30.2983073,
    "longitude": 71.93013605714286,
    "id": 540536145
  },
  {
    "name": "residential",
    "category": "highway",
    "subcategory": "residential",
    "latitude": 30.2988142,
    "longitude": 71.927943175,
    "id": 540536146
  },
  {
    "name": "secondary",
    "category": "highway",
    "subcategory": "secondary",
    "latitude": 30.307877325,
    "longitude": 71.938051605,
    "id": 540536147
  },
  {
    "name": "secondary",
    "category": "highway",
    "subcategory": "secondary",
    "latitude": 30.312089888235292,
    "longitude": 71.94894076470588,
    "id": 540536148
  },
  {
    "name": "residential",
    "category": "highway",
    "subcategory": "residential",
    "latitude": 30.308544925,
    "longitude": 71.945508625,
    "id": 540536149
  },
  {
    "name": "residential",
    "category": "highway",
    "subcategory": "residential",
    "latitude": 30.301053850000002,
    "longitude": 71.9309194,
    "id": 576480118
  },
  {
    "name": "residential",
    "category": "highway",
    "subcategory": "residential",
    "latitude": 30.30096802,
    "longitude": 71.92872367999999,
    "id": 576480119
  },
  {
    "name": "residential",
    "category": "highway",
    "subcategory": "residential",
    "latitude": 30.296817139999995,
    "longitude": 71.92904168,
    "id": 576480120
  },
  {
    "name": "residential",
    "category": "highway",
    "subcategory": "residential",
    "latitude": 30.2977532,
    "longitude": 71.93300249999999,
    "id": 576480121
  },
  {
    "name": "residential",
    "category": "highway",
    "subcategory": "residential",
    "latitude": 30.29876366666667,
    "longitude": 71.9323465,
    "id": 576480122
  },
  {
    "name": "residential",
    "category": "highway",
    "subcategory": "residential",
    "latitude": 30.29920235,
    "longitude": 71.93283055,
    "id": 576480123
  },
  {
    "name": "residential",
    "category": "highway",
    "subcategory": "residential",
    "latitude": 30.298648749999998,
    "longitude": 71.9381954,
    "id": 576480124
  },
  {
    "name": "residential",
    "category": "highway",
    "subcategory": "residential",
    "latitude": 30.298967633333334,
    "longitude": 71.93807944999999,
    "id": 576480125
  },
  {
    "name": "residential",
    "category": "highway",
    "subcategory": "residential",
    "latitude": 30.3017903,
    "longitude": 71.93720775,
    "id": 576480126
  },
  {
    "name": "residential",
    "category": "highway",
    "subcategory": "residential",
    "latitude": 30.30146795,
    "longitude": 71.9372123,
    "id": 576480127
  },
  {
    "name": "residential",
    "category": "highway",
    "subcategory": "residential",
    "latitude": 30.3028237,
    "longitude": 71.9373925,
    "id": 576480128
  },
  {
    "name": "residential",
    "category": "highway",
    "subcategory": "residential",
    "latitude": 30.302133233333333,
    "longitude": 71.93781073333334,
    "id": 576480129
  },
  {
    "name": "residential",
    "category": "highway",
    "subcategory": "residential",
    "latitude": 30.3026184,
    "longitude": 71.93697503333334,
    "id": 576480130
  },
  {
    "name": "residential",
    "category": "highway",
    "subcategory": "residential",
    "latitude": 30.303183824999998,
    "longitude": 71.937412775,
    "id": 576480131
  },
  {
    "name": "residential",
    "category": "highway",
    "subcategory": "residential",
    "latitude": 30.30255045,
    "longitude": 71.93862715,
    "id": 576480132
  },
  {
    "name": "residential",
    "category": "highway",
    "subcategory": "residential",
    "latitude": 30.299063088888893,
    "longitude": 71.93864096666667,
    "id": 576480133
  },
  {
    "name": "residential",
    "category": "highway",
    "subcategory": "residential",
    "latitude": 30.3021197,
    "longitude": 71.93846735,
    "id": 576480134
  },
  {
    "name": "residential",
    "category": "highway",
    "subcategory": "residential",
    "latitude": 30.3021448,
    "longitude": 71.937424075,
    "id": 576480135
  },
  {
    "name": "residential",
    "category": "highway",
    "subcategory": "residential",
    "latitude": 30.302124433333333,
    "longitude": 71.9366028,
    "id": 576480136
  },
  {
    "name": "residential",
    "category": "highway",
    "subcategory": "residential",
    "latitude": 30.30113215,
    "longitude": 71.937464375,
    "id": 576480137
  },
  {
    "name": "residential",
    "category": "highway",
    "subcategory": "residential",
    "latitude": 30.301624099999998,
    "longitude": 71.93830485000001,
    "id": 576480138
  },
  {
    "name": "residential",
    "category": "highway",
    "subcategory": "residential",
    "latitude": 30.301836166666664,
    "longitude": 71.93339733333333,
    "id": 576480139
  },
  {
    "name": "residential",
    "category": "highway",
    "subcategory": "residential",
    "latitude": 30.301836133333335,
    "longitude": 71.93261556666667,
    "id": 576480140
  },
  {
    "name": "residential",
    "category": "highway",
    "subcategory": "residential",
    "latitude": 30.301845659999998,
    "longitude": 71.93337214,
    "id": 576480142
  },
  {
    "name": "residential",
    "category": "highway",
    "subcategory": "residential",
    "latitude": 30.2989963,
    "longitude": 71.9335419,
    "id": 576480143
  },
  {
    "name": "residential",
    "category": "highway",
    "subcategory": "residential",
    "latitude": 30.2989989,
    "longitude": 71.93394090000001,
    "id": 576480145
  },
  {
    "name": "residential",
    "category": "highway",
    "subcategory": "residential",
    "latitude": 30.2987864,
    "longitude": 71.9340473,
    "id": 576480146
  },
  {
    "name": "residential",
    "category": "highway",
    "subcategory": "residential",
    "latitude": 30.29972665,
    "longitude": 71.93459465,
    "id": 576480148
  },
  {
    "name": "residential",
    "category": "highway",
    "subcategory": "residential",
    "latitude": 30.30004485,
    "longitude": 71.934017125,
    "id": 576480149
  },
  {
    "name": "residential",
    "category": "highway",
    "subcategory": "residential",
    "latitude": 30.300583879999998,
    "longitude": 71.93499533,
    "id": 576480150
  },
  {
    "name": "residential",
    "category": "highway",
    "subcategory": "residential",
    "latitude": 30.301031439999996,
    "longitude": 71.9341222,
    "id": 576480151
  },
  {
    "name": "residential",
    "category": "highway",
    "subcategory": "residential",
    "latitude": 30.301085699999998,
    "longitude": 71.93337971999999,
    "id": 576480152
  },
  {
    "name": "residential",
    "category": "highway",
    "subcategory": "residential",
    "latitude": 30.297903659999996,
    "longitude": 71.93373268,
    "id": 576480153
  },
  {
    "name": "residential",
    "category": "highway",
    "subcategory": "residential",
    "latitude": 30.2977713,
    "longitude": 71.93368585,
    "id": 576480154
  },
  {
    "name": "residential",
    "category": "highway",
    "subcategory": "residential",
    "latitude": 30.29921105,
    "longitude": 71.9338774,
    "id": 576480155
  },
  {
    "name": "residential",
    "category": "highway",
    "subcategory": "residential",
    "latitude": 30.2996211,
    "longitude": 71.93249329999999,
    "id": 576480156
  },
  {
    "name": "residential",
    "category": "highway",
    "subcategory": "residential",
    "latitude": 30.299751766666663,
    "longitude": 71.93234439999999,
    "id": 576480157
  },
  {
    "name": "residential",
    "category": "highway",
    "subcategory": "residential",
    "latitude": 30.29998865,
    "longitude": 71.9320401,
    "id": 576480158
  },
  {
    "name": "residential",
    "category": "highway",
    "subcategory": "residential",
    "latitude": 30.29930555,
    "longitude": 71.93331535,
    "id": 576480159
  },
  {
    "name": "residential",
    "category": "highway",
    "subcategory": "residential",
    "latitude": 30.2993898,
    "longitude": 71.9336543,
    "id": 576480160
  },
  {
    "name": "residential",
    "category": "highway",
    "subcategory": "residential",
    "latitude": 30.298659450000002,
    "longitude": 71.9320598,
    "id": 576480161
  },
  {
    "name": "residential",
    "category": "highway",
    "subcategory": "residential",
    "latitude": 30.29843055,
    "longitude": 71.932802825,
    "id": 576480162
  },
  {
    "name": "residential",
    "category": "highway",
    "subcategory": "residential",
    "latitude": 30.298023200000003,
    "longitude": 71.932515,
    "id": 576480163
  },
  {
    "name": "residential",
    "category": "highway",
    "subcategory": "residential",
    "latitude": 30.297635120000002,
    "longitude": 71.93318805999999,
    "id": 576480164
  },
  {
    "name": "Lodhran - Khanewal Express",
    "category": "highway",
    "subcategory": "trunk",
    "latitude": 30.29575090333333,
    "longitude": 71.96809174333333,
    "id": 614090315
  },
  {
    "name": "Lodhran - Khanewal Express",
    "category": "highway",
    "subcategory": "trunk",
    "latitude": 30.286741818181817,
    "longitude": 71.96562097272728,
    "id": 614090329
  },
  {
    "name": "residential",
    "category": "highway",
    "subcategory": "residential",
    "latitude": 30.317747699999998,
    "longitude": 71.91948454999999,
    "id": 631656159
  },
  {
    "name": "Pumjab College Khanewal",
    "category": "amenity",
    "subcategory": "college",
    "latitude": 30.31732477777778,
    "longitude": 71.91908164444445,
    "id": 631656160
  },
  {
    "name": "secondary",
    "category": "highway",
    "subcategory": "secondary",
    "latitude": 30.318521025,
    "longitude": 71.91656145,
    "id": 664050538
  },
  {
    "name": "trunk_link",
    "category": "highway",
    "subcategory": "trunk_link",
    "latitude": 30.318711,
    "longitude": 71.9178577,
    "id": 664050539
  },
  {
    "name": "primary",
    "category": "highway",
    "subcategory": "primary",
    "latitude": 30.31884564,
    "longitude": 71.91981161999999,
    "id": 674721126
  },
  {
    "name": "trunk_link",
    "category": "highway",
    "subcategory": "trunk_link",
    "latitude": 30.31837265,
    "longitude": 71.92243590000001,
    "id": 675244087
  },
  {
    "name": "primary",
    "category": "highway",
    "subcategory": "primary",
    "latitude": 30.318859525,
    "longitude": 71.920219275,
    "id": 675244088
  },
  {
    "name": "Lodhran - Khanewal Express",
    "category": "highway",
    "subcategory": "secondary",
    "latitude": 30.281828949999998,
    "longitude": 71.9022409,
    "id": 683401867
  },
  {
    "name": "residential",
    "category": "highway",
    "subcategory": "residential",
    "latitude": 30.306644414285717,
    "longitude": 71.94160738571428,
    "id": 686971637
  },
  {
    "name": "residential",
    "category": "highway",
    "subcategory": "residential",
    "latitude": 30.306259642857146,
    "longitude": 71.94133121428571,
    "id": 686971638
  },
  {
    "name": "residential",
    "category": "highway",
    "subcategory": "residential",
    "latitude": 30.3061874,
    "longitude": 71.94044945,
    "id": 686971639
  },
  {
    "name": "residential",
    "category": "highway",
    "subcategory": "residential",
    "latitude": 30.306437799999998,
    "longitude": 71.9403572,
    "id": 686971640
  },
  {
    "name": "residential",
    "category": "highway",
    "subcategory": "residential",
    "latitude": 30.3057857,
    "longitude": 71.939972,
    "id": 686971641
  },
  {
    "name": "residential",
    "category": "highway",
    "subcategory": "residential",
    "latitude": 30.305784433333333,
    "longitude": 71.93935806666667,
    "id": 686971642
  },
  {
    "name": "residential",
    "category": "highway",
    "subcategory": "residential",
    "latitude": 30.30605506666667,
    "longitude": 71.93938063333333,
    "id": 686971643
  },
  {
    "name": "residential",
    "category": "highway",
    "subcategory": "residential",
    "latitude": 30.306188400000003,
    "longitude": 71.93993142,
    "id": 686971644
  },
  {
    "name": "residential",
    "category": "highway",
    "subcategory": "residential",
    "latitude": 30.306442125,
    "longitude": 71.940875275,
    "id": 686971645
  },
  {
    "name": "residential",
    "category": "highway",
    "subcategory": "residential",
    "latitude": 30.3065306875,
    "longitude": 71.9420403375,
    "id": 686971646
  },
  {
    "name": "residential",
    "category": "highway",
    "subcategory": "residential",
    "latitude": 30.307282466666667,
    "longitude": 71.9419496,
    "id": 686971647
  },
  {
    "name": "residential",
    "category": "highway",
    "subcategory": "residential",
    "latitude": 30.306622933333333,
    "longitude": 71.94327585833334,
    "id": 686971648
  },
  {
    "name": "residential",
    "category": "highway",
    "subcategory": "residential",
    "latitude": 30.307211799999997,
    "longitude": 71.94137585,
    "id": 686971649
  },
  {
    "name": "residential",
    "category": "highway",
    "subcategory": "residential",
    "latitude": 30.3078134,
    "longitude": 71.9441891,
    "id": 686971650
  },
  {
    "name": "residential",
    "category": "highway",
    "subcategory": "residential",
    "latitude": 30.307625033333334,
    "longitude": 71.94392246666666,
    "id": 686971651
  },
  {
    "name": "residential",
    "category": "highway",
    "subcategory": "residential",
    "latitude": 30.3073001,
    "longitude": 71.942611,
    "id": 686971652
  },
  {
    "name": "residential",
    "category": "highway",
    "subcategory": "residential",
    "latitude": 30.307387666666667,
    "longitude": 71.94329963333333,
    "id": 686971653
  },
  {
    "name": "residential",
    "category": "highway",
    "subcategory": "residential",
    "latitude": 30.307062175,
    "longitude": 71.943347775,
    "id": 686971654
  },
  {
    "name": "residential",
    "category": "highway",
    "subcategory": "residential",
    "latitude": 30.3080597,
    "longitude": 71.94441425,
    "id": 686971655
  },
  {
    "name": "residential",
    "category": "highway",
    "subcategory": "residential",
    "latitude": 30.3075981,
    "longitude": 71.9437790875,
    "id": 686971656
  },
  {
    "name": "residential",
    "category": "highway",
    "subcategory": "residential",
    "latitude": 30.3073519,
    "longitude": 71.94295356666667,
    "id": 686971657
  },
  {
    "name": "residential",
    "category": "highway",
    "subcategory": "residential",
    "latitude": 30.30777496,
    "longitude": 71.94343676,
    "id": 686971658
  },
  {
    "name": "residential",
    "category": "highway",
    "subcategory": "residential",
    "latitude": 30.30727528888889,
    "longitude": 71.94084395555555,
    "id": 686971659
  },
  {
    "name": "residential",
    "category": "highway",
    "subcategory": "residential",
    "latitude": 30.30610385,
    "longitude": 71.9375186,
    "id": 686971660
  },
  {
    "name": "residential",
    "category": "highway",
    "subcategory": "residential",
    "latitude": 30.307364225,
    "longitude": 71.9421011375,
    "id": 686971661
  },
  {
    "name": "residential",
    "category": "highway",
    "subcategory": "residential",
    "latitude": 30.305747183333335,
    "longitude": 71.93889531666667,
    "id": 686971662
  },
  {
    "name": "residential",
    "category": "highway",
    "subcategory": "residential",
    "latitude": 30.305278299999998,
    "longitude": 71.9385858,
    "id": 686971663
  },
  {
    "name": "residential",
    "category": "landuse",
    "subcategory": "residential",
    "latitude": 30.299570265,
    "longitude": 71.90217393,
    "id": 693907099
  },
  {
    "name": "tertiary",
    "category": "highway",
    "subcategory": "tertiary",
    "latitude": 30.315946983333333,
    "longitude": 71.95278211666667,
    "id": 790798189
  },
  {
    "name": "trunk_link",
    "category": "highway",
    "subcategory": "trunk_link",
    "latitude": 30.316999600000003,
    "longitude": 71.93883118,
    "id": 790798190
  },
  {
    "name": "tertiary",
    "category": "highway",
    "subcategory": "tertiary",
    "latitude": 30.317145266666667,
    "longitude": 71.93889898333333,
    "id": 790798191
  },
  {
    "name": "tertiary",
    "category": "highway",
    "subcategory": "tertiary",
    "latitude": 30.316548504761904,
    "longitude": 71.94906844761906,
    "id": 790798192
  },
  {
    "name": "residential",
    "category": "highway",
    "subcategory": "residential",
    "latitude": 30.315799679999998,
    "longitude": 71.95645342,
    "id": 790798194
  },
  {
    "name": "residential",
    "category": "highway",
    "subcategory": "residential",
    "latitude": 30.31452895,
    "longitude": 71.95698765,
    "id": 790798195
  },
  {
    "name": "residential",
    "category": "highway",
    "subcategory": "residential",
    "latitude": 30.315239066666667,
    "longitude": 71.95818960000001,
    "id": 790798196
  },
  {
    "name": "residential",
    "category": "highway",
    "subcategory": "residential",
    "latitude": 30.316073533333334,
    "longitude": 71.96000243333333,
    "id": 790798197
  },
  {
    "name": "residential",
    "category": "highway",
    "subcategory": "residential",
    "latitude": 30.3151433,
    "longitude": 71.95991083333332,
    "id": 790798198
  },
  {
    "name": "residential",
    "category": "highway",
    "subcategory": "residential",
    "latitude": 30.3156901,
    "longitude": 71.96004636666667,
    "id": 790798199
  },
  {
    "name": "residential",
    "category": "highway",
    "subcategory": "residential",
    "latitude": 30.31549254,
    "longitude": 71.95881756,
    "id": 790798200
  },
  {
    "name": "residential",
    "category": "highway",
    "subcategory": "residential",
    "latitude": 30.316734750000002,
    "longitude": 71.9586952,
    "id": 790798201
  },
  {
    "name": "residential",
    "category": "highway",
    "subcategory": "residential",
    "latitude": 30.3165637,
    "longitude": 71.95899041111112,
    "id": 790798202
  },
  {
    "name": "residential",
    "category": "highway",
    "subcategory": "residential",
    "latitude": 30.316435283333334,
    "longitude": 71.95807958333333,
    "id": 790798203
  },
  {
    "name": "residential",
    "category": "highway",
    "subcategory": "residential",
    "latitude": 30.31539365,
    "longitude": 71.95748068333333,
    "id": 790798204
  },
  {
    "name": "residential",
    "category": "highway",
    "subcategory": "residential",
    "latitude": 30.313655125,
    "longitude": 71.95920807499999,
    "id": 790798205
  },
  {
    "name": "residential",
    "category": "highway",
    "subcategory": "residential",
    "latitude": 30.314112625,
    "longitude": 71.9587322,
    "id": 790798206
  },
  {
    "name": "residential",
    "category": "highway",
    "subcategory": "residential",
    "latitude": 30.31277325,
    "longitude": 71.96070879999999,
    "id": 790798207
  },
  {
    "name": "residential",
    "category": "highway",
    "subcategory": "residential",
    "latitude": 30.31276216666667,
    "longitude": 71.9615936,
    "id": 790798208
  },
  {
    "name": "residential",
    "category": "highway",
    "subcategory": "residential",
    "latitude": 30.314837314285715,
    "longitude": 71.96140555714285,
    "id": 790798209
  },
  {
    "name": "residential",
    "category": "highway",
    "subcategory": "residential",
    "latitude": 30.314409840000003,
    "longitude": 71.9608848,
    "id": 790798210
  },
  {
    "name": "residential",
    "category": "highway",
    "subcategory": "residential",
    "latitude": 30.311983533333333,
    "longitude": 71.96052396666666,
    "id": 790798211
  },
  {
    "name": "residential",
    "category": "highway",
    "subcategory": "residential",
    "latitude": 30.31236983,
    "longitude": 71.96101324,
    "id": 790798212
  },
  {
    "name": "residential",
    "category": "highway",
    "subcategory": "residential",
    "latitude": 30.311792099999998,
    "longitude": 71.96342379999999,
    "id": 790798213
  },
  {
    "name": "residential",
    "category": "highway",
    "subcategory": "residential",
    "latitude": 30.311970525,
    "longitude": 71.96282735,
    "id": 790798214
  },
  {
    "name": "residential",
    "category": "highway",
    "subcategory": "residential",
    "latitude": 30.3126829625,
    "longitude": 71.9622767,
    "id": 790798215
  },
  {
    "name": "residential",
    "category": "highway",
    "subcategory": "residential",
    "latitude": 30.3134163,
    "longitude": 71.96080926666667,
    "id": 790798216
  },
  {
    "name": "residential",
    "category": "highway",
    "subcategory": "residential",
    "latitude": 30.315095466666666,
    "longitude": 71.95775102500001,
    "id": 790798217
  },
  {
    "name": "unclassified",
    "category": "highway",
    "subcategory": "unclassified",
    "latitude": 30.3140724625,
    "longitude": 71.9667959,
    "id": 790798218
  },
  {
    "name": "trunk_link",
    "category": "highway",
    "subcategory": "trunk_link",
    "latitude": 30.3182229,
    "longitude": 71.96260243333333,
    "id": 790798219
  },
  {
    "name": "residential",
    "category": "highway",
    "subcategory": "residential",
    "latitude": 30.319529875,
    "longitude": 71.970306025,
    "id": 790798220
  },
  {
    "name": "unclassified",
    "category": "highway",
    "subcategory": "unclassified",
    "latitude": 30.28925615,
    "longitude": 71.92711455,
    "id": 790810710
  },
  {
    "name": "unclassified",
    "category": "highway",
    "subcategory": "unclassified",
    "latitude": 30.28772485,
    "longitude": 71.9272393,
    "id": 790810711
  },
  {
    "name": "unclassified",
    "category": "highway",
    "subcategory": "unclassified",
    "latitude": 30.28799584,
    "longitude": 71.9258296,
    "id": 790810712
  },
  {
    "name": "unclassified",
    "category": "highway",
    "subcategory": "unclassified",
    "latitude": 30.290367307692307,
    "longitude": 71.92458096153847,
    "id": 790810713
  },
  {
    "name": "unclassified",
    "category": "highway",
    "subcategory": "unclassified",
    "latitude": 30.28742571818182,
    "longitude": 71.92566013636363,
    "id": 790810714
  },
  {
    "name": "unclassified",
    "category": "highway",
    "subcategory": "unclassified",
    "latitude": 30.2861966,
    "longitude": 71.92496694444444,
    "id": 790810715
  },
  {
    "name": "unclassified",
    "category": "highway",
    "subcategory": "unclassified",
    "latitude": 30.2828877,
    "longitude": 71.91832260000001,
    "id": 790810716
  },
  {
    "name": "unclassified",
    "category": "highway",
    "subcategory": "unclassified",
    "latitude": 30.282584200000002,
    "longitude": 71.91829995,
    "id": 790810717
  },
  {
    "name": "unclassified",
    "category": "highway",
    "subcategory": "unclassified",
    "latitude": 30.282283200000002,
    "longitude": 71.9183176,
    "id": 790810718
  },
  {
    "name": "unclassified",
    "category": "highway",
    "subcategory": "unclassified",
    "latitude": 30.281978707692307,
    "longitude": 71.9162135076923,
    "id": 790810719
  },
  {
    "name": "unclassified",
    "category": "highway",
    "subcategory": "unclassified",
    "latitude": 30.28117645,
    "longitude": 71.92098183333333,
    "id": 790810720
  },
  {
    "name": "unclassified",
    "category": "highway",
    "subcategory": "unclassified",
    "latitude": 30.2813163,
    "longitude": 71.92036295,
    "id": 790810721
  },
  {
    "name": "unclassified",
    "category": "highway",
    "subcategory": "unclassified",
    "latitude": 30.2820128,
    "longitude": 71.92021952,
    "id": 790810722
  },
  {
    "name": "unclassified",
    "category": "highway",
    "subcategory": "unclassified",
    "latitude": 30.281062925,
    "longitude": 71.92036851666667,
    "id": 790810723
  },
  {
    "name": "unclassified",
    "category": "highway",
    "subcategory": "unclassified",
    "latitude": 30.2816616,
    "longitude": 71.91926194999999,
    "id": 790810724
  },
  {
    "name": "unclassified",
    "category": "highway",
    "subcategory": "unclassified",
    "latitude": 30.281871433333333,
    "longitude": 71.91908313333333,
    "id": 790810725
  },
  {
    "name": "unclassified",
    "category": "highway",
    "subcategory": "unclassified",
    "latitude": 30.280766684615383,
    "longitude": 71.92021702307692,
    "id": 790810726
  },
  {
    "name": "unclassified",
    "category": "highway",
    "subcategory": "unclassified",
    "latitude": 30.280516921428575,
    "longitude": 71.91991164285714,
    "id": 790810727
  },
  {
    "name": "unclassified",
    "category": "highway",
    "subcategory": "unclassified",
    "latitude": 30.27902177142857,
    "longitude": 71.91986485714285,
    "id": 790810728
  },
  {
    "name": "unclassified",
    "category": "highway",
    "subcategory": "unclassified",
    "latitude": 30.2819635,
    "longitude": 71.9294804,
    "id": 790810729
  },
  {
    "name": "unclassified",
    "category": "highway",
    "subcategory": "unclassified",
    "latitude": 30.282415657142856,
    "longitude": 71.93023938571429,
    "id": 790810730
  },
  {
    "name": "unclassified",
    "category": "highway",
    "subcategory": "unclassified",
    "latitude": 30.28377556,
    "longitude": 71.93334502,
    "id": 790810731
  },
  {
    "name": "unclassified",
    "category": "highway",
    "subcategory": "unclassified",
    "latitude": 30.2809114,
    "longitude": 71.92656385000001,
    "id": 790810732
  },
  {
    "name": "unclassified",
    "category": "highway",
    "subcategory": "unclassified",
    "latitude": 30.28048575,
    "longitude": 71.9296816,
    "id": 790810733
  },
  {
    "name": "unclassified",
    "category": "highway",
    "subcategory": "unclassified",
    "latitude": 30.27946815,
    "longitude": 71.9369054,
    "id": 790810734
  },
  {
    "name": "unclassified",
    "category": "highway",
    "subcategory": "unclassified",
    "latitude": 30.2810742,
    "longitude": 71.93548355,
    "id": 790810735
  },
  {
    "name": "unclassified",
    "category": "highway",
    "subcategory": "unclassified",
    "latitude": 30.28158365,
    "longitude": 71.93491725,
    "id": 790810736
  },
  {
    "name": "unclassified",
    "category": "highway",
    "subcategory": "unclassified",
    "latitude": 30.2842983,
    "longitude": 71.93027691666667,
    "id": 790810737
  },
  {
    "name": "unclassified",
    "category": "highway",
    "subcategory": "unclassified",
    "latitude": 30.28254665,
    "longitude": 71.92980436666666,
    "id": 790810738
  },
  {
    "name": "residential",
    "category": "highway",
    "subcategory": "residential",
    "latitude": 30.307124213513514,
    "longitude": 71.91917697027027,
    "id": 790841655
  },
  {
    "name": "unclassified",
    "category": "highway",
    "subcategory": "unclassified",
    "latitude": 30.3118673,
    "longitude": 71.92409638571428,
    "id": 790841656
  },
  {
    "name": "unclassified",
    "category": "highway",
    "subcategory": "unclassified",
    "latitude": 30.3218168,
    "longitude": 71.926378175,
    "id": 790841657
  },
  {
    "name": "residential",
    "category": "highway",
    "subcategory": "residential",
    "latitude": 30.317440466666667,
    "longitude": 71.93884379999999,
    "id": 790841658
  },
  {
    "name": "residential",
    "category": "highway",
    "subcategory": "residential",
    "latitude": 30.31875685,
    "longitude": 71.93902445,
    "id": 790841659
  },
  {
    "name": "residential",
    "category": "highway",
    "subcategory": "residential",
    "latitude": 30.319229149999998,
    "longitude": 71.9390151,
    "id": 790841660
  },
  {
    "name": "residential",
    "category": "highway",
    "subcategory": "residential",
    "latitude": 30.319094740000004,
    "longitude": 71.93938628,
    "id": 790841661
  },
  {
    "name": "residential",
    "category": "highway",
    "subcategory": "residential",
    "latitude": 30.3166133,
    "longitude": 71.9364641,
    "id": 790841662
  },
  {
    "name": "residential",
    "category": "highway",
    "subcategory": "residential",
    "latitude": 30.3167678,
    "longitude": 71.9373485125,
    "id": 790841663
  },
  {
    "name": "residential",
    "category": "highway",
    "subcategory": "residential",
    "latitude": 30.31599715,
    "longitude": 71.93641345,
    "id": 790841664
  },
  {
    "name": "residential",
    "category": "highway",
    "subcategory": "residential",
    "latitude": 30.316212933333333,
    "longitude": 71.93665033333333,
    "id": 790841665
  },
  {
    "name": "residential",
    "category": "highway",
    "subcategory": "residential",
    "latitude": 30.315558199999998,
    "longitude": 71.93210395,
    "id": 790841666
  },
  {
    "name": "residential",
    "category": "highway",
    "subcategory": "residential",
    "latitude": 30.315484020000003,
    "longitude": 71.93211244,
    "id": 790841667
  },
  {
    "name": "residential",
    "category": "highway",
    "subcategory": "residential",
    "latitude": 30.316324099999996,
    "longitude": 71.93295462,
    "id": 790841668
  },
  {
    "name": "residential",
    "category": "highway",
    "subcategory": "residential",
    "latitude": 30.316289241666666,
    "longitude": 71.93626594166666,
    "id": 790841669
  },
  {
    "name": "residential",
    "category": "highway",
    "subcategory": "residential",
    "latitude": 30.316483828571428,
    "longitude": 71.93365767142858,
    "id": 790841670
  },
  {
    "name": "residential",
    "category": "highway",
    "subcategory": "residential",
    "latitude": 30.321150966666668,
    "longitude": 71.9330096,
    "id": 790841671
  },
  {
    "name": "residential",
    "category": "highway",
    "subcategory": "residential",
    "latitude": 30.321196266666664,
    "longitude": 71.93657459999999,
    "id": 790841672
  },
  {
    "name": "residential",
    "category": "highway",
    "subcategory": "residential",
    "latitude": 30.3195297,
    "longitude": 71.9374679,
    "id": 790841673
  },
  {
    "name": "residential",
    "category": "highway",
    "subcategory": "residential",
    "latitude": 30.319490866666666,
    "longitude": 71.93506663333334,
    "id": 790841674
  },
  {
    "name": "residential",
    "category": "highway",
    "subcategory": "residential",
    "latitude": 30.31936575,
    "longitude": 71.9323641,
    "id": 790841675
  },
  {
    "name": "residential",
    "category": "highway",
    "subcategory": "residential",
    "latitude": 30.319351150000003,
    "longitude": 71.93302055,
    "id": 790841676
  },
  {
    "name": "residential",
    "category": "highway",
    "subcategory": "residential",
    "latitude": 30.3193364,
    "longitude": 71.9336965,
    "id": 790841677
  },
  {
    "name": "residential",
    "category": "highway",
    "subcategory": "residential",
    "latitude": 30.319378633333333,
    "longitude": 71.9343667,
    "id": 790841678
  },
  {
    "name": "residential",
    "category": "highway",
    "subcategory": "residential",
    "latitude": 30.3189006,
    "longitude": 71.93674945000001,
    "id": 790841679
  },
  {
    "name": "residential",
    "category": "highway",
    "subcategory": "residential",
    "latitude": 30.318462125,
    "longitude": 71.934789325,
    "id": 790841680
  },
  {
    "name": "residential",
    "category": "highway",
    "subcategory": "residential",
    "latitude": 30.320118066666666,
    "longitude": 71.93333161666666,
    "id": 790841681
  },
  {
    "name": "residential",
    "category": "highway",
    "subcategory": "residential",
    "latitude": 30.32070754,
    "longitude": 71.93493576,
    "id": 790841682
  },
  {
    "name": "residential",
    "category": "highway",
    "subcategory": "residential",
    "latitude": 30.321170540000004,
    "longitude": 71.93493336,
    "id": 790841683
  },
  {
    "name": "residential",
    "category": "highway",
    "subcategory": "residential",
    "latitude": 30.319647757894735,
    "longitude": 71.93679265789474,
    "id": 790841684
  },
  {
    "name": "residential",
    "category": "highway",
    "subcategory": "residential",
    "latitude": 30.3032613,
    "longitude": 71.91248060000001,
    "id": 790841685
  },
  {
    "name": "residential",
    "category": "highway",
    "subcategory": "residential",
    "latitude": 30.303557100000003,
    "longitude": 71.91212203333333,
    "id": 790841686
  },
  {
    "name": "residential",
    "category": "highway",
    "subcategory": "residential",
    "latitude": 30.302484299999996,
    "longitude": 71.91182406,
    "id": 790841687
  },
  {
    "name": "residential",
    "category": "highway",
    "subcategory": "residential",
    "latitude": 30.311036140540537,
    "longitude": 71.91229600540541,
    "id": 790841688
  },
  {
    "name": "residential",
    "category": "highway",
    "subcategory": "residential",
    "latitude": 30.307630533333334,
    "longitude": 71.91354765,
    "id": 790841689
  },
  {
    "name": "secondary",
    "category": "highway",
    "subcategory": "secondary",
    "latitude": 30.303356925,
    "longitude": 71.91425235833333,
    "id": 790841690
  },
  {
    "name": "residential",
    "category": "highway",
    "subcategory": "residential",
    "latitude": 30.3017282,
    "longitude": 71.9238245,
    "id": 790841691
  },
  {
    "name": "residential",
    "category": "highway",
    "subcategory": "residential",
    "latitude": 30.303842433333333,
    "longitude": 71.92420539999999,
    "id": 790841692
  },
  {
    "name": "residential",
    "category": "highway",
    "subcategory": "residential",
    "latitude": 30.30357635,
    "longitude": 71.9221371,
    "id": 790841693
  },
  {
    "name": "residential",
    "category": "highway",
    "subcategory": "residential",
    "latitude": 30.30271025,
    "longitude": 71.91552834999999,
    "id": 790841694
  },
  {
    "name": "residential",
    "category": "highway",
    "subcategory": "residential",
    "latitude": 30.302496833333333,
    "longitude": 71.91590656666666,
    "id": 790841695
  },
  {
    "name": "residential",
    "category": "highway",
    "subcategory": "residential",
    "latitude": 30.302455433333336,
    "longitude": 71.91640213333334,
    "id": 790841696
  },
  {
    "name": "residential",
    "category": "highway",
    "subcategory": "residential",
    "latitude": 30.30254562,
    "longitude": 71.91596424,
    "id": 790841697
  },
  {
    "name": "اسٹریٹ 1",
    "category": "highway",
    "subcategory": "residential",
    "latitude": 30.303918625,
    "longitude": 71.91908365,
    "id": 790841698
  },
  {
    "name": "residential",
    "category": "highway",
    "subcategory": "residential",
    "latitude": 30.303991233333335,
    "longitude": 71.91894843333334,
    "id": 790841699
  },
  {
    "name": "residential",
    "category": "highway",
    "subcategory": "residential",
    "latitude": 30.303711225,
    "longitude": 71.918881625,
    "id": 790841700
  },
  {
    "name": "residential",
    "category": "highway",
    "subcategory": "residential",
    "latitude": 30.304415487500002,
    "longitude": 71.9211295,
    "id": 790841701
  },
  {
    "name": "residential",
    "category": "highway",
    "subcategory": "residential",
    "latitude": 30.301789933333335,
    "longitude": 71.91759033333334,
    "id": 790841702
  },
  {
    "name": "residential",
    "category": "highway",
    "subcategory": "residential",
    "latitude": 30.30137716666667,
    "longitude": 71.9181674,
    "id": 790841703
  },
  {
    "name": "residential",
    "category": "highway",
    "subcategory": "residential",
    "latitude": 30.301378999999997,
    "longitude": 71.91810716666667,
    "id": 790841704
  },
  {
    "name": "residential",
    "category": "highway",
    "subcategory": "residential",
    "latitude": 30.29968162,
    "longitude": 71.92205554,
    "id": 790841705
  },
  {
    "name": "residential",
    "category": "highway",
    "subcategory": "residential",
    "latitude": 30.300990833333334,
    "longitude": 71.92149736666666,
    "id": 790841706
  },