[
  {
    "name": "سی این جی",
    "category": "amenity",
    "subcategory": "fuel",
    "latitude": 30.1346164,
    "longitude": 66.9809434,
    "id": 3038991424
  },
  {
    "name": "Shahwani Chowrangi",
    "category": "tourism",
    "subcategory": "attraction",
    "latitude": 30.144665,
    "longitude": 66.972927,
    "id": 12545731328
  },
  {
    "name": "مسجد شریف ، نزد کلی کمالو",
    "category": "amenity",
    "subcategory": "place_of_worship",
    "latitude": 30.1037867,
    "longitude": 66.9737991,
    "id": 12673835430
  },
  {
    "name": "Geloo Pump",
    "category": "amenity",
    "subcategory": "fuel",
    "latitude": 30.1067599,
    "longitude": 66.9740271,
    "id": 12726507352
  },
  {
    "name": "Raisani Hotel",
    "category": "amenity",
    "subcategory": "cafe",
    "latitude": 30.1058893,
    "longitude": 66.9738718,
    "id": 12726526717
  },
  {
    "name": "Public Library FAIZABAD Saryab",
    "category": "amenity",
    "subcategory": "library",
    "latitude": 30.1246528,
    "longitude": 66.9767011,
    "id": 12967173196
  },
  {
    "name": "Tariq Hospital Saryab QUETTA",
    "category": "amenity",
    "subcategory": "hospital",
    "latitude": 30.1251447,
    "longitude": 66.9778436,
    "id": 12967185627
  },
  {
    "name": "Al Saadat Hotel",
    "category": "amenity",
    "subcategory": "cafe",
    "latitude": 30.1152764,
    "longitude": 66.9753215,
    "id": 12967211908
  },
  {
    "name": "Government Postgraduate College Sariab Road Quetta",
    "category": "amenity",
    "subcategory": "university",
    "latitude": 30.1453177,
    "longitude": 66.9832895,
    "id": 13078437651
  }
]