[
  {
    "name": "traffic_signals",
    "category": "highway",
    "subcategory": "traffic_signals",
    "latitude": 24.9427002,
    "longitude": 67.0478474,
    "id": 285091843
  },
  {
    "name": "traffic_signals",
    "category": "highway",
    "subcategory": "traffic_signals",
    "latitude": 24.9424967,
    "longitude": 67.0476614,
    "id": 285092667
  },
  {
    "name": "traffic_signals",
    "category": "highway",
    "subcategory": "traffic_signals",
    "latitude": 24.9429924,
    "longitude": 67.0475112,
    "id": 285094321
  },
  {
    "name": "traffic_signals",
    "category": "highway",
    "subcategory": "traffic_signals",
    "latitude": 24.9427839,
    "longitude": 67.047326,
    "id": 285098483
  },
  {
    "name": "Oven Fresh Bakery",
    "category": "shop",
    "subcategory": "bakery",
    "latitude": 24.9383338,
    "longitude": 67.0418258,
    "id": 285993886
  },
  {
    "name": "turning_circle",
    "category": "highway",
    "subcategory": "turning_circle",
    "latitude": 24.930831,
    "longitude": 67.0448303,
    "id": 290257602
  },
  {
    "name": "Ziauddin Chowrangi",
    "category": "highway",
    "subcategory": "traffic_signals",
    "latitude": 24.9253862,
    "longitude": 67.0453912,
    "id": 290257621
  },
  {
    "name": "Disco More",
    "category": "highway",
    "subcategory": "traffic_signals",
    "latitude": 24.9716804,
    "longitude": 67.0530437,
    "id": 763498117
  },
  {
    "name": "mini_roundabout",
    "category": "highway",
    "subcategory": "mini_roundabout",
    "latitude": 24.9048997,
    "longitude": 67.0277243,
    "id": 775023752
  },
  {
    "name": "قطبی چوک",
    "category": "highway",
    "subcategory": "traffic_signals",
    "latitude": 24.919995,
    "longitude": 66.970521,
    "id": 1723662840
  },
  {
    "name": "Hazar Chowk",
    "category": "highway",
    "subcategory": "traffic_signals",
    "latitude": 24.9317711,
    "longitude": 67.0001815,
    "id": 1723668237
  },
  {
    "name": "سلیمان خیل چوک",
    "category": "highway",
    "subcategory": "traffic_signals",
    "latitude": 24.9307597,
    "longitude": 66.9846614,
    "id": 1723668380
  },
  {
    "name": "Shipowner College Chowrangi",
    "category": "highway",
    "subcategory": "traffic_signals",
    "latitude": 24.9483154,
    "longitude": 67.0405687,
    "id": 2299988225
  },
  {
    "name": "Anda More",
    "category": "highway",
    "subcategory": "traffic_signals",
    "latitude": 24.9647349,
    "longitude": 67.0535442,
    "id": 2315050930
  },
  {
    "name": "mini_roundabout",
    "category": "highway",
    "subcategory": "mini_roundabout",
    "latitude": 24.9039406,
    "longitude": 67.0333601,
    "id": 2426786882
  },
  {
    "name": "traffic_signals",
    "category": "highway",
    "subcategory": "traffic_signals",
    "latitude": 24.957352,
    "longitude": 66.9617747,
    "id": 2448242449
  },
  {
    "name": "Symbolizers",
    "category": "office",
    "subcategory": "company",
    "latitude": 24.9417894,
    "longitude": 67.0499613,
    "id": 2573092644
  },
  {
    "name": "Moosa Colony",
    "category": "place",
    "subcategory": "neighbourhood",
    "latitude": 24.92013,
    "longitude": 67.0489994,
    "id": 2671395587
  },
  {
    "name": "Ziauddin Hospital North Nazimabad",
    "category": "amenity",
    "subcategory": "hospital",
    "latitude": 24.9239276,
    "longitude": 67.0447127,
    "id": 2671409823
  },
  {
    "name": "North Nazimabad Block-F",
    "category": "highway",
    "subcategory": "bus_stop",
    "latitude": 24.9336046,
    "longitude": 67.0400476,
    "id": 2671410091
  },
  {
    "name": "North Nazimabad Block H",
    "category": "highway",
    "subcategory": "bus_stop",
    "latitude": 24.9376712,
    "longitude": 67.0490007,
    "id": 2671412466
  },
  {
    "name": "North Karachi Sector 7D-3",
    "category": "place",
    "subcategory": "neighbourhood",
    "latitude": 24.968263,
    "longitude": 67.0481404,
    "id": 2683407993
  },
  {
    "name": "crossing",
    "category": "highway",
    "subcategory": "crossing",
    "latitude": 24.9617162,
    "longitude": 67.0509119,
    "id": 2683417132
  },
  {
    "name": "Pakistan Shipowner's Government College",
    "category": "amenity",
    "subcategory": "college",
    "latitude": 24.9488618,
    "longitude": 67.0409069,
    "id": 3377907545
  },
  {
    "name": "Batha mosque",
    "category": "amenity",
    "subcategory": "place_of_worship",
    "latitude": 24.9520769,
    "longitude": 67.0477888,
    "id": 3377919862
  },
  {
    "name": "Qudsiya Mosque",
    "category": "amenity",
    "subcategory": "place_of_worship",
    "latitude": 24.9129005,
    "longitude": 67.0422088,
    "id": 3431215530
  },
  {
    "name": "Qazi CNG Station",
    "category": "amenity",
    "subcategory": "fuel",
    "latitude": 24.9540486,
    "longitude": 67.0459949,
    "id": 3483496195
  },
  {
    "name": "KDA roundabout",
    "category": "place",
    "subcategory": "locality",
    "latitude": 24.9314051,
    "longitude": 67.0375124,
    "id": 3483501207
  },
  {
    "name": "Kati Pahari",
    "category": "natural",
    "subcategory": "saddle",
    "latitude": 24.9440737,
    "longitude": 67.0314766,
    "id": 3494728239
  },
  {
    "name": "Meezan Bank Limited",
    "category": "amenity",
    "subcategory": "atm",
    "latitude": 24.906664,
    "longitude": 66.9973634,
    "id": 3500533704
  },
  {
    "name": "Meezan Bank Limited SITE Branch",
    "category": "amenity",
    "subcategory": "bank",
    "latitude": 24.9102459,
    "longitude": 67.0109264,
    "id": 3523446760
  },
  {
    "name": "The Bank of Khyber SITE Branch",
    "category": "amenity",
    "subcategory": "bank",
    "latitude": 24.911412,
    "longitude": 67.0126172,
    "id": 3523446761
  },
  {
    "name": "Pahaar Ganj Chowrangi",
    "category": "highway",
    "subcategory": "traffic_signals",
    "latitude": 24.9368655,
    "longitude": 67.0300205,
    "id": 3680080858
  },
  {
    "name": "Mustafa",
    "category": "amenity",
    "subcategory": "place_of_worship",
    "latitude": 24.947291,
    "longitude": 67.0263132,
    "id": 3794136618
  },
  {
    "name": "Noor",
    "category": "amenity",
    "subcategory": "place_of_worship",
    "latitude": 24.9303104,
    "longitude": 67.0444489,
    "id": 3813755697
  },
  {
    "name": "Edhi Interchange",
    "category": "highway",
    "subcategory": "bus_stop",
    "latitude": 24.9242734,
    "longitude": 67.0314958,
    "id": 3846578385
  },
  {
    "name": "Usman e Ghani Mosque",
    "category": "amenity",
    "subcategory": "place_of_worship",
    "latitude": 24.9537728,
    "longitude": 67.0453015,
    "id": 3846582804
  },
  {
    "name": "Hi Fly CNG",
    "category": "amenity",
    "subcategory": "fuel",
    "latitude": 24.9554456,
    "longitude": 67.0471738,
    "id": 3846584896
  },
  {
    "name": "Babar Manzil Bus Stop",
    "category": "highway",
    "subcategory": "bus_stop",
    "latitude": 24.9555905,
    "longitude": 67.046871,
    "id": 3846587356
  },
  {
    "name": "Qalandaria",
    "category": "amenity",
    "subcategory": "place_of_worship",
    "latitude": 24.9596104,
    "longitude": 67.0510135,
    "id": 3846602555
  },
  {
    "name": "Corner Chemist",
    "category": "amenity",
    "subcategory": "pharmacy",
    "latitude": 24.9567061,
    "longitude": 67.0506469,
    "id": 3847129039
  },
  {
    "name": "Rainbow Super Mart",
    "category": "shop",
    "subcategory": "supermarket",
    "latitude": 24.9557128,
    "longitude": 67.0508461,
    "id": 3847129791
  },
  {
    "name": "Baba Medial",
    "category": "amenity",
    "subcategory": "pharmacy",
    "latitude": 24.9565833,
    "longitude": 67.050498,
    "id": 3848452397
  },
  {
    "name": "Chase Value Cenre",
    "category": "shop",
    "subcategory": "supermarket",
    "latitude": 24.9417082,
    "longitude": 67.0485755,
    "id": 3848458221
  },
  {
    "name": "Abbasi General Store",
    "category": "shop",
    "subcategory": "yes",
    "latitude": 24.9577136,
    "longitude": 67.0469375,
    "id": 3849287776
  },
  {
    "name": "Ashraf Bakery",
    "category": "shop",
    "subcategory": "bakery",
    "latitude": 24.95776,
    "longitude": 67.0469064,
    "id": 3849287777
  },
  {
    "name": "Masjid Siddiq e Akbar",
    "category": "amenity",
    "subcategory": "place_of_worship",
    "latitude": 24.9488832,
    "longitude": 67.0415095,
    "id": 3849299413
  },
  {
    "name": "Jama Masjid Shafi",
    "category": "amenity",
    "subcategory": "place_of_worship",
    "latitude": 24.9465858,
    "longitude": 67.0401301,
    "id": 3849310525
  },
  {
    "name": "Saima Pari Mall",
    "category": "shop",
    "subcategory": "mall",
    "latitude": 24.9386061,
    "longitude": 67.0444542,
    "id": 3853876959
  },
  {
    "name": "Pakistan Post",
    "category": "amenity",
    "subcategory": "post_office",
    "latitude": 24.9354814,
    "longitude": 67.0419741,
    "id": 3853878759
  },
  {
    "name": "Pakistan Pakwan House",
    "category": "amenity",
    "subcategory": "restaurant",
    "latitude": 24.9330613,
    "longitude": 67.0524883,
    "id": 3941643099
  },
  {
    "name": "Hussaini Govt Boys Secondary school",
    "category": "amenity",
    "subcategory": "school",
    "latitude": 24.9121579,
    "longitude": 67.0292216,
    "id": 4115438094
  },
  {
    "name": "Gole Market Jama",
    "category": "amenity",
    "subcategory": "place_of_worship",
    "latitude": 24.9143911,
    "longitude": 67.0235315,
    "id": 4249362997
  },
  {
    "name": "Jamia Masjid Madina",
    "category": "amenity",
    "subcategory": "place_of_worship",
    "latitude": 24.9473206,
    "longitude": 67.04809,
    "id": 4315378126
  },
  {
    "name": "پاکستان اسٹیٹ آئل",
    "category": "amenity",
    "subcategory": "fuel",
    "latitude": 24.9476186,
    "longitude": 67.0511781,
    "id": 4315378127
  },
  {
    "name": "Zia uddin Hospital (OPD)",
    "category": "amenity",
    "subcategory": "hospital",
    "latitude": 24.9243463,
    "longitude": 67.0469145,
    "id": 4319407286
  },
  {
    "name": "Azeem Public School",
    "category": "amenity",
    "subcategory": "school",
    "latitude": 24.9307368,
    "longitude": 67.0378233,
    "id": 4319411697
  },
  {
    "name": "Taj Banquet",
    "category": "amenity",
    "subcategory": "community_centre",
    "latitude": 24.9285722,
    "longitude": 67.034397,
    "id": 4331001993
  },
  {
    "name": "North Nazimabad Block T",
    "category": "highway",
    "subcategory": "bus_stop",
    "latitude": 24.9591186,
    "longitude": 67.0492983,
    "id": 4336501164
  },
  {
    "name": "North Nazimabad Block S",
    "category": "place",
    "subcategory": "neighbourhood",
    "latitude": 24.9524823,
    "longitude": 67.042762,
    "id": 4336501165
  },
  {
    "name": "Babar CNG",
    "category": "amenity",
    "subcategory": "fuel",
    "latitude": 24.9417365,
    "longitude": 67.0350556,
    "id": 4336539537
  },
  {
    "name": "Lal Khoti Bus Stop",
    "category": "highway",
    "subcategory": "bus_stop",
    "latitude": 24.9406099,
    "longitude": 67.0336144,
    "id": 4336539538
  },
  {
    "name": "Police Station Shahrah e Noor Jahan",
    "category": "amenity",
    "subcategory": "police",
    "latitude": 24.9424363,
    "longitude": 67.0351801,
    "id": 4336539539
  },
  {
    "name": "North Nazimabad Block I",
    "category": "highway",
    "subcategory": "bus_stop",
    "latitude": 24.9503797,
    "longitude": 67.0445979,
    "id": 4340667618
  },
  {
    "name": "Block K, North Nazimabad",
    "category": "place",
    "subcategory": "locality",
    "latitude": 24.9498095,
    "longitude": 67.0506073,
    "id": 4340667619
  },
  {
    "name": "Pahaar Ganj Chowrangi",
    "category": "highway",
    "subcategory": "bus_stop",
    "latitude": 24.937012,
    "longitude": 67.0299165,
    "id": 4340668047
  },
  {
    "name": "Nusrat Bhutto Colony",
    "category": "place",
    "subcategory": "neighbourhood",
    "latitude": 24.9624416,
    "longitude": 67.047952,
    "id": 4340681783
  },
  {
    "name": "National Food",
    "category": "amenity",
    "subcategory": "fast_food",
    "latitude": 24.910717,
    "longitude": 66.9755315,
    "id": 4467781289
  },
  {
    "name": "Tea Spot",
    "category": "amenity",
    "subcategory": "cafe",
    "latitude": 24.949777,
    "longitude": 67.0503533,
    "id": 4674618398
  },
  {
    "name": "A3 bus",
    "category": "highway",
    "subcategory": "bus_stop",
    "latitude": 24.9130834,
    "longitude": 67.0284192,
    "id": 4686970397
  },
  {
    "name": "Virtual University Of Pakistan",
    "category": "amenity",
    "subcategory": "school",
    "latitude": 24.9415205,
    "longitude": 67.0458485,
    "id": 4698900699
  },
  {
    "name": "Gole Market",
    "category": "shop",
    "subcategory": "supermarket",
    "latitude": 24.9145251,
    "longitude": 67.0242732,
    "id": 4718748202
  },
  {
    "name": "شیل",
    "category": "amenity",
    "subcategory": "fuel",
    "latitude": 24.9062772,
    "longitude": 67.0312699,
    "id": 4734023582
  },
  {
    "name": "Ryan CNG Station",
    "category": "amenity",
    "subcategory": "fuel",
    "latitude": 24.9184086,
    "longitude": 67.0320539,
    "id": 4734023584
  },
  {
    "name": "Karachi X-ray",
    "category": "amenity",
    "subcategory": "clinic",
    "latitude": 24.9195806,
    "longitude": 67.0310217,
    "id": 4734023590
  },
  {
    "name": "پاکستان اسٹیٹ آئل",
    "category": "amenity",
    "subcategory": "fuel",
    "latitude": 24.9249763,
    "longitude": 67.0311288,
    "id": 4734023591
  },
  {
    "name": "PSO Car Wash",
    "category": "amenity",
    "subcategory": "car_wash",
    "latitude": 24.9251554,
    "longitude": 67.0309469,
    "id": 4734023592
  },
  {
    "name": "Dil Pasand",
    "category": "shop",
    "subcategory": "confectionery",
    "latitude": 24.9261656,
    "longitude": 67.032188,
    "id": 4734023593
  },
  {
    "name": "Meat One",
    "category": "shop",
    "subcategory": "butcher",
    "latitude": 24.9265844,
    "longitude": 67.0326626,
    "id": 4734023594
  },
  {
    "name": "Bata Shoe Store",
    "category": "shop",
    "subcategory": "shoes",
    "latitude": 24.9266418,
    "longitude": 67.0327114,
    "id": 4734023595
  },
  {
    "name": "Quaid e Azam Rangers Public School & College",
    "category": "amenity",
    "subcategory": "school",
    "latitude": 24.9297508,
    "longitude": 67.0309361,
    "id": 4734023596
  },
  {
    "name": "Safi Hospital",
    "category": "amenity",
    "subcategory": "hospital",
    "latitude": 24.9314545,
    "longitude": 67.0383043,
    "id": 4734023597
  },
  {
    "name": "پاکستان اسٹیٹ آئل",
    "category": "amenity",
    "subcategory": "fuel",
    "latitude": 24.9407335,
    "longitude": 67.0012119,
    "id": 4734023599
  },
  {
    "name": "PSO Car Wash",
    "category": "amenity",
    "subcategory": "car_wash",
    "latitude": 24.9409688,
    "longitude": 67.0014068,
    "id": 4734023600
  },
  {
    "name": "Post Office",
    "category": "amenity",
    "subcategory": "post_office",
    "latitude": 24.9452985,
    "longitude": 67.0042043,
    "id": 4734023601
  },
  {
    "name": "Ibrahim Bhai Govrnment School",
    "category": "office",
    "subcategory": "educational_institution",
    "latitude": 24.9443456,
    "longitude": 67.0045646,
    "id": 4734023602
  },
  {
    "name": "Aziz e Millat School",
    "category": "office",
    "subcategory": "educational_institution",
    "latitude": 24.9513893,
    "longitude": 67.001815,
    "id": 4734023603
  },
  {
    "name": "Aziz Bakery",
    "category": "shop",
    "subcategory": "bakery",
    "latitude": 24.9513709,
    "longitude": 66.9971386,
    "id": 4734023605
  },
  {
    "name": "post_office",
    "category": "amenity",
    "subcategory": "post_office",
    "latitude": 24.951454,
    "longitude": 66.996977,
    "id": 4734023606
  },
  {
    "name": "Honda Site",
    "category": "shop",
    "subcategory": "car",
    "latitude": 24.9067884,
    "longitude": 67.0158159,
    "id": 4734370178
  },
  {
    "name": "پاکستان اسٹیٹ آئل",
    "category": "amenity",
    "subcategory": "fuel",
    "latitude": 24.9117913,
    "longitude": 67.0140423,
    "id": 4734370180
  },
  {
    "name": "KE Office",
    "category": "office",
    "subcategory": "administrative",
    "latitude": 24.9114393,
    "longitude": 67.0139808,
    "id": 4734370181
  },
  {
    "name": "METRO Supermarket",
    "category": "shop",
    "subcategory": "supermarket",
    "latitude": 24.9197091,
    "longitude": 67.0149476,
    "id": 4734370182
  },
  {
    "name": "Byco Petrol Station and CNG",
    "category": "amenity",
    "subcategory": "fuel",
    "latitude": 24.9190239,
    "longitude": 67.0142883,
    "id": 4734370183
  },
  {
    "name": "Midway Hospital",
    "category": "amenity",
    "subcategory": "hospital",
    "latitude": 24.9204202,
    "longitude": 67.0310582,
    "id": 4738010732
  },
  {
    "name": "Abbasi Shaheed Trauma Centre",
    "category": "amenity",
    "subcategory": "hospital",
    "latitude": 24.9211529,
    "longitude": 67.0296122,
    "id": 4738010733
  },
  {
    "name": "Pakistan Association of the Blind",
    "category": "office",
    "subcategory": "government",
    "latitude": 24.9210158,
    "longitude": 67.0310143,
    "id": 4738010734
  },
  {
    "name": "Central Homeopathic Medical College & Hospital",
    "category": "office",
    "subcategory": "educational_institution",
    "latitude": 24.9239079,
    "longitude": 67.0297107,
    "id": 4738010739
  },
  {
    "name": "PC Lawn",
    "category": "amenity",
    "subcategory": "community_centre",
    "latitude": 24.9238608,
    "longitude": 67.0292172,
    "id": 4738010740
  },
  {
    "name": "Jinnah Marriage Hall",
    "category": "amenity",
    "subcategory": "community_centre",
    "latitude": 24.9253737,
    "longitude": 67.0305047,
    "id": 4738038629
  },
  {
    "name": "Sabih",
    "category": "amenity",
    "subcategory": "place_of_worship",
    "latitude": 24.9257289,
    "longitude": 67.0301077,
    "id": 4738038630
  },
  {
    "name": "شیل",
    "category": "amenity",
    "subcategory": "fuel",
    "latitude": 24.9260986,
    "longitude": 67.0310143,
    "id": 4738038632
  },
  {
    "name": "ایم سی بی بینک",
    "category": "amenity",
    "subcategory": "bank",
    "latitude": 24.9261746,
    "longitude": 67.0308466,
    "id": 4738038633
  },
  {
    "name": "Dip Shop",
    "category": "amenity",
    "subcategory": "ice_cream",
    "latitude": 24.9261399,
    "longitude": 67.0316795,
    "id": 4738038635
  },
  {
    "name": "Dehli Nehari House",
    "category": "amenity",
    "subcategory": "restaurant",
    "latitude": 24.9263914,
    "longitude": 67.0324829,
    "id": 4738038637
  },
  {
    "name": "Fish & Chips",
    "category": "amenity",
    "subcategory": "fast_food",
    "latitude": 24.926271,
    "longitude": 67.0323862,
    "id": 4738038638
  },
  {
    "name": "Hanif Hospital Diagnostic Centre",
    "category": "amenity",
    "subcategory": "hospital",
    "latitude": 24.9249885,
    "longitude": 67.0332063,
    "id": 4738085528
  },
  {
    "name": "Asghar Hospital",
    "category": "amenity",
    "subcategory": "hospital",
    "latitude": 24.925186,
    "longitude": 67.034245,
    "id": 4738085531
  },
  {
    "name": "Taimuria Bakery",
    "category": "shop",
    "subcategory": "bakery",
    "latitude": 24.9258038,
    "longitude": 67.0339164,
    "id": 4738085532
  },
  {
    "name": "Al-Markaz",
    "category": "amenity",
    "subcategory": "place_of_worship",
    "latitude": 24.9245413,
    "longitude": 67.0350926,
    "id": 4738085533
  },
  {
    "name": "Ali Murtaza",
    "category": "amenity",
    "subcategory": "place_of_worship",
    "latitude": 24.9235258,
    "longitude": 67.0337769,
    "id": 4738085534
  },
  {
    "name": "PTCL",
    "category": "office",
    "subcategory": "telecommunication",
    "latitude": 24.9243249,
    "longitude": 67.0345227,
    "id": 4738085535
  },
  {
    "name": "ڈنکن ڈونٹس",
    "category": "amenity",
    "subcategory": "fast_food",
    "latitude": 24.9269387,
    "longitude": 67.0329501,
    "id": 4738085536
  },
  {
    "name": "Habib Metro Bank",
    "category": "amenity",
    "subcategory": "bank",
    "latitude": 24.9271862,
    "longitude": 67.0331748,
    "id": 4738085537
  },
  {
    "name": "میزان بینک",
    "category": "amenity",
    "subcategory": "bank",
    "latitude": 24.9272513,
    "longitude": 67.0332224,
    "id": 4738085538
  },
  {
    "name": "بینک الفلاح",
    "category": "amenity",
    "subcategory": "bank",
    "latitude": 24.9273359,
    "longitude": 67.0332773,
    "id": 4738085539
  },
  {
    "name": "APTECH Computer Education",
    "category": "office",
    "subcategory": "educational_institution",
    "latitude": 24.9272756,
    "longitude": 67.0332385,
    "id": 4738085540
  },
  {
    "name": "Feroza Banquet",
    "category": "amenity",
    "subcategory": "community_centre",
    "latitude": 24.9270307,
    "longitude": 67.0342276,
    "id": 4738085541
  },
  {
    "name": "Meri Kong",
    "category": "amenity",
    "subcategory": "restaurant",
    "latitude": 24.927657,
    "longitude": 67.0329495,
    "id": 4738098677
  },
  {
    "name": "سب وے",
    "category": "amenity",
    "subcategory": "fast_food",
    "latitude": 24.9277518,
    "longitude": 67.0331265,
    "id": 4738098678
  },
  {
    "name": "Kababjees",
    "category": "amenity",
    "subcategory": "restaurant",
    "latitude": 24.9279793,
    "longitude": 67.0338749,
    "id": 4738098679
  },
  {
    "name": "Mehran Welfare Complex",
    "category": "amenity",
    "subcategory": "community_centre",
    "latitude": 24.928186,
    "longitude": 67.0326665,
    "id": 4738098680
  },
  {
    "name": "Creek Inn",
    "category": "amenity",
    "subcategory": "restaurant",
    "latitude": 24.9284013,
    "longitude": 67.0321756,
    "id": 4738098681
  },
  {
    "name": "Pizza King",
    "category": "amenity",
    "subcategory": "restaurant",
    "latitude": 24.9287831,
    "longitude": 67.0325325,
    "id": 4738098682
  },
  {
    "name": "Khanjee",
    "category": "amenity",
    "subcategory": "restaurant",
    "latitude": 24.9288367,
    "longitude": 67.0326263,
    "id": 4738098683
  },
  {
    "name": "Sawadee",
    "category": "amenity",
    "subcategory": "restaurant",
    "latitude": 24.9286956,
    "longitude": 67.0324654,
    "id": 4738098684
  },
  {
    "name": "Burger Octane",
    "category": "amenity",
    "subcategory": "fast_food",
    "latitude": 24.9284901,
    "longitude": 67.0321099,
    "id": 4738098685
  },
  {
    "name": "Hot Bite",
    "category": "amenity",
    "subcategory": "fast_food",
    "latitude": 24.928763,
    "longitude": 67.031711,
    "id": 4738119447
  },
  {
    "name": "Hi Tea 99",
    "category": "amenity",
    "subcategory": "fast_food",
    "latitude": 24.9285659,
    "longitude": 67.0319698,
    "id": 4738119448
  },
  {
    "name": "14 Street Pizza",
    "category": "amenity",
    "subcategory": "fast_food",
    "latitude": 24.9280977,
    "longitude": 67.0322475,
    "id": 4738119449
  },
  {
    "name": "Fancy Bakery",
    "category": "shop",
    "subcategory": "bakery",
    "latitude": 24.9283191,
    "longitude": 67.0322796,
    "id": 4738119450
  },
  {
    "name": "Cafe Al Mehran",
    "category": "amenity",
    "subcategory": "fast_food",
    "latitude": 24.9282497,
    "longitude": 67.032411,
    "id": 4738119451
  },
  {
    "name": "Manahil Food",
    "category": "amenity",
    "subcategory": "restaurant",
    "latitude": 24.9280248,
    "longitude": 67.032867,
    "id": 4738119452
  },
  {
    "name": "Afridi Inn",
    "category": "amenity",
    "subcategory": "restaurant",
    "latitude": 24.9282291,
    "longitude": 67.0330735,
    "id": 4738119453
  },
  {
    "name": "Nida Fast Food Center",
    "category": "amenity",
    "subcategory": "fast_food",
    "latitude": 24.9283239,
    "longitude": 67.0331741,
    "id": 4738119454
  },
  {
    "name": "Chai Session",
    "category": "shop",
    "subcategory": "tea",
    "latitude": 24.9278448,
    "longitude": 67.0329932,
    "id": 4738119455
  },
  {
    "name": "Mini Market",
    "category": "shop",
    "subcategory": "convenience",
    "latitude": 24.9283891,
    "longitude": 67.033218,
    "id": 4738119456
  },
  {
    "name": "Pizza King",
    "category": "amenity",
    "subcategory": "restaurant",
    "latitude": 24.9285943,
    "longitude": 67.0329425,
    "id": 4738119457
  },
  {
    "name": "Lab Test Clinical Laboratory",
    "category": "amenity",
    "subcategory": "clinic",
    "latitude": 24.9284022,
    "longitude": 67.0342363,
    "id": 4738135538
  },
  {
    "name": "Faisal Bank",
    "category": "amenity",
    "subcategory": "bank",
    "latitude": 24.9281483,
    "longitude": 67.0351724,
    "id": 4738135539
  },
  {
    "name": "Paradise Commerce College",
    "category": "amenity",
    "subcategory": "college",
    "latitude": 24.9288476,
    "longitude": 67.0358362,
    "id": 4738135541
  },
  {
    "name": "لائف لائن ہسپتال",
    "category": "amenity",
    "subcategory": "hospital",
    "latitude": 24.9291492,
    "longitude": 67.0361313,
    "id": 4738135542
  },
  {
    "name": "Meerath Famous Kabab Paratha",
    "category": "amenity",
    "subcategory": "restaurant",
    "latitude": 24.9289295,
    "longitude": 67.0347351,
    "id": 4738135544
  },
  {
    "name": "Dadabhouy Institute",
    "category": "amenity",
    "subcategory": "college",
    "latitude": 24.9298283,
    "longitude": 67.0354941,
    "id": 4738158530
  },
  {
    "name": "Zamin CNG Station",
    "category": "amenity",
    "subcategory": "fuel",
    "latitude": 24.9305928,
    "longitude": 67.0362091,
    "id": 4738158531
  },
  {
    "name": "Apex House Education System",
    "category": "office",
    "subcategory": "educational_institution",
    "latitude": 24.9308275,
    "longitude": 67.0364048,
    "id": 4738158532
  },
  {
    "name": "Splended Banquet",
    "category": "amenity",
    "subcategory": "community_centre",
    "latitude": 24.9307582,
    "longitude": 67.0387035,
    "id": 4738158533
  },
  {
    "name": "Beaconhouse School System Primary IV - North Nazimabad",
    "category": "amenity",
    "subcategory": "school",
    "latitude": 24.9300869,
    "longitude": 67.038898,
    "id": 4738158534
  },
  {
    "name": "Suzuki North Motors",
    "category": "shop",
    "subcategory": "car",
    "latitude": 24.9299138,
    "longitude": 67.0392037,
    "id": 4738158535
  },
  {
    "name": "KDA Plant Nursery",
    "category": "shop",
    "subcategory": "florist",
    "latitude": 24.9320387,
    "longitude": 67.0380705,
    "id": 4738187727
  },
  {
    "name": "Karachi Water & Sewerage Board",
    "category": "office",
    "subcategory": "government",
    "latitude": 24.9321282,
    "longitude": 67.0368931,
    "id": 4738187729
  },
  {
    "name": "Chase Up",
    "category": "shop",
    "subcategory": "department_store",
    "latitude": 24.9320419,
    "longitude": 67.0386573,
    "id": 4738187731
  },
  {
    "name": "سمٹ بینک",
    "category": "amenity",
    "subcategory": "bank",
    "latitude": 24.9339877,
    "longitude": 67.0403496,
    "id": 4738187732
  },
  {
    "name": "Dolman Mall Hyderi",
    "category": "shop",
    "subcategory": "mall",
    "latitude": 24.9354357,
    "longitude": 67.0404768,
    "id": 4738187733
  },
  {
    "name": "Sindbad-Dolmen Mall Hyderi",
    "category": "tourism",
    "subcategory": "theme_park",
    "latitude": 24.9355323,
    "longitude": 67.0405516,
    "id": 4738187734
  },
  {
    "name": "Hydri Police Station",
    "category": "amenity",
    "subcategory": "police",
    "latitude": 24.9375669,
    "longitude": 67.0408456,
    "id": 4738187736
  },
  {
    "name": "Hydri Commerical Market",
    "category": "amenity",
    "subcategory": "marketplace",
    "latitude": 24.937714,
    "longitude": 67.0417693,
    "id": 4738214980
  },
  {
    "name": "Blue Ribbon Bakery",
    "category": "shop",
    "subcategory": "bakery",
    "latitude": 24.9383017,
    "longitude": 67.0428019,
    "id": 4738218413
  },
  {
    "name": "Nando's",
    "category": "amenity",
    "subcategory": "fast_food",
    "latitude": 24.939827,
    "longitude": 67.0444085,
    "id": 4738238041
  },
  {
    "name": "Taimuria Library",
    "category": "amenity",
    "subcategory": "library",
    "latitude": 24.9428584,
    "longitude": 67.0486103,
    "id": 4739506084
  },
  {
    "name": "عسکری بینک",
    "category": "amenity",
    "subcategory": "bank",
    "latitude": 24.9443297,
    "longitude": 67.0484596,
    "id": 4739509342
  },
  {
    "name": "Dr Essa Laboratory & Diagnostic Centre",
    "category": "amenity",
    "subcategory": "clinic",
    "latitude": 24.941071,
    "longitude": 67.0494215,
    "id": 4739587131
  },
  {
    "name": "Broadway Pizza",
    "category": "amenity",
    "subcategory": "restaurant",
    "latitude": 24.9412449,
    "longitude": 67.0490889,
    "id": 4739587132
  },
  {
    "name": "MediComplex Hospital",
    "category": "amenity",
    "subcategory": "hospital",
    "latitude": 24.9416803,
    "longitude": 67.0492284,
    "id": 4739587133
  },
  {
    "name": "Silkbank",
    "category": "amenity",
    "subcategory": "bank",
    "latitude": 24.941842,
    "longitude": 67.0489521,
    "id": 4739587134
  },
  {
    "name": "Masjid Al Aziz",
    "category": "amenity",
    "subcategory": "place_of_worship",
    "latitude": 24.9425969,
    "longitude": 67.0487584,
    "id": 4739587135
  },
  {
    "name": "Karachi Public School",
    "category": "amenity",
    "subcategory": "school",
    "latitude": 24.9432319,
    "longitude": 67.0492525,
    "id": 4739587136
  },
  {
    "name": "Perl Banquet",
    "category": "amenity",
    "subcategory": "community_centre",
    "latitude": 24.944111,
    "longitude": 67.0493725,
    "id": 4739587137
  },
  {
    "name": "Al Massad Banquet",
    "category": "amenity",
    "subcategory": "community_centre",
    "latitude": 24.9445244,
    "longitude": 67.049732,
    "id": 4739587138
  },
  {
    "name": "The City School",
    "category": "amenity",
    "subcategory": "school",
    "latitude": 24.9451645,
    "longitude": 67.049162,
    "id": 4739600298
  },
  {
    "name": "Remedial Center - Hospital & Nursing Home",
    "category": "amenity",
    "subcategory": "hospital",
    "latitude": 24.9457973,
    "longitude": 67.0496945,
    "id": 4739600300
  },
  {
    "name": "North Marriage Banquet",
    "category": "amenity",
    "subcategory": "community_centre",
    "latitude": 24.9467488,
    "longitude": 67.0506028,
    "id": 4739600302
  },
  {
    "name": "بينک الحبيب",
    "category": "amenity",
    "subcategory": "bank",
    "latitude": 24.9470097,
    "longitude": 67.0508629,
    "id": 4739600303
  },
  {
    "name": "Time Snooker",
    "category": "leisure",
    "subcategory": "snooker",
    "latitude": 24.9472702,
    "longitude": 67.0510448,
    "id": 4739600304
  },
  {
    "name": "Sky View Banquet",
    "category": "amenity",
    "subcategory": "community_centre",
    "latitude": 24.9454255,
    "longitude": 67.0505501,
    "id": 4739617887
  },
  {
    "name": "Kangan Banquet",
    "category": "amenity",
    "subcategory": "community_centre",
    "latitude": 24.9456674,
    "longitude": 67.05077,
    "id": 4739617888
  },
  {
    "name": "Casamento Banquet",
    "category": "amenity",
    "subcategory": "community_centre",
    "latitude": 24.9449974,
    "longitude": 67.0501933,
    "id": 4739617889
  },
  {
    "name": "Caspia Banquet",
    "category": "amenity",
    "subcategory": "community_centre",
    "latitude": 24.9447531,
    "longitude": 67.0499198,
    "id": 4739617890
  },
  {
    "name": "Child Development Center Campus 2",
    "category": "amenity",
    "subcategory": "school",
    "latitude": 24.9455082,
    "longitude": 67.0516069,
    "id": 4739617891
  },
  {
    "name": "Chai Club",
    "category": "amenity",
    "subcategory": "cafe",
    "latitude": 24.9409081,
    "longitude": 67.0496965,
    "id": 4739649330
  },
  {
    "name": "Cool Inn Ice Cream",
    "category": "amenity",
    "subcategory": "ice_cream",
    "latitude": 24.9403668,
    "longitude": 67.050373,
    "id": 4739649331
  },
  {
    "name": "Char Coal",
    "category": "amenity",
    "subcategory": "restaurant",
    "latitude": 24.9401334,
    "longitude": 67.0507324,
    "id": 4739649332
  },
  {
    "name": "Amul Ice Cream",
    "category": "amenity",
    "subcategory": "ice_cream",
    "latitude": 24.939895,
    "longitude": 67.0510596,
    "id": 4739649333
  },
  {
    "name": "Agha Juice",
    "category": "shop",
    "subcategory": "juice",
    "latitude": 24.9398871,
    "longitude": 67.0516346,
    "id": 4739649336
  },
  {
    "name": "Crown Bakery",
    "category": "shop",
    "subcategory": "bakery",
    "latitude": 24.9400117,
    "longitude": 67.0514499,
    "id": 4739649338
  },
  {
    "name": "Baba Rabri",
    "category": "amenity",
    "subcategory": "restaurant",
    "latitude": 24.9399681,
    "longitude": 67.0515169,
    "id": 4739649339
  },
  {
    "name": "Burshum",
    "category": "amenity",
    "subcategory": "restaurant",
    "latitude": 24.9399011,
    "longitude": 67.0516002,
    "id": 4739649340
  },
  {
    "name": "Quetta Bismillah Restaurant",
    "category": "amenity",
    "subcategory": "restaurant",
    "latitude": 24.9399296,
    "longitude": 67.0515753,
    "id": 4739649341
  },
  {
    "name": "Walk n Roll Fast Food",
    "category": "amenity",
    "subcategory": "fast_food",
    "latitude": 24.9398519,
    "longitude": 67.0516819,
    "id": 4739658355
  },
  {
    "name": "Donisil Snacks",
    "category": "amenity",
    "subcategory": "fast_food",
    "latitude": 24.9397728,
    "longitude": 67.0511837,
    "id": 4739658356
  },
  {
    "name": "Rock N Roll Bar B Q",
    "category": "amenity",
    "subcategory": "fast_food",
    "latitude": 24.9396895,
    "longitude": 67.051289,
    "id": 4739658357
  },
  {
    "name": "Agha Rajab Juice",
    "category": "shop",
    "subcategory": "juice",
    "latitude": 24.9395047,
    "longitude": 67.0514781,
    "id": 4739658359
  },
  {
    "name": "بینک الفلاح",
    "category": "amenity",
    "subcategory": "bank",
    "latitude": 24.9394378,
    "longitude": 67.0516558,
    "id": 4739658360
  },
  {
    "name": "بينک الحبيب",
    "category": "amenity",
    "subcategory": "bank",
    "latitude": 24.9397284,
    "longitude": 67.0518509,
    "id": 4739659856
  },
  {
    "name": "Donar King",
    "category": "amenity",
    "subcategory": "restaurant",
    "latitude": 24.9393503,
    "longitude": 67.0517611,
    "id": 4739659857
  },
  {
    "name": "K&N",
    "category": "shop",
    "subcategory": "Chicken",
    "latitude": 24.9393166,
    "longitude": 67.0517838,
    "id": 4739668163
  },
  {
    "name": "Sweet Sensation",
    "category": "shop",
    "subcategory": "bakery",
    "latitude": 24.9392826,
    "longitude": 67.0518335,
    "id": 4739668164
  },
  {
    "name": "Karachi Haleem",
    "category": "amenity",
    "subcategory": "restaurant",
    "latitude": 24.9392437,
    "longitude": 67.0518912,
    "id": 4739668165
  },
  {
    "name": "Hobnob",
    "category": "shop",
    "subcategory": "bakery",
    "latitude": 24.9391975,
    "longitude": 67.0519166,
    "id": 4739668166
  },
  {
    "name": "Quetta Bismillah Hotel",
    "category": "shop",
    "subcategory": "tea",
    "latitude": 24.9393531,
    "longitude": 67.0523565,
    "id": 4739668167
  },
  {
    "name": "Life Ken Medicos",
    "category": "amenity",
    "subcategory": "pharmacy",
    "latitude": 24.9394893,
    "longitude": 67.0523551,
    "id": 4739668168
  },
  {
    "name": "Qadri BBQ & Roll",
    "category": "amenity",
    "subcategory": "restaurant",
    "latitude": 24.939206,
    "longitude": 67.0525658,
    "id": 4739674822
  },
  {
    "name": "Al Shifa Medical Store",
    "category": "amenity",
    "subcategory": "pharmacy",
    "latitude": 24.9392437,
    "longitude": 67.0524932,
    "id": 4739674823
  },
  {
    "name": "ایچ بی ایل پاکستان",
    "category": "amenity",
    "subcategory": "bank",
    "latitude": 24.9391598,
    "longitude": 67.0526328,
    "id": 4739674824
  },
  {
    "name": "Spicy Tonight",
    "category": "amenity",
    "subcategory": "restaurant",
    "latitude": 24.938934,
    "longitude": 67.0523163,
    "id": 4739681731
  },
  {
    "name": "New Karachi Foods",
    "category": "amenity",
    "subcategory": "restaurant",
    "latitude": 24.9321031,
    "longitude": 67.0519158,
    "id": 4739775278
  },
  {
    "name": "Munawar Hospital",
    "category": "amenity",
    "subcategory": "hospital",
    "latitude": 24.9318047,
    "longitude": 67.0517254,
    "id": 4739775279
  },
  {
    "name": "Juniper Academy",
    "category": "office",
    "subcategory": "educational_institution",
    "latitude": 24.9317159,
    "longitude": 67.0526551,
    "id": 4739775280
  },
  {
    "name": "Hamza Nagori Milk Shop",
    "category": "shop",
    "subcategory": "dairy",
    "latitude": 24.9351124,
    "longitude": 67.0452807,
    "id": 4739781670
  },
  {
    "name": "Annadil Burhaniyah Ground",
    "category": "leisure",
    "subcategory": "sports_centre",
    "latitude": 24.938934,
    "longitude": 67.036528,
    "id": 4739869912
  },
  {
    "name": "Agha Khan Diagnostic Center",
    "category": "amenity",
    "subcategory": "hospital",
    "latitude": 24.9384972,
    "longitude": 67.0337553,
    "id": 4739903920
  },
  {
    "name": "Tota Park",
    "category": "leisure",
    "subcategory": "park",
    "latitude": 24.9377269,
    "longitude": 67.0334295,
    "id": 4739911373
  },
  {
    "name": "Ilyas Biryani",
    "category": "amenity",
    "subcategory": "restaurant",
    "latitude": 24.9371966,
    "longitude": 67.0332363,
    "id": 4739926356
  },
  {
    "name": "Habib Restaurant",
    "category": "amenity",
    "subcategory": "restaurant",
    "latitude": 24.9371918,
    "longitude": 67.0336091,
    "id": 4739926357
  },
  {
    "name": "Chicken Corn Soup",
    "category": "amenity",
    "subcategory": "restaurant",
    "latitude": 24.9370994,
    "longitude": 67.033483,
    "id": 4739926358
  },
  {
    "name": "Rahmaniya",
    "category": "amenity",
    "subcategory": "place_of_worship",
    "latitude": 24.9360024,
    "longitude": 67.0334267,
    "id": 4739930149
  },
  {
    "name": "North City Public School",
    "category": "amenity",
    "subcategory": "kindergarten",
    "latitude": 24.9644667,
    "longitude": 67.0528728,
    "id": 4740117246
  },
  {
    "name": "Treandz Dy Sana Ansari",
    "category": "shop",
    "subcategory": "clothes",
    "latitude": 24.9642289,
    "longitude": 67.050726,
    "id": 4740117247
  },
  {
    "name": "Riayaz-ul-Jannah",
    "category": "amenity",
    "subcategory": "place_of_worship",
    "latitude": 24.9647995,
    "longitude": 67.0514153,
    "id": 4740117248
  },
  {
    "name": "Lrfan Model School",
    "category": "amenity",
    "subcategory": "kindergarten",
    "latitude": 24.9642617,
    "longitude": 67.0493064,
    "id": 4740117249
  },
  {
    "name": "Gulzar-e-Madina",
    "category": "amenity",
    "subcategory": "place_of_worship",
    "latitude": 24.963381,
    "longitude": 67.0484941,
    "id": 4740117250
  },
  {
    "name": "Hira",
    "category": "amenity",
    "subcategory": "place_of_worship",
    "latitude": 24.9690666,
    "longitude": 67.0476217,
    "id": 4740117251
  },
  {
    "name": "Ahl-e-Hadith",
    "category": "amenity",
    "subcategory": "place_of_worship",
    "latitude": 24.9706636,
    "longitude": 67.0468374,
    "id": 4740117252
  },
  {
    "name": "Jama Masjid",
    "category": "amenity",
    "subcategory": "place_of_worship",
    "latitude": 24.9651248,
    "longitude": 67.0454548,
    "id": 4740117253
  },
  {
    "name": "Shoaib General Store",
    "category": "shop",
    "subcategory": "convenience",
    "latitude": 24.9651984,
    "longitude": 67.0459749,
    "id": 4740117254
  },
  {
    "name": "Ghausia",
    "category": "amenity",
    "subcategory": "place_of_worship",
    "latitude": 24.9634197,
    "longitude": 67.046476,
    "id": 4740117255
  },
  {
    "name": "Bismillah Milk Shop Mazhar Chachi",
    "category": "shop",
    "subcategory": "dairy",
    "latitude": 24.9635451,
    "longitude": 67.045951,
    "id": 4740117256
  },
  {
    "name": "Kashmir Hotel",
    "category": "amenity",
    "subcategory": "restaurant",
    "latitude": 24.9611286,
    "longitude": 67.0477609,
    "id": 4740117257
  },
  {
    "name": "Nursery",
    "category": "leisure",
    "subcategory": "nature_reserve",
    "latitude": 24.9357518,
    "longitude": 67.0310837,
    "id": 4741246322
  },
  {
    "name": "Hasrat Mohani Society",
    "category": "place",
    "subcategory": "locality",
    "latitude": 24.9359971,
    "longitude": 67.0301383,
    "id": 4741246324
  },
  {
    "name": "Hasrat Mohani Libary",
    "category": "amenity",
    "subcategory": "library",
    "latitude": 24.936123,
    "longitude": 67.0307233,
    "id": 4741273129
  },
  {
    "name": "مسجد بلال",
    "category": "amenity",
    "subcategory": "place_of_worship",
    "latitude": 24.9360136,
    "longitude": 67.0294841,
    "id": 4741273130
  },
  {
    "name": "SKB School",
    "category": "amenity",
    "subcategory": "school",
    "latitude": 24.9352985,
    "longitude": 67.0278882,
    "id": 4741273131
  },
  {
    "name": "Batool Park",
    "category": "leisure",
    "subcategory": "park",
    "latitude": 24.9363638,
    "longitude": 67.0271425,
    "id": 4741273132
  },
  {
    "name": "Saeed Park",
    "category": "leisure",
    "subcategory": "park",
    "latitude": 24.9360598,
    "longitude": 67.0267321,
    "id": 4741273133
  },
  {
    "name": "Hussain De Sliva Town Block P",
    "category": "place",
    "subcategory": "locality",
    "latitude": 24.9353618,
    "longitude": 67.0266276,
    "id": 4741273134
  },
  {
    "name": "Taj Bakery",
    "category": "shop",
    "subcategory": "bakery",
    "latitude": 24.9342412,
    "longitude": 67.0284408,
    "id": 4741273135
  },
  {
    "name": "ایچ بی ایل پاکستان",
    "category": "amenity",
    "subcategory": "bank",
    "latitude": 24.9332064,
    "longitude": 67.0267456,
    "id": 4741273136
  },
  {
    "name": "Baktihari Youth Center",
    "category": "leisure",
    "subcategory": "playground",
    "latitude": 24.9323687,
    "longitude": 67.0236181,
    "id": 4741273137
  },
  {
    "name": "KDA Cricket Ground",
    "category": "leisure",
    "subcategory": "pitch",
    "latitude": 24.9319552,
    "longitude": 67.0219927,
    "id": 4741273138
  },
  {
    "name": "Board Of Intermidiate Karachi",
    "category": "office",
    "subcategory": "government",
    "latitude": 24.9337439,
    "longitude": 67.0236857,
    "id": 4741273140
  },
  {
    "name": "Government Girls Degree College",
    "category": "amenity",
    "subcategory": "college",
    "latitude": 24.9429028,
    "longitude": 67.0274805,
    "id": 4741278057
  },
  {
    "name": "Nizari Jamat Khana",
    "category": "amenity",
    "subcategory": "place_of_worship",
    "latitude": 24.9392507,
    "longitude": 67.0342669,
    "id": 4741278059
  },
  {
    "name": "مسجد بلال",
    "category": "amenity",
    "subcategory": "place_of_worship",
    "latitude": 24.9384001,
    "longitude": 67.0382119,
    "id": 4741278060
  },
  {
    "name": "Ashraf",
    "category": "amenity",
    "subcategory": "place_of_worship",
    "latitude": 24.9407372,
    "longitude": 67.0373783,
    "id": 4741278061
  },
  {
    "name": "Technical Training College",
    "category": "amenity",
    "subcategory": "college",
    "latitude": 24.9394147,
    "longitude": 67.0393953,
    "id": 4741301595
  },
  {
    "name": "Rex Banquet",
    "category": "amenity",
    "subcategory": "community_centre",
    "latitude": 24.9396359,
    "longitude": 67.0442484,
    "id": 4741344718
  },
  {
    "name": "Florence Medical Centre",
    "category": "amenity",
    "subcategory": "clinic",
    "latitude": 24.9419766,
    "longitude": 67.0481255,
    "id": 4741344822
  },
  {
    "name": "Pizza Max",
    "category": "amenity",
    "subcategory": "restaurant",
    "latitude": 24.9399271,
    "longitude": 67.0510112,
    "id": 4741344826
  },
  {
    "name": "St. George School",
    "category": "amenity",
    "subcategory": "school",
    "latitude": 24.9424338,
    "longitude": 67.0514755,
    "id": 4741344827
  },
  {
    "name": "Aamir Palace",
    "category": "amenity",
    "subcategory": "community_centre",
    "latitude": 24.9438291,
    "longitude": 67.0479641,
    "id": 4741344831
  },
  {
    "name": "Grand Banquet",
    "category": "amenity",
    "subcategory": "community_centre",
    "latitude": 24.9439968,
    "longitude": 67.048116,
    "id": 4741344832
  },
  {
    "name": "The Beginners School",
    "category": "amenity",
    "subcategory": "school",
    "latitude": 24.9448016,
    "longitude": 67.0449882,
    "id": 4741344833
  },
  {
    "name": "National Girls Govt. School",
    "category": "amenity",
    "subcategory": "school",
    "latitude": 24.9420182,
    "longitude": 67.043547,
    "id": 4741344834
  },
  {
    "name": "Arsha e Syed Banquet",
    "category": "amenity",
    "subcategory": "community_centre",
    "latitude": 24.9443262,
    "longitude": 67.0495492,
    "id": 4741344835
  },
  {
    "name": "Elegant Banquet",
    "category": "amenity",
    "subcategory": "community_centre",
    "latitude": 24.9445353,
    "longitude": 67.0486943,
    "id": 4741344837
  },
  {
    "name": "Galaxy Green Banquet",
    "category": "amenity",
    "subcategory": "community_centre",
    "latitude": 24.9459391,
    "longitude": 67.0498783,
    "id": 4741344838
  },
  {
    "name": "Saffron Banquet",
    "category": "amenity",
    "subcategory": "community_centre",
    "latitude": 24.9461255,
    "longitude": 67.0500527,
    "id": 4741344839
  },
  {
    "name": "Baba Habbash Banquet",
    "category": "amenity",
    "subcategory": "community_centre",
    "latitude": 24.9460781,
    "longitude": 67.051105,
    "id": 4741344840
  },
  {
    "name": "Govt Degree College for Girls",
    "category": "amenity",
    "subcategory": "college",
    "latitude": 24.950943,
    "longitude": 67.0501537,
    "id": 4741344855
  },
  {
    "name": "Nimra Mosque",
    "category": "amenity",
    "subcategory": "place_of_worship",
    "latitude": 24.9500667,
    "longitude": 67.0468026,
    "id": 4741344857
  },
  {
    "name": "Badri High School",
    "category": "amenity",
    "subcategory": "school",
    "latitude": 24.9356594,
    "longitude": 67.0358662,
    "id": 4741389748
  },
  {
    "name": "Ibrahim Ali Bhai Govt School",
    "category": "amenity",
    "subcategory": "school",
    "latitude": 24.9460551,
    "longitude": 67.0467576,
    "id": 4741390889
  },
  {
    "name": "تہذیب پبلک اسکول",
    "category": "amenity",
    "subcategory": "college",
    "latitude": 24.953318,
    "longitude": 67.0496568,
    "id": 4741397138
  },
  {
    "name": "North Nazimabad Gymkhana",
    "category": "leisure",
    "subcategory": "sports_centre",
    "latitude": 24.9322231,
    "longitude": 67.0494929,
    "id": 4741397148
  },
  {
    "name": "Iqbal Market",
    "category": "amenity",
    "subcategory": "marketplace",
    "latitude": 24.9350091,
    "longitude": 67.0436442,
    "id": 4741413273
  },
  {
    "name": "NADRA Center",
    "category": "office",
    "subcategory": "government",
    "latitude": 24.9400834,
    "longitude": 67.0433978,
    "id": 4741429969
  },
  {
    "name": "Chop Soy",
    "category": "amenity",
    "subcategory": "restaurant",
    "latitude": 24.9387924,
    "longitude": 67.0525747,
    "id": 4741451822
  },
  {
    "name": "ایم سی بی بینک",
    "category": "amenity",
    "subcategory": "bank",
    "latitude": 24.9393938,
    "longitude": 67.0517088,
    "id": 4741525428
  },
  {
    "name": "Master Cakes",
    "category": "shop",
    "subcategory": "bakery",
    "latitude": 24.9389813,
    "longitude": 67.0522623,
    "id": 4741534724
  },
  {
    "name": "Pizza Point",
    "category": "amenity",
    "subcategory": "restaurant",
    "latitude": 24.9390893,
    "longitude": 67.0521472,
    "id": 4741534725
  },
  {
    "name": "Family Mart",
    "category": "shop",
    "subcategory": "convenience",
    "latitude": 24.9402318,
    "longitude": 67.0505945,
    "id": 4741561922
  },
  {
    "name": "Village Inn",
    "category": "amenity",
    "subcategory": "restaurant",
    "latitude": 24.9099485,
    "longitude": 67.0106047,
    "id": 4757902878
  },
  {
    "name": "restaurant",
    "category": "amenity",
    "subcategory": "restaurant",
    "latitude": 24.9116789,
    "longitude": 67.0130189,
    "id": 4757902879
  },
  {
    "name": "FBL Offsite ATM",
    "category": "amenity",
    "subcategory": "bank",
    "latitude": 24.9198665,
    "longitude": 67.0169429,
    "id": 4757902880
  },
  {
    "name": "Sindh Social Scurity Hospital",
    "category": "amenity",
    "subcategory": "hospital",
    "latitude": 24.926006,
    "longitude": 67.0152528,
    "id": 4757902881
  },
  {
    "name": "Euro Classic",
    "category": "tourism",
    "subcategory": "apartment",
    "latitude": 24.9347802,
    "longitude": 67.0410466,
    "id": 4757970751
  },
  {
    "name": "Kulsum Bai Valika Hospital",
    "category": "amenity",
    "subcategory": "hospital",
    "latitude": 24.9272234,
    "longitude": 67.0155671,
    "id": 4757978642
  },
  {
    "name": "Star Transport Management",
    "category": "office",
    "subcategory": "company",
    "latitude": 24.9308766,
    "longitude": 67.0160469,
    "id": 4757978643
  },
  {
    "name": "مسجد بلال",
    "category": "amenity",
    "subcategory": "place_of_worship",
    "latitude": 24.9301054,
    "longitude": 67.0208756,
    "id": 4757978644
  },
  {
    "name": "Paposh Qabristan",
    "category": "amenity",
    "subcategory": "grave_yard",
    "latitude": 24.9263518,
    "longitude": 67.0227357,
    "id": 4757978645
  },
  {
    "name": "State Bank of Pakistan",
    "category": "amenity",
    "subcategory": "bank",
    "latitude": 24.9299722,
    "longitude": 67.0253428,
    "id": 4757978646
  },
  {
    "name": "Nazimabad Eid Gah Ground",
    "category": "amenity",
    "subcategory": "place_of_worship",
    "latitude": 24.9116234,
    "longitude": 67.0298084,
    "id": 4757989801
  },
  {
    "name": "State Bank Cricket Ground",
    "category": "leisure",
    "subcategory": "stadium",
    "latitude": 24.9285461,
    "longitude": 67.0272771,
    "id": 4758017028
  },
  {
    "name": "Al Mehmil Banquet",
    "category": "amenity",
    "subcategory": "community_centre",
    "latitude": 24.943358,
    "longitude": 67.048716,
    "id": 4759456521
  },
  {
    "name": "North Nazimabad Block U",
    "category": "place",
    "subcategory": "neighbourhood",
    "latitude": 24.9320564,
    "longitude": 67.0227543,
    "id": 4775171578
  },
  {
    "name": "North Nazimabad Block D",
    "category": "highway",
    "subcategory": "bus_stop",
    "latitude": 24.9420716,
    "longitude": 67.0415184,
    "id": 4775171582
  },
  {
    "name": "North Nazimabad Block C",
    "category": "highway",
    "subcategory": "bus_stop",
    "latitude": 24.9370063,
    "longitude": 67.0356532,
    "id": 4775171583
  },
  {
    "name": "اورنگی ٹاؤن",
    "category": "place",
    "subcategory": "neighbourhood",
    "latitude": 24.9502446,
    "longitude": 66.9939479,
    "id": 4777267205
  },
  {
    "name": "Banaras Town",
    "category": "place",
    "subcategory": "neighbourhood",
    "latitude": 24.9425872,
    "longitude": 67.0089316,
    "id": 4777338444
  },
  {
    "name": "مومن آباد",
    "category": "place",
    "subcategory": "town",
    "latitude": 24.9304645,
    "longitude": 66.9917469,
    "id": 4777338445
  },
  {
    "name": "مسلم آباد",
    "category": "place",
    "subcategory": "suburb",
    "latitude": 24.9294463,
    "longitude": 66.982655,
    "id": 4777338446
  },
  {
    "name": "فرید کالونی",
    "category": "place",
    "subcategory": "neighbourhood",
    "latitude": 24.9335079,
    "longitude": 66.9816856,
    "id": 4777338447
  },
  {
    "name": "آفریدی کالونی",
    "category": "place",
    "subcategory": "neighbourhood",
    "latitude": 24.9212737,
    "longitude": 66.9758088,
    "id": 4777338448
  },
  {
    "name": "غازی آباد",
    "category": "place",
    "subcategory": "suburb",
    "latitude": 24.9728839,
    "longitude": 66.9849494,
    "id": 4777338456
  },
  {
    "name": "North Nazimabad Police Station",
    "category": "amenity",
    "subcategory": "police",
    "latitude": 24.9320296,
    "longitude": 67.047838,
    "id": 4785718476
  },
  {
    "name": "Mominabad Police Station",
    "category": "amenity",
    "subcategory": "police",
    "latitude": 24.9332692,
    "longitude": 66.9977663,
    "id": 4785718477
  },
  {
    "name": "SITE Police Station",
    "category": "amenity",
    "subcategory": "police",
    "latitude": 24.9068299,
    "longitude": 66.9968733,
    "id": 4785775169
  },
  {
    "name": "Manghopir Police Station",
    "category": "amenity",
    "subcategory": "police",
    "latitude": 24.9847442,
    "longitude": 67.0386799,
    "id": 4785857327
  },
  {
    "name": "Orangi Town Police Station",
    "category": "amenity",
    "subcategory": "police",
    "latitude": 24.9384086,
    "longitude": 67.0057284,
    "id": 4785884160
  },
  {
    "name": "Rose Banquet",
    "category": "amenity",
    "subcategory": "community_centre",
    "latitude": 24.943772,
    "longitude": 67.0490665,
    "id": 4795295307
  },
  {
    "name": "یونائیٹڈ بینک لمیٹڈ",
    "category": "amenity",
    "subcategory": "bank",
    "latitude": 24.9286377,
    "longitude": 67.0489951,
    "id": 4820427174
  },
  {
    "name": "Al Kahf Academy",
    "category": "amenity",
    "subcategory": "school",
    "latitude": 24.929414,
    "longitude": 67.0491695,
    "id": 4820427175
  },
  {
    "name": "Beaconhouse Cambridge Branch",
    "category": "amenity",
    "subcategory": "school",
    "latitude": 24.9294814,
    "longitude": 67.0503056,
    "id": 4820427176
  },
  {
    "name": "Hazels Cakes",
    "category": "amenity",
    "subcategory": "cafe",
    "latitude": 24.9298714,
    "longitude": 67.0480036,
    "id": 4820427177
  },
  {
    "name": "Iqbal Autos",
    "category": "shop",
    "subcategory": "car_repair",
    "latitude": 24.9322958,
    "longitude": 67.0520175,
    "id": 4820427180
  },
  {
    "name": "Al Fareed Pakwan Centre",
    "category": "amenity",
    "subcategory": "restaurant",
    "latitude": 24.9324555,
    "longitude": 67.0521279,
    "id": 4820427181
  },
  {
    "name": "Sajid Pahalwan Key Mashoor Murgh Choolay",
    "category": "amenity",
    "subcategory": "fast_food",
    "latitude": 24.9323533,
    "longitude": 67.0520521,
    "id": 4820427182
  },
  {
    "name": "Wisdom House School",
    "category": "amenity",
    "subcategory": "school",
    "latitude": 24.9333672,
    "longitude": 67.0526247,
    "id": 4820427183
  },
  {
    "name": "Qalandaria Chowk",
    "category": "highway",
    "subcategory": "bus_stop",
    "latitude": 24.9595388,
    "longitude": 67.0500247,
    "id": 4949746314
  },
  {
    "name": "Pizza Next",
    "category": "amenity",
    "subcategory": "restaurant",
    "latitude": 24.9406561,
    "longitude": 67.045167,
    "id": 5008885022
  },
  {
    "name": "یونائیٹڈ بینک لمیٹڈ",
    "category": "amenity",
    "subcategory": "bank",
    "latitude": 24.9249546,
    "longitude": 67.0328424,
    "id": 5066072374
  },
  {
    "name": "Jamia Masjid o Imam Bargah Noor e Iman",
    "category": "amenity",
    "subcategory": "place_of_worship",
    "latitude": 24.9160201,
    "longitude": 67.0282504,
    "id": 5066143324
  },
  {
    "name": "Ziauddin Memorial Hospital",
    "category": "amenity",
    "subcategory": "hospital",
    "latitude": 24.9149546,
    "longitude": 67.0264479,
    "id": 5066143325
  },
  {
    "name": "Nazimabad Gole Market",
    "category": "amenity",
    "subcategory": "marketplace",
    "latitude": 24.9146456,
    "longitude": 67.0242217,
    "id": 5066143328
  },
  {
    "name": "MCB BANK",
    "category": "amenity",
    "subcategory": "bank",
    "latitude": 24.915193,
    "longitude": 67.0244336,
    "id": 5066143329
  },
  {
    "name": "Govt Pilot Secondary School",
    "category": "amenity",
    "subcategory": "school",
    "latitude": 24.9163071,
    "longitude": 67.0241332,
    "id": 5066143334
  },
  {
    "name": "Chandni Chowk",
    "category": "amenity",
    "subcategory": "bus_station",
    "latitude": 24.9215078,
    "longitude": 67.0214054,
    "id": 5066143335
  },
  {
    "name": "Paposh Sarrafa Bazaar",
    "category": "amenity",
    "subcategory": "marketplace",
    "latitude": 24.9219932,
    "longitude": 67.0226827,
    "id": 5066143337
  },
  {
    "name": "Dawoodi Bohra Hussani",
    "category": "amenity",
    "subcategory": "place_of_worship",
    "latitude": 24.9354381,
    "longitude": 67.0391243,
    "id": 5066199388
  },
  {
    "name": "Al Jamea Tus Saifyah",
    "category": "amenity",
    "subcategory": "college",
    "latitude": 24.9335916,
    "longitude": 67.0360503,
    "id": 5066199389
  },
  {
    "name": "Qudsia Masjid",
    "category": "amenity",
    "subcategory": "place_of_worship",
    "latitude": 24.9092841,
    "longitude": 67.0287493,
    "id": 5078966586
  },
  {
    "name": "پاکستان اسٹیٹ آئل",
    "category": "amenity",
    "subcategory": "fuel",
    "latitude": 24.9106464,
    "longitude": 67.0218909,
    "id": 5078966588
  },
  {
    "name": "ایچ بی ایل پاکستان",
    "category": "amenity",
    "subcategory": "bank",
    "latitude": 24.9078269,
    "longitude": 67.0263768,
    "id": 5078966591
  },
  {
    "name": "Friends Mart",
    "category": "shop",
    "subcategory": "supermarket",
    "latitude": 24.9077965,
    "longitude": 67.0260711,
    "id": 5078966592
  },
  {
    "name": "Mulsim Medical Store",
    "category": "amenity",
    "subcategory": "pharmacy",
    "latitude": 24.9069925,
    "longitude": 67.024954,
    "id": 5078966593
  },
  {
    "name": "Chawala Market",
    "category": "leisure",
    "subcategory": "fitness_centre",
    "latitude": 24.9066567,
    "longitude": 67.0257944,
    "id": 5078966594
  },
  {
    "name": "Karachi Cambridge Secondary School",
    "category": "amenity",
    "subcategory": "school",
    "latitude": 24.9064767,
    "longitude": 67.0246696,
    "id": 5078966595
  },
  {
    "name": "Ideal Federal High School",
    "category": "amenity",
    "subcategory": "school",
    "latitude": 24.9094623,
    "longitude": 67.028285,
    "id": 5078966608
  },
  {
    "name": "Zeb Medical Center",
    "category": "amenity",
    "subcategory": "hospital",
    "latitude": 24.909232,
    "longitude": 67.0254049,
    "id": 5078966617
  },
  {
    "name": "Elegant Secondary School",
    "category": "amenity",
    "subcategory": "school",
    "latitude": 24.909469,
    "longitude": 67.0235579,
    "id": 5078966618
  },
  {
    "name": "Azizia",
    "category": "amenity",
    "subcategory": "place_of_worship",
    "latitude": 24.9098597,
    "longitude": 67.0232905,
    "id": 5078966619
  },
  {
    "name": "Shabbir Usmani Library",
    "category": "amenity",
    "subcategory": "library",
    "latitude": 24.9075909,
    "longitude": 67.0259115,
    "id": 5078977928
  },
  {
    "name": "Nazimabad Post Office",
    "category": "amenity",
    "subcategory": "post_office",
    "latitude": 24.9076797,
    "longitude": 67.0261462,
    "id": 5078977929
  },
  {
    "name": "Prince Bakery",
    "category": "shop",
    "subcategory": "bakery",
    "latitude": 24.9080848,
    "longitude": 67.0268704,
    "id": 5078977930
  },
  {
    "name": "Nayab Cinema",
    "category": "amenity",
    "subcategory": "cinema",
    "latitude": 24.9077758,
    "longitude": 67.028119,
    "id": 5078977931
  },
  {
    "name": "Chawala Market",
    "category": "amenity",
    "subcategory": "marketplace",
    "latitude": 24.9064451,
    "longitude": 67.0264694,
    "id": 5078977962
  },
  {
    "name": "community_centre",
    "category": "amenity",
    "subcategory": "community_centre",
    "latitude": 24.9064676,
    "longitude": 67.0306141,
    "id": 5078977963
  },
  {
    "name": "KMC Meat Market Block 1",
    "category": "amenity",
    "subcategory": "marketplace",
    "latitude": 24.9061945,
    "longitude": 67.0278749,
    "id": 5078977965
  },
  {
    "name": "Master Bakery",
    "category": "shop",
    "subcategory": "bakery",
    "latitude": 24.9077709,
    "longitude": 67.0346421,
    "id": 5079172414
  },
  {
    "name": "Baqai Oncology",
    "category": "amenity",
    "subcategory": "hospital",
    "latitude": 24.907864,
    "longitude": 67.0351047,
    "id": 5079173649
  },
  {
    "name": "Al Murtaza Hospital",
    "category": "amenity",
    "subcategory": "hospital",
    "latitude": 24.9078658,
    "longitude": 67.0357901,
    "id": 5079173650
  },
  {
    "name": "Zamzam",
    "category": "amenity",
    "subcategory": "place_of_worship",
    "latitude": 24.9069316,
    "longitude": 67.0369917,
    "id": 5079404675
  },
  {
    "name": "Haris Sweets",
    "category": "shop",
    "subcategory": "confectionery",
    "latitude": 24.9067443,
    "longitude": 67.035369,
    "id": 5079404676
  },
  {
    "name": "الائیڈ بینک لمیٹڈ",
    "category": "amenity",
    "subcategory": "bank",
    "latitude": 24.9073257,
    "longitude": 67.0330971,
    "id": 5079404681
  },
  {
    "name": "سونیری بینک",
    "category": "amenity",
    "subcategory": "bank",
    "latitude": 24.9075033,
    "longitude": 67.0348379,
    "id": 5079404682
  },
  {
    "name": "Super Asia Bakery",
    "category": "shop",
    "subcategory": "bakery",
    "latitude": 24.9066324,
    "longitude": 67.0344651,
    "id": 5079404683
  },
  {
    "name": "اسٹینڈرڈ چارٹرڈ",
    "category": "amenity",
    "subcategory": "bank",
    "latitude": 24.9181777,
    "longitude": 67.0309702,
    "id": 5079542885
  },
  {
    "name": "بینک اسلامی",
    "category": "amenity",
    "subcategory": "bank",
    "latitude": 24.9156089,
    "longitude": 67.0309219,
    "id": 5079542888
  },
  {
    "name": "SM Public School Main Campus",
    "category": "amenity",
    "subcategory": "school",
    "latitude": 24.9152051,
    "longitude": 67.0308736,
    "id": 5079542889
  },
  {
    "name": "Habib Metro Bank - ATM",
    "category": "amenity",
    "subcategory": "bank",
    "latitude": 24.9148359,
    "longitude": 67.0308781,
    "id": 5079542890
  },
  {
    "name": "فیصل بینک",
    "category": "amenity",
    "subcategory": "bank",
    "latitude": 24.9139718,
    "longitude": 67.0308495,
    "id": 5079542891
  },
  {
    "name": "Pizza Point",
    "category": "amenity",
    "subcategory": "fast_food",
    "latitude": 24.9134099,
    "longitude": 67.0308146,
    "id": 5079542892
  },
  {
    "name": "Ahbab",
    "category": "amenity",
    "subcategory": "place_of_worship",
    "latitude": 24.9191391,
    "longitude": 67.0302921,
    "id": 5079542893
  },
  {
    "name": "Midcity CNG Station",
    "category": "amenity",
    "subcategory": "fuel",
    "latitude": 24.9166574,
    "longitude": 67.0309111,
    "id": 5079542897
  },
  {
    "name": "AO Medical Centre",
    "category": "amenity",
    "subcategory": "hospital",
    "latitude": 24.9141567,
    "longitude": 67.0308307,
    "id": 5079542898
  },
  {
    "name": "Liaquat National Hospital",
    "category": "amenity",
    "subcategory": "hospital",
    "latitude": 24.9139086,
    "longitude": 67.0308414,
    "id": 5079542899
  },
  {
    "name": "Doctors Plaza",
    "category": "amenity",
    "subcategory": "hospital",
    "latitude": 24.9125293,
    "longitude": 67.030777,
    "id": 5079542900
  },
  {
    "name": "Noor-ul-Islam",
    "category": "amenity",
    "subcategory": "place_of_worship",
    "latitude": 24.9178019,
    "longitude": 67.0276726,
    "id": 5079542901
  },
  {
    "name": "K Electric - Gol Market",
    "category": "office",
    "subcategory": "company",
    "latitude": 24.9140837,
    "longitude": 67.0265311,
    "id": 5079542903
  },
  {
    "name": "Star Bakery",
    "category": "shop",
    "subcategory": "bakery",
    "latitude": 24.9139231,
    "longitude": 67.0262629,
    "id": 5079542905
  },
  {
    "name": "Bappu Burger",
    "category": "amenity",
    "subcategory": "fast_food",
    "latitude": 24.9138015,
    "longitude": 67.0263192,
    "id": 5079542906
  },
  {
    "name": "Agha Khan Jamat Khana",
    "category": "amenity",
    "subcategory": "place_of_worship",
    "latitude": 24.9131581,
    "longitude": 67.027236,
    "id": 5079542909
  },
  {
    "name": "مسجد بلال",
    "category": "amenity",
    "subcategory": "place_of_worship",
    "latitude": 24.9128781,
    "longitude": 67.0259173,
    "id": 5079542910
  },
  {
    "name": "Malik Hospital",
    "category": "amenity",
    "subcategory": "hospital",
    "latitude": 24.9133685,
    "longitude": 67.0221913,
    "id": 5079542915
  },
  {
    "name": "Shahbaz Bakery",
    "category": "shop",
    "subcategory": "bakery",
    "latitude": 24.9160221,
    "longitude": 67.0219521,
    "id": 5079542916
  },
  {
    "name": "Faiz Grammer School",
    "category": "amenity",
    "subcategory": "school",
    "latitude": 24.9157719,
    "longitude": 67.0222262,
    "id": 5079542917
  },
  {
    "name": "FM Public School Campus 1",
    "category": "amenity",
    "subcategory": "school",
    "latitude": 24.9155601,
    "longitude": 67.0222784,
    "id": 5079542918
  },
  {
    "name": "parking",
    "category": "amenity",
    "subcategory": "parking",
    "latitude": 24.9189822,
    "longitude": 67.0316366,
    "id": 5081600522
  },
  {
    "name": "Domino English Language Centre",
    "category": "office",
    "subcategory": "educational_institution",
    "latitude": 24.919099,
    "longitude": 67.0310196,
    "id": 5081600524
  },
  {
    "name": "Majestic Restaurant",
    "category": "amenity",
    "subcategory": "restaurant",
    "latitude": 24.9188266,
    "longitude": 67.0309606,
    "id": 5081600525
  },
  {
    "name": "Board Of Secondary Education Matric",
    "category": "office",
    "subcategory": "educational_institution",
    "latitude": 24.9242707,
    "longitude": 67.0300575,
    "id": 5081690587
  },
  {
    "name": "Mini Cucine Italian Kitchen",
    "category": "shop",
    "subcategory": "furniture",
    "latitude": 24.9244297,
    "longitude": 67.0326961,
    "id": 5081736191
  },
  {
    "name": "Careem Opportunity Centre North Nazimabad",
    "category": "office",
    "subcategory": "company",
    "latitude": 24.923897,
    "longitude": 67.0326893,
    "id": 5081746337
  },
  {
    "name": "Sachal Rangers Mess/Gym/Squash Court/ Wedding Halls",
    "category": "office",
    "subcategory": "government",
    "latitude": 24.9238219,
    "longitude": 67.0348639,
    "id": 5081758643
  },
  {
    "name": "Happy Day School",
    "category": "amenity",
    "subcategory": "school",
    "latitude": 24.9197768,
    "longitude": 67.0342649,
    "id": 5081767783
  },
  {
    "name": "Chiniot Mother and Child Hospital",
    "category": "amenity",
    "subcategory": "hospital",
    "latitude": 24.9182835,
    "longitude": 67.0345052,
    "id": 5081844141
  },
  {
    "name": "Al Hamid Bakers",
    "category": "shop",
    "subcategory": "bakery",
    "latitude": 24.9157487,
    "longitude": 67.0329497,
    "id": 5081891168
  },
  {
    "name": "Jama Masjid Hadi Market",
    "category": "amenity",
    "subcategory": "place_of_worship",
    "latitude": 24.9151307,
    "longitude": 67.0331761,
    "id": 5081891172
  },
  {
    "name": "A Aziz Chemist",
    "category": "shop",
    "subcategory": "medical_supply",
    "latitude": 24.9155798,
    "longitude": 67.0329369,
    "id": 5081891173
  },
  {
    "name": "Links Lawn",
    "category": "amenity",
    "subcategory": "community_centre",
    "latitude": 24.9149455,
    "longitude": 67.0318993,
    "id": 5081891183
  },
  {
    "name": "place_of_worship",
    "category": "amenity",
    "subcategory": "place_of_worship",
    "latitude": 24.9111549,
    "longitude": 67.029125,
    "id": 5083582929
  },
  {
    "name": "Nazimabad Gym",
    "category": "leisure",
    "subcategory": "fitness_centre",
    "latitude": 24.9114273,
    "longitude": 67.0290258,
    "id": 5083582930
  },
  {
    "name": "Muslim Food",
    "category": "amenity",
    "subcategory": "restaurant",
    "latitude": 24.9110354,
    "longitude": 67.0287093,
    "id": 5083582931
  },
  {
    "name": "Zeeshan Haider Shaheed Park",
    "category": "leisure",
    "subcategory": "park",
    "latitude": 24.9101548,
    "longitude": 67.0289882,
    "id": 5083582932
  },
  {
    "name": "Aptech Computer Education",
    "category": "office",
    "subcategory": "educational_institution",
    "latitude": 24.910513,
    "longitude": 67.0275128,
    "id": 5083582933
  },
  {
    "name": "Easy Paisa Shop",
    "category": "shop",
    "subcategory": "yes",
    "latitude": 24.9105236,
    "longitude": 67.0269955,
    "id": 5083582934
  },
  {
    "name": "Quetta Tea Restaurant",
    "category": "amenity",
    "subcategory": "restaurant",
    "latitude": 24.9105164,
    "longitude": 67.0272838,
    "id": 5083582935
  },
  {
    "name": "Pakistan Polytechic College",
    "category": "amenity",
    "subcategory": "college",
    "latitude": 24.9105363,
    "longitude": 67.0265377,
    "id": 5083582936
  },
  {
    "name": "ایم سی بی بینک",
    "category": "amenity",
    "subcategory": "bank",
    "latitude": 24.9105444,
    "longitude": 67.0261306,
    "id": 5083582937
  },
  {
    "name": "United Biryani Center",
    "category": "amenity",
    "subcategory": "restaurant",
    "latitude": 24.9110722,
    "longitude": 67.0260627,
    "id": 5083857176
  },
  {
    "name": "AutoZone",
    "category": "shop",
    "subcategory": "car_parts",
    "latitude": 24.9115648,
    "longitude": 67.0250869,
    "id": 5083857178
  },
  {
    "name": "Orangi Fire Station CDGK",
    "category": "amenity",
    "subcategory": "fire_station",
    "latitude": 24.9369468,
    "longitude": 67.0074169,
    "id": 5087779613
  },
  {
    "name": "Noor Jahan Police Station",
    "category": "amenity",
    "subcategory": "police",
    "latitude": 24.9438158,
    "longitude": 67.0323949,
    "id": 5088577345
  },
  {
    "name": "ناشاد میڈیکل سنٹر",
    "category": "amenity",
    "subcategory": "clinic",
    "latitude": 24.9452847,
    "longitude": 67.0296358,
    "id": 5088577346
  },
  {
    "name": "Jama Masjid Bismillah (Near Katti Pahari)",
    "category": "amenity",
    "subcategory": "place_of_worship",
    "latitude": 24.9455669,
    "longitude": 67.0291459,
    "id": 5088577347
  },
  {
    "name": "Easy computers",
    "category": "shop",
    "subcategory": "computer",
    "latitude": 24.9459564,
    "longitude": 67.0279444,
    "id": 5088577348
  },
  {
    "name": "Gul e Sughra Elementary School",
    "category": "amenity",
    "subcategory": "school",
    "latitude": 24.9456226,
    "longitude": 67.0278311,
    "id": 5088577349
  },
  {
    "name": "Qasba Market",
    "category": "amenity",
    "subcategory": "marketplace",
    "latitude": 24.9455419,
    "longitude": 67.0274668,
    "id": 5088577350
  },
  {
    "name": "Pak Grammar High School",
    "category": "amenity",
    "subcategory": "school",
    "latitude": 24.9452876,
    "longitude": 67.0272523,
    "id": 5088577351
  },
  {
    "name": "Shahid Rent A Bike",
    "category": "shop",
    "subcategory": "motorcycle",
    "latitude": 24.9467524,
    "longitude": 67.0267038,
    "id": 5088577352
  },
  {
    "name": "Askari hospital",
    "category": "amenity",
    "subcategory": "hospital",
    "latitude": 24.9469378,
    "longitude": 67.0260307,
    "id": 5088577353
  },
  {
    "name": "Jamia Ayesha tul Binat",
    "category": "amenity",
    "subcategory": "place_of_worship",
    "latitude": 24.9475681,
    "longitude": 67.0263275,
    "id": 5088577354
  },
  {
    "name": "Jamshed Petrol Pump",
    "category": "amenity",
    "subcategory": "fuel",
    "latitude": 24.9485126,
    "longitude": 67.0234947,
    "id": 5088577355
  },
  {
    "name": "یونائیٹڈ بینک لمیٹڈ",
    "category": "amenity",
    "subcategory": "bank",
    "latitude": 24.9488144,
    "longitude": 67.0236893,
    "id": 5088577356
  },
  {
    "name": "Askari Bank LTD Mango Pir Branch",
    "category": "amenity",
    "subcategory": "bank",
    "latitude": 24.9490987,
    "longitude": 67.0239198,
    "id": 5088577357
  },
  {
    "name": "Waziristan Autos",
    "category": "shop",
    "subcategory": "yes",
    "latitude": 24.9465807,
    "longitude": 67.0219248,
    "id": 5088577358
  },
  {
    "name": "Saud Hospital",
    "category": "amenity",
    "subcategory": "hospital",
    "latitude": 24.9465669,
    "longitude": 67.0216023,
    "id": 5088577359
  },
  {
    "name": "Babu Hotel",
    "category": "amenity",
    "subcategory": "restaurant",
    "latitude": 24.9455248,
    "longitude": 67.0210905,
    "id": 5088577360
  },
  {
    "name": "Rabbani Masjid",
    "category": "amenity",
    "subcategory": "place_of_worship",
    "latitude": 24.94497,
    "longitude": 67.0206219,
    "id": 5088577361
  },
  {
    "name": "Rabbani Masjid",
    "category": "amenity",
    "subcategory": "fuel",
    "latitude": 24.9401761,
    "longitude": 67.0197083,
    "id": 5088577362
  },
  {
    "name": "Caltex Petrol Pump",
    "category": "amenity",
    "subcategory": "fuel",
    "latitude": 24.9390032,
    "longitude": 67.0189541,
    "id": 5088577364
  },
  {
    "name": "Owaes Autos",
    "category": "shop",
    "subcategory": "yes",
    "latitude": 24.9385374,
    "longitude": 67.0188373,
    "id": 5088577365
  },
  {
    "name": "Ibrahim Tyre Shop",
    "category": "shop",
    "subcategory": "tyres",
    "latitude": 24.9396321,
    "longitude": 67.0178749,
    "id": 5088577366
  },
  {
    "name": "Baba Farid",
    "category": "amenity",
    "subcategory": "restaurant",
    "latitude": 24.9394957,
    "longitude": 67.0176391,
    "id": 5088577367
  },
  {
    "name": "Rashid Book Center",
    "category": "shop",
    "subcategory": "books",
    "latitude": 24.9396363,
    "longitude": 67.017482,
    "id": 5088577368
  },
  {
    "name": "Zubaida Medical Complex",
    "category": "amenity",
    "subcategory": "hospital",
    "latitude": 24.9392869,
    "longitude": 67.016865,
    "id": 5088577369
  },
  {
    "name": "Toheed",
    "category": "amenity",
    "subcategory": "place_of_worship",
    "latitude": 24.9388784,
    "longitude": 67.016505,
    "id": 5088577370
  },
  {
    "name": "MASHALLAH Genral Store",
    "category": "shop",
    "subcategory": "supermarket",
    "latitude": 24.9396935,
    "longitude": 67.0162631,
    "id": 5088577371
  },
  {
    "name": "Faraz Homeopathic Store",
    "category": "amenity",
    "subcategory": "clinic",
    "latitude": 24.9400078,
    "longitude": 67.0163098,
    "id": 5088577372
  },
  {
    "name": "place_of_worship",
    "category": "amenity",
    "subcategory": "place_of_worship",
    "latitude": 24.9402471,
    "longitude": 67.0164506,
    "id": 5088577373
  },
  {
    "name": "Quaid e Azam Public Secondary School",
    "category": "amenity",
    "subcategory": "school",
    "latitude": 24.9400723,
    "longitude": 67.0167745,
    "id": 5088577374
  },
  {
    "name": "Mashallah",
    "category": "amenity",
    "subcategory": "restaurant",
    "latitude": 24.9396094,
    "longitude": 67.0140639,
    "id": 5088577375
  },
  {
    "name": "Kaali Pahari",
    "category": "amenity",
    "subcategory": "place_of_worship",
    "latitude": 24.940462,
    "longitude": 67.0151291,
    "id": 5088577376
  },
  {
    "name": "Express Courier Link",
    "category": "amenity",
    "subcategory": "post_office",
    "latitude": 24.9401813,
    "longitude": 67.0130152,
    "id": 5088577377
  },
  {
    "name": "Tameer Microfinance Bank",
    "category": "amenity",
    "subcategory": "bank",
    "latitude": 24.940318,
    "longitude": 67.0127693,
    "id": 5088577378
  },
  {
    "name": "Oasis Tyre Shop",
    "category": "shop",
    "subcategory": "tyres",
    "latitude": 24.9397047,
    "longitude": 67.01388,
    "id": 5088577379
  },
  {
    "name": "شکیل آٹوز",
    "category": "shop",
    "subcategory": "yes",
    "latitude": 24.9393337,
    "longitude": 67.0141509,
    "id": 5088577380
  },
  {
    "name": "Raza Mechinery (Generater Spare Parts)",
    "category": "shop",
    "subcategory": "yes",
    "latitude": 24.9395664,
    "longitude": 67.0137456,
    "id": 5088577381
  },
  {
    "name": "PIZZA ARAB",
    "category": "amenity",
    "subcategory": "fast_food",
    "latitude": 24.9400933,
    "longitude": 67.0127644,
    "id": 5088577382
  },
  {
    "name": "Marhaba Bakers",
    "category": "shop",
    "subcategory": "bakery",
    "latitude": 24.940106,
    "longitude": 67.0124561,
    "id": 5088577383
  },
  {
    "name": "pharmacy",
    "category": "amenity",
    "subcategory": "pharmacy",
    "latitude": 24.9400192,
    "longitude": 67.012281,
    "id": 5088577384
  },
  {
    "name": "VIP Pulao",
    "category": "amenity",
    "subcategory": "restaurant",
    "latitude": 24.9398773,
    "longitude": 67.0121713,
    "id": 5088577385
  },
  {
    "name": "Hot & Roll Fast Food",
    "category": "amenity",
    "subcategory": "fast_food",
    "latitude": 24.9399171,
    "longitude": 67.0118629,
    "id": 5088577387
  },
  {
    "name": "haji",
    "category": "amenity",
    "subcategory": "restaurant",
    "latitude": 24.9406521,
    "longitude": 67.0121486,
    "id": 5088577388
  },
  {
    "name": "Rehan Sheermal House",
    "category": "amenity",
    "subcategory": "restaurant",
    "latitude": 24.9407037,
    "longitude": 67.0120429,
    "id": 5088577389
  },
  {
    "name": "ڈیٹا آٹوز",
    "category": "shop",
    "subcategory": "yes",
    "latitude": 24.9408425,
    "longitude": 67.0114132,
    "id": 5088685985
  },
  {
    "name": "Marie Stopes Society Clinic",
    "category": "amenity",
    "subcategory": "clinic",
    "latitude": 24.9411303,
    "longitude": 67.0113023,
    "id": 5088685986
  },
  {
    "name": "Jamia Masjid Al Muslimeen",
    "category": "amenity",
    "subcategory": "place_of_worship",
    "latitude": 24.9416324,
    "longitude": 67.0107477,
    "id": 5088685987
  },
  {
    "name": "میزان بینک",
    "category": "amenity",
    "subcategory": "bank",
    "latitude": 24.9413018,
    "longitude": 67.0105283,
    "id": 5088685988
  },
  {
    "name": "National Library Lawn",
    "category": "amenity",
    "subcategory": "community_centre",
    "latitude": 24.9428139,
    "longitude": 67.0085807,
    "id": 5088685993
  },
  {
    "name": "Banaras National Hospital",
    "category": "amenity",
    "subcategory": "hospital",
    "latitude": 24.9430161,
    "longitude": 67.0084993,
    "id": 5088685994
  },
  {
    "name": "Samad Silk",
    "category": "shop",
    "subcategory": "clothes",
    "latitude": 24.9424513,
    "longitude": 67.008379,
    "id": 5088685995
  },
  {
    "name": "TCS Office",
    "category": "office",
    "subcategory": "courier",
    "latitude": 24.9429303,
    "longitude": 67.0079507,
    "id": 5088733591
  },
  {
    "name": "Khalil Biryani",
    "category": "amenity",
    "subcategory": "restaurant",
    "latitude": 24.9431592,
    "longitude": 67.0075385,
    "id": 5088733593
  },
  {
    "name": "Shrine of Peer Syed Sher Ali Shah Bukhari",
    "category": "amenity",
    "subcategory": "place_of_worship",
    "latitude": 24.9433903,
    "longitude": 67.0079419,
    "id": 5088733594
  },
  {
    "name": "Huda SILK",
    "category": "shop",
    "subcategory": "clothes",
    "latitude": 24.9433728,
    "longitude": 67.0057618,
    "id": 5088733596
  },
  {
    "name": "Noor Ali Shah Bukhari Mosque",
    "category": "amenity",
    "subcategory": "place_of_worship",
    "latitude": 24.9449916,
    "longitude": 67.0061157,
    "id": 5088733598
  },
  {
    "name": "Tauheed",
    "category": "amenity",
    "subcategory": "place_of_worship",
    "latitude": 24.9445727,
    "longitude": 67.0041937,
    "id": 5088733603
  },
  {
    "name": "Bismillah Bakery",
    "category": "shop",
    "subcategory": "bakery",
    "latitude": 24.9458985,
    "longitude": 67.0052792,
    "id": 5088733604
  },
  {
    "name": "Shakeel General Store",
    "category": "shop",
    "subcategory": "supermarket",
    "latitude": 24.9458183,
    "longitude": 67.0054348,
    "id": 5088733605
  },
  {
    "name": "Social Security Hospital",
    "category": "amenity",
    "subcategory": "hospital",
    "latitude": 24.9479138,
    "longitude": 67.0059951,
    "id": 5088733607
  },
  {
    "name": "Madani",
    "category": "amenity",
    "subcategory": "place_of_worship",
    "latitude": 24.9485709,
    "longitude": 67.006125,
    "id": 5088733611
  },
  {
    "name": "Shahnai Marriage Hall",
    "category": "amenity",
    "subcategory": "community_centre",
    "latitude": 24.9491923,
    "longitude": 67.0071418,
    "id": 5088733612
  },
  {
    "name": "Anwar & Nosheen Gift Shop",
    "category": "shop",
    "subcategory": "gift",
    "latitude": 24.9501805,
    "longitude": 67.0011159,
    "id": 5088733614
  },
  {
    "name": "Brohi",
    "category": "amenity",
    "subcategory": "cafe",
    "latitude": 24.9457308,
    "longitude": 66.9983709,
    "id": 5088820022
  },
  {
    "name": "Star Banquet",
    "category": "amenity",
    "subcategory": "community_centre",
    "latitude": 24.9434027,
    "longitude": 66.9963259,
    "id": 5088820025
  },
  {
    "name": "ZMC Office",
    "category": "office",
    "subcategory": "government",
    "latitude": 24.9420496,
    "longitude": 66.9983031,
    "id": 5088820043
  },
  {
    "name": "Nagori Golden Milk Shop",
    "category": "shop",
    "subcategory": "dairy",
    "latitude": 24.9417814,
    "longitude": 66.9984633,
    "id": 5088820044
  },
  {
    "name": "بینک الفلاح",
    "category": "amenity",
    "subcategory": "bank",
    "latitude": 24.9410678,
    "longitude": 66.9998077,
    "id": 5088820045
  },
  {
    "name": "Aptech Computer Institiute Orangi Town",
    "category": "office",
    "subcategory": "educational_institution",
    "latitude": 24.9409316,
    "longitude": 66.9996924,
    "id": 5088820046
  },
  {
    "name": "جے ایس بینک",
    "category": "amenity",
    "subcategory": "bank",
    "latitude": 24.941114,
    "longitude": 66.9996736,
    "id": 5088820047
  },
  {
    "name": "Utility Store",
    "category": "shop",
    "subcategory": "supermarket",
    "latitude": 24.9412867,
    "longitude": 67.0017087,
    "id": 5088969198
  },
  {
    "name": "Jumma General Store and Tea",
    "category": "shop",
    "subcategory": "supermarket",
    "latitude": 24.9420491,
    "longitude": 67.0022503,
    "id": 5088969199
  },
  {
    "name": "Mehmood Public Secondary School",
    "category": "amenity",
    "subcategory": "school",
    "latitude": 24.9422413,
    "longitude": 67.0018668,
    "id": 5088969200
  },
  {
    "name": "sheermal and Tandoor",
    "category": "shop",
    "subcategory": "yes",
    "latitude": 24.942161,
    "longitude": 67.0024703,
    "id": 5088969201
  },
  {
    "name": "Ansari Medical Center",
    "category": "amenity",
    "subcategory": "clinic",
    "latitude": 24.9419373,
    "longitude": 67.0026661,
    "id": 5088969202
  },
  {
    "name": "Hilal e Ahmer Pakistan",
    "category": "amenity",
    "subcategory": "hospital",
    "latitude": 24.9397464,
    "longitude": 67.0020979,
    "id": 5089149959
  },
  {
    "name": "Sabir Mobile Mall",
    "category": "shop",
    "subcategory": "mobile_phone",
    "latitude": 24.9396278,
    "longitude": 67.0007984,
    "id": 5089149960
  },
  {
    "name": "کراچی بک سنٹر",
    "category": "shop",
    "subcategory": "bookmaker",
    "latitude": 24.9393603,
    "longitude": 67.0006375,
    "id": 5089149961
  },
  {
    "name": "لائف کیئر میڈیکل سنٹر",
    "category": "amenity",
    "subcategory": "hospital",
    "latitude": 24.9388822,
    "longitude": 67.0052449,
    "id": 5089149962
  },
  {
    "name": "fuel",
    "category": "amenity",
    "subcategory": "fuel",
    "latitude": 24.9391916,
    "longitude": 67.0032066,
    "id": 5089149963
  },
  {
    "name": "Al Khidmat Hospital Orangi 5",
    "category": "amenity",
    "subcategory": "hospital",
    "latitude": 24.938144,
    "longitude": 67.005069,
    "id": 5089149965
  },
  {
    "name": "Markazi Masjid Wa ImamBargah Haider-e-Karrar",
    "category": "amenity",
    "subcategory": "place_of_worship",
    "latitude": 24.9377949,
    "longitude": 67.0056651,
    "id": 5089149966
  },
  {
    "name": "الفتح ہال",
    "category": "amenity",
    "subcategory": "community_centre",
    "latitude": 24.9364051,
    "longitude": 67.0090842,
    "id": 5089149968
  },
  {
    "name": "Metro Cinema",
    "category": "amenity",
    "subcategory": "cinema",
    "latitude": 24.9358484,
    "longitude": 67.0094257,
    "id": 5089149969
  },
  {
    "name": "یونائیٹڈ بینک لمیٹڈ",
    "category": "amenity",
    "subcategory": "bank",
    "latitude": 24.9356708,
    "longitude": 67.0097494,
    "id": 5089149970
  },
  {
    "name": "Khaybar Masjid",
    "category": "amenity",
    "subcategory": "place_of_worship",
    "latitude": 24.9344502,
    "longitude": 67.010493,
    "id": 5089149971
  },
  {
    "name": "Frontier Public English Secondary School",
    "category": "amenity",
    "subcategory": "school",
    "latitude": 24.9342511,
    "longitude": 67.0108386,
    "id": 5089149972
  },
  {
    "name": "ٹوٹل",
    "category": "amenity",
    "subcategory": "fuel",
    "latitude": 24.9339016,
    "longitude": 67.0118506,
    "id": 5089149973
  },
  {
    "name": "Riaz Mobile Center",
    "category": "shop",
    "subcategory": "mobile_phone",
    "latitude": 24.9335635,
    "longitude": 67.0120632,
    "id": 5089149974
  },
  {
    "name": "Zafri Mobile Refairing Center",
    "category": "shop",
    "subcategory": "mobile_phone",
    "latitude": 24.9333595,
    "longitude": 67.0126732,
    "id": 5089149975
  },
  {
    "name": "Global P S",
    "category": "amenity",
    "subcategory": "fuel",
    "latitude": 24.9338205,
    "longitude": 67.0126609,
    "id": 5089149976
  },
  {
    "name": "Sharja Clothe Center",
    "category": "shop",
    "subcategory": "clothes",
    "latitude": 24.9331137,
    "longitude": 67.0130737,
    "id": 5089149977
  },
  {
    "name": "Site Marriage Lawn",
    "category": "amenity",
    "subcategory": "community_centre",
    "latitude": 24.9065591,
    "longitude": 66.9958098,
    "id": 5093055679
  },
  {
    "name": "Binoria Welfare Trust",
    "category": "office",
    "subcategory": "company",
    "latitude": 24.9061077,
    "longitude": 66.9957595,
    "id": 5093055680
  },
  {
    "name": "الائیڈ بینک لمیٹڈ",
    "category": "amenity",
    "subcategory": "bank",
    "latitude": 24.9062412,
    "longitude": 66.9959972,
    "id": 5093055681
  },
  {
    "name": "فیصل بینک",
    "category": "amenity",
    "subcategory": "bank",
    "latitude": 24.9063191,
    "longitude": 66.9960167,
    "id": 5093055682
  },
  {
    "name": "Al Naimah Foods",
    "category": "amenity",
    "subcategory": "restaurant",
    "latitude": 24.9063704,
    "longitude": 66.9961343,
    "id": 5093055683
  },
  {
    "name": "Binoria Restaurant",
    "category": "amenity",
    "subcategory": "restaurant",
    "latitude": 24.9064195,
    "longitude": 66.9962253,
    "id": 5093055684
  },
  {
    "name": "میزان بینک",
    "category": "amenity",
    "subcategory": "bank",
    "latitude": 24.9063818,
    "longitude": 66.9966209,
    "id": 5093055685
  },
  {
    "name": "Binoria Supermarket",
    "category": "shop",
    "subcategory": "supermarket",
    "latitude": 24.9062991,
    "longitude": 66.9964707,
    "id": 5093055686
  },
  {
    "name": "Al Noor Biryani Centre",
    "category": "amenity",
    "subcategory": "restaurant",
    "latitude": 24.9064767,
    "longitude": 66.9967926,
    "id": 5093055687
  },
  {
    "name": "Al Naz Pakwan & Biryani Centre",
    "category": "amenity",
    "subcategory": "restaurant",
    "latitude": 24.9065667,
    "longitude": 66.9969669,
    "id": 5093055688
  },
  {
    "name": "Hascol Petrol Pump & Arabian CNG",
    "category": "amenity",
    "subcategory": "fuel",
    "latitude": 24.9070189,
    "longitude": 66.9975195,
    "id": 5093055689
  },
  {
    "name": "Masjid e Haleemi",
    "category": "amenity",
    "subcategory": "place_of_worship",
    "latitude": 24.9071552,
    "longitude": 66.9986862,
    "id": 5093055690
  },
  {
    "name": "Seiko Enterprises",
    "category": "office",
    "subcategory": "company",
    "latitude": 24.9084124,
    "longitude": 66.9977019,
    "id": 5093055691
  },
  {
    "name": "Jama Binoria Aalimiyah",
    "category": "amenity",
    "subcategory": "place_of_worship",
    "latitude": 24.9080475,
    "longitude": 66.9956795,
    "id": 5093055692
  },
  {
    "name": "SITE Stadium",
    "category": "leisure",
    "subcategory": "stadium",
    "latitude": 24.913999,
    "longitude": 67.0077208,
    "id": 5093071436
  },
  {
    "name": "Govt Primary School",
    "category": "amenity",
    "subcategory": "school",
    "latitude": 24.9104416,
    "longitude": 67.0057762,
    "id": 5093122733
  },
  {
    "name": "HASCOL Petrol Station",
    "category": "amenity",
    "subcategory": "fuel",
    "latitude": 24.9076997,
    "longitude": 67.004538,
    "id": 5093122735
  },
  {
    "name": "SITE Association Of Industries",
    "category": "office",
    "subcategory": "government",
    "latitude": 24.9135217,
    "longitude": 67.0070438,
    "id": 5093122736
  },
  {
    "name": "Feroze Mills",
    "category": "office",
    "subcategory": "company",
    "latitude": 24.9161587,
    "longitude": 67.0092056,
    "id": 5093122737
  },
  {
    "name": "Technical Petrol & Service Station",
    "category": "amenity",
    "subcategory": "fuel",
    "latitude": 24.9160954,
    "longitude": 67.0103536,
    "id": 5093122738
  },
  {
    "name": "Khan Restaurant & Juice Center",
    "category": "amenity",
    "subcategory": "restaurant",
    "latitude": 24.9163046,
    "longitude": 67.0105789,
    "id": 5093122739
  },
  {
    "name": "Masjid e Ayyubi",
    "category": "amenity",
    "subcategory": "place_of_worship",
    "latitude": 24.9157427,
    "longitude": 67.0107157,
    "id": 5093122740
  },
  {
    "name": "Skill Autos",
    "category": "shop",
    "subcategory": "car_repair",
    "latitude": 24.9159227,
    "longitude": 67.010595,
    "id": 5093122741
  },
  {
    "name": "Helix Pharma",
    "category": "office",
    "subcategory": "company",
    "latitude": 24.9156113,
    "longitude": 67.0106755,
    "id": 5093122742
  },
  {
    "name": "Bismillah Cold Drink Nimko & General Store",
    "category": "shop",
    "subcategory": "supermarket",
    "latitude": 24.9444574,
    "longitude": 66.9957739,
    "id": 5097830007
  },
  {
    "name": "Nishan e Haider Tyre Shop",
    "category": "shop",
    "subcategory": "tyres",
    "latitude": 24.9472562,
    "longitude": 66.9941289,
    "id": 5097830010
  },
  {
    "name": "UtileUtility Store",
    "category": "shop",
    "subcategory": "supermarket",
    "latitude": 24.9475529,
    "longitude": 66.9937051,
    "id": 5097830011
  },
  {
    "name": "Sindh Government Hospital",
    "category": "amenity",
    "subcategory": "hospital",
    "latitude": 24.949622,
    "longitude": 67.0009153,
    "id": 5097989030
  },
  {
    "name": "Naveed Brothers Kaaj Button",
    "category": "shop",
    "subcategory": "yes",
    "latitude": 24.9502907,
    "longitude": 67.0009295,
    "id": 5097989032
  },
  {
    "name": "Orangi Town Marriage Hall",
    "category": "amenity",
    "subcategory": "community_centre",
    "latitude": 24.9517293,
    "longitude": 67.0026114,
    "id": 5097989034
  },
  {
    "name": "Mosque",
    "category": "amenity",
    "subcategory": "place_of_worship",
    "latitude": 24.9512875,
    "longitude": 67.0036766,
    "id": 5097989037
  },
  {
    "name": "Grid Station Mosque",
    "category": "amenity",
    "subcategory": "place_of_worship",
    "latitude": 24.9510355,
    "longitude": 67.0059685,
    "id": 5097989039
  },
  {
    "name": "Haq Industries",
    "category": "office",
    "subcategory": "company",
    "latitude": 24.9498377,
    "longitude": 67.0051526,
    "id": 5097989040
  },
  {
    "name": "Gulzar-e-Madina",
    "category": "amenity",
    "subcategory": "place_of_worship",
    "latitude": 24.9505194,
    "longitude": 67.0081472,
    "id": 5097989041
  },
  {
    "name": "Tawakel Medical Cenyer",
    "category": "amenity",
    "subcategory": "clinic",
    "latitude": 24.9526437,
    "longitude": 67.0022743,
    "id": 5097989043
  },
  {
    "name": "Millat Book Point",
    "category": "shop",
    "subcategory": "books",
    "latitude": 24.9525818,
    "longitude": 66.9976782,
    "id": 5097989044
  },
  {
    "name": "Mohammadia",
    "category": "amenity",
    "subcategory": "place_of_worship",
    "latitude": 24.9529812,
    "longitude": 66.9981281,
    "id": 5097989045
  },
  {
    "name": "Jamal & Sons Crockery",
    "category": "shop",
    "subcategory": "yes",
    "latitude": 24.9528217,
    "longitude": 66.9982215,
    "id": 5097989046
  },
  {
    "name": "Shrine of Shah Ghazi",
    "category": "amenity",
    "subcategory": "place_of_worship",
    "latitude": 24.9528988,
    "longitude": 66.9950625,
    "id": 5098122926
  },
  {
    "name": "Erum Autos",
    "category": "shop",
    "subcategory": "car_repair",
    "latitude": 24.9540112,
    "longitude": 66.9976278,
    "id": 5098122927
  },
  {
    "name": "Islamia Jama Masjid & Eid Gah",
    "category": "amenity",
    "subcategory": "place_of_worship",
    "latitude": 24.9542162,
    "longitude": 66.9963459,
    "id": 5098122928
  },
  {
    "name": "Fine Electronics",
    "category": "shop",
    "subcategory": "electronics",
    "latitude": 24.954861,
    "longitude": 66.9956881,
    "id": 5098122929
  },
  {
    "name": "clothes",
    "category": "shop",
    "subcategory": "clothes",
    "latitude": 24.9554281,
    "longitude": 66.9946735,
    "id": 5098122931
  },
  {
    "name": "jaints clothes market",
    "category": "amenity",
    "subcategory": "marketplace",
    "latitude": 24.9558484,
    "longitude": 66.9957201,
    "id": 5098122932
  },
  {
    "name": "Jama Masjid Halima Sadia",
    "category": "amenity",
    "subcategory": "place_of_worship",
    "latitude": 24.9566456,
    "longitude": 66.9954616,
    "id": 5098122934
  },
  {
    "name": "Dhaka Cloth",
    "category": "shop",
    "subcategory": "clothes",
    "latitude": 24.9576012,
    "longitude": 66.9955508,
    "id": 5098122936
  },
  {
    "name": "Pak Islamia Secondary School",
    "category": "amenity",
    "subcategory": "school",
    "latitude": 24.9583384,
    "longitude": 66.9955684,
    "id": 5098122937
  },
  {
    "name": "Al Macca hardware",
    "category": "shop",
    "subcategory": "hardware",
    "latitude": 24.9586005,
    "longitude": 66.99526,
    "id": 5098122938
  },
  {
    "name": "Imran Zari Center",
    "category": "shop",
    "subcategory": "clothes",
    "latitude": 24.959223,
    "longitude": 66.9953237,
    "id": 5098122939
  },
  {
    "name": "Ghousia Palace",
    "category": "amenity",
    "subcategory": "community_centre",
    "latitude": 24.9600614,
    "longitude": 66.9948741,
    "id": 5098122941
  },
  {
    "name": "New Dew Pharma",
    "category": "amenity",
    "subcategory": "pharmacy",
    "latitude": 24.9601701,
    "longitude": 66.9950828,
    "id": 5098122942
  },
  {
    "name": "Sultan Mini Franchise",
    "category": "shop",
    "subcategory": "furniture",
    "latitude": 24.9600737,
    "longitude": 66.9954383,
    "id": 5098122943
  },
  {
    "name": "Irfan Book Salers",
    "category": "shop",
    "subcategory": "books",
    "latitude": 24.9602245,
    "longitude": 66.9954947,
    "id": 5098122944
  },
  {
    "name": "Al Ashraf Lawn",
    "category": "amenity",
    "subcategory": "community_centre",
    "latitude": 24.9616352,
    "longitude": 66.9947166,
    "id": 5098122946
  },
  {
    "name": "G  Ali Resturant",
    "category": "amenity",
    "subcategory": "restaurant",
    "latitude": 24.96175,
    "longitude": 66.994449,
    "id": 5098122947
  },
  {
    "name": "Bilal Autos",
    "category": "shop",
    "subcategory": "car_repair",
    "latitude": 24.9623177,
    "longitude": 66.9945585,
    "id": 5098122948
  },
  {
    "name": "Naeem Electronics",
    "category": "shop",
    "subcategory": "electronics",
    "latitude": 24.9173678,
    "longitude": 67.0122105,
    "id": 5098124074
  },
  {
    "name": "Nippon Paints",
    "category": "office",
    "subcategory": "company",
    "latitude": 24.9163802,
    "longitude": 67.0143402,
    "id": 5098124075
  },
  {
    "name": "Friends Cotton Products",
    "category": "shop",
    "subcategory": "clothes",
    "latitude": 24.9185111,
    "longitude": 67.0135998,
    "id": 5098124076
  },
  {
    "name": "Awais Karni Masjid",
    "category": "amenity",
    "subcategory": "place_of_worship",
    "latitude": 24.963089,
    "longitude": 66.9944352,
    "id": 5098145981
  },
  {
    "name": "Galaxy Garden",
    "category": "amenity",
    "subcategory": "community_centre",
    "latitude": 24.964126,
    "longitude": 66.9941155,
    "id": 5098145983
  },
  {
    "name": "M R Computers 2",
    "category": "shop",
    "subcategory": "computer",
    "latitude": 24.9643255,
    "longitude": 66.9940388,
    "id": 5098241755
  },
  {
    "name": "sami&Ayaz general store",
    "category": "shop",
    "subcategory": "supermarket",
    "latitude": 24.9647239,
    "longitude": 66.9956733,
    "id": 5098241756
  },
  {
    "name": "Pak American English Language Center",
    "category": "office",
    "subcategory": "educational_institution",
    "latitude": 24.9655421,
    "longitude": 66.9937177,
    "id": 5098241757
  },
  {
    "name": "Masjid Gulshan E attar",
    "category": "amenity",
    "subcategory": "place_of_worship",
    "latitude": 24.9653592,
    "longitude": 66.9928789,
    "id": 5098241758
  },
  {
    "name": "Suhag Lawn",
    "category": "amenity",
    "subcategory": "community_centre",
    "latitude": 24.9667805,
    "longitude": 66.9933213,
    "id": 5098241759
  },
  {
    "name": "CNG Station",
    "category": "amenity",
    "subcategory": "fuel",
    "latitude": 24.9676532,
    "longitude": 66.9930912,
    "id": 5098241760
  },
  {
    "name": "Norwegian School",
    "category": "amenity",
    "subcategory": "school",
    "latitude": 24.9683463,
    "longitude": 66.9926878,
    "id": 5098241761
  },
  {
    "name": "Sadaf Stationary",
    "category": "shop",
    "subcategory": "stationery",
    "latitude": 24.9697515,
    "longitude": 66.9925238,
    "id": 5098274617
  },
  {
    "name": "Pre Grammar School",
    "category": "amenity",
    "subcategory": "school",
    "latitude": 24.9695475,
    "longitude": 66.9918547,
    "id": 5098274618
  },
  {
    "name": "Al Basit Lawn",
    "category": "amenity",
    "subcategory": "community_centre",
    "latitude": 24.9701528,
    "longitude": 66.9927843,
    "id": 5098274619
  },
  {
    "name": "school",
    "category": "amenity",
    "subcategory": "school",
    "latitude": 24.970109,
    "longitude": 66.9924461,
    "id": 5098274620
  },
  {
    "name": "Al Rehman Air Conditoned & Fridge",
    "category": "shop",
    "subcategory": "yes",
    "latitude": 24.9713307,
    "longitude": 66.9917995,
    "id": 5098337021
  },
  {
    "name": "City garden",
    "category": "amenity",
    "subcategory": "community_centre",
    "latitude": 24.9698526,
    "longitude": 66.992862,
    "id": 5098337022
  },