[
  {
    "name": "masjd",
    "category": "amenity",
    "subcategory": "place_of_worship",
    "latitude": 34.1417111,
    "longitude": 71.7759234,
    "id": 6218045786
  },
  {
    "name": "Alrehman CNG",
    "category": "amenity",
    "subcategory": "fuel",
    "latitude": 34.1256476,
    "longitude": 71.782969,
    "id": 6625458488
  },
  {
    "name": "Shop & save supermarket",
    "category": "shop",
    "subcategory": "supermarket",
    "latitude": 34.1257352,
    "longitude": 71.7831373,
    "id": 6625478285
  },
  {
    "name": "Haider CNG",
    "category": "amenity",
    "subcategory": "fuel",
    "latitude": 34.1243792,
    "longitude": 71.782771,
    "id": 6625478385
  },
  {
    "name": "Hashtnaghar CNG",
    "category": "amenity",
    "subcategory": "fuel",
    "latitude": 34.1350979,
    "longitude": 71.7703035,
    "id": 6627300586
  },
  {
    "name": "Charsadda NB",
    "category": "amenity",
    "subcategory": "weighbridge",
    "latitude": 34.117037,
    "longitude": 71.795106,
    "id": 10768192029
  },
  {
    "name": "Charsadda SB",
    "category": "amenity",
    "subcategory": "weighbridge",
    "latitude": 34.1222632,
    "longitude": 71.7848127,
    "id": 10768192082
  },
  {
    "name": "khalid traders",
    "category": "shop",
    "subcategory": "supermarket",
    "latitude": 34.0887318,
    "longitude": 71.8291461,
    "id": 11431743173
  }
]