[
  {
    "name": "Govt High School Manhala",
    "category": "amenity",
    "subcategory": "language_school",
    "latitude": 31.5323205,
    "longitude": 74.5439299,
    "id": 3840651157
  },
  {
    "name": "Basic Health Unit (BHU), Chappa, Lahore",
    "category": "amenity",
    "subcategory": "hospital",
    "latitude": 31.5660149,
    "longitude": 74.5208351,
    "id": 3940059891
  },
  {
    "name": "Basic Health Unit Manhala",
    "category": "amenity",
    "subcategory": "hospital",
    "latitude": 31.52586,
    "longitude": 74.5436797,
    "id": 3940075845
  },
  {
    "name": "Sati Smadh Mata Manhala",
    "category": "amenity",
    "subcategory": "place_of_worship",
    "latitude": 31.5292608,
    "longitude": 74.5416743,
    "id": 13463513026
  },
  {
    "name": "Askar Petrol Pump",
    "category": "amenity",
    "subcategory": "fuel",
    "latitude": 31.5333474,
    "longitude": 74.5402548,
    "id": 13478881126
  },
  {
    "name": "Zoom Petrol Pump",
    "category": "amenity",
    "subcategory": "fuel",
    "latitude": 31.5355192,
    "longitude": 74.5385312,
    "id": 13478881127
  },
  {
    "name": "Govt Primary School Manhala Khurd",
    "category": "amenity",
    "subcategory": "language_school",
    "latitude": 31.5260509,
    "longitude": 74.5461549,
    "id": 13479108970
  },
  {
    "name": "Govt Higher Secondary School Manhala (Grils)",
    "category": "amenity",
    "subcategory": "language_school",
    "latitude": 31.5291549,
    "longitude": 74.5426753,
    "id": 13479112131
  },
  {
    "name": "Govt Veterinary Hospital Manhala",
    "category": "amenity",
    "subcategory": "veterinary",
    "latitude": 31.5251799,
    "longitude": 74.5388816,
    "id": 13479137012
  },
  {
    "name": "Askar Petrol Pump",
    "category": "amenity",
    "subcategory": "fuel",
    "latitude": 31.5481044,
    "longitude": 74.5256531,
    "id": 13479149478
  },
  {
    "name": "Petroleum Petrol Pump",
    "category": "amenity",
    "subcategory": "fuel",
    "latitude": 31.5550358,
    "longitude": 74.5194142,
    "id": 13479149479
  },
  {
    "name": "Manhala Stadium",
    "category": "leisure",
    "subcategory": "stadium",
    "latitude": 31.5324194,
    "longitude": 74.5454095,
    "id": 13495877262
  },
  {
    "name": "Manhala Police Station",
    "category": "amenity",
    "subcategory": "police",
    "latitude": 31.5309421,
    "longitude": 74.545235,
    "id": 13509506091
  },
  {
    "name": "Taqiya Mare Shah Masjid",
    "category": "amenity",
    "subcategory": "place_of_worship",
    "latitude": 31.5303229,
    "longitude": 74.5458947,
    "id": 13509506092
  },
  {
    "name": "Haji Dairy Farm",
    "category": "shop",
    "subcategory": "dairy",
    "latitude": 31.5247093,
    "longitude": 74.5275553,
    "id": 13513788579
  },
  {
    "name": "Manhala Bus Stand",
    "category": "amenity",
    "subcategory": "bus_station",
    "latitude": 31.5309971,
    "longitude": 74.543001,
    "id": 13525554098
  },
  {
    "name": "Bazar Wali Masjid",
    "category": "amenity",
    "subcategory": "place_of_worship",
    "latitude": 31.5280345,
    "longitude": 74.5434735,
    "id": 13526550559
  },
  {
    "name": "Juttan Wali Masjid",
    "category": "amenity",
    "subcategory": "place_of_worship",
    "latitude": 31.5260713,
    "longitude": 74.5407372,
    "id": 13526550560
  },
  {
    "name": "Gurudwara Baba Baloo Hasna",
    "category": "amenity",
    "subcategory": "place_of_worship",
    "latitude": 31.5266951,
    "longitude": 74.5428659,
    "id": 13526550561
  },
  {
    "name": "Sindh Bank Manhala",
    "category": "amenity",
    "subcategory": "bank",
    "latitude": 31.5311737,
    "longitude": 74.5422958,
    "id": 13526574806
  },
  {
    "name": "Govt Primary School Manhala Kalan",
    "category": "amenity",
    "subcategory": "school",
    "latitude": 31.5329467,
    "longitude": 74.5414226,
    "id": 13526574807
  },
  {
    "name": "Manhala Shahi Masjid",
    "category": "amenity",
    "subcategory": "place_of_worship",
    "latitude": 31.5312512,
    "longitude": 74.5444286,
    "id": 13526597362
  },
  {
    "name": "Dera Saith Nisar",
    "category": "leisure",
    "subcategory": "park",
    "latitude": 31.5371416,
    "longitude": 74.5360959,
    "id": 13588788029
  },
  {
    "name": "Gurudwara Sandhawalia",
    "category": "amenity",
    "subcategory": "place_of_worship",
    "latitude": 31.5612366,
    "longitude": 74.5800236,
    "id": 13598041317
  },
  {
    "name": "Ghurki Farm House",
    "category": "leisure",
    "subcategory": "resort",
    "latitude": 31.5196145,
    "longitude": 74.5581379,
    "id": 13601915184
  }
]