[
  {
    "name": "Govt College Burewala",
    "category": "amenity",
    "subcategory": "college",
    "latitude": 30.1626675,
    "longitude": 72.6786251,
    "id": 526696531
  },
  {
    "name": "Grain Market Al-Muqeet Traders 37G",
    "category": "shop",
    "subcategory": "supermarket",
    "latitude": 30.15584,
    "longitude": 72.6793117,
    "id": 526698400
  },
  {
    "name": "Govt. MC High School",
    "category": "amenity",
    "subcategory": "school",
    "latitude": 30.1624358,
    "longitude": 72.6846521,
    "id": 618587673
  },
  {
    "name": "Deewan-e-Khas",
    "category": "amenity",
    "subcategory": "restaurant",
    "latitude": 30.1476299,
    "longitude": 72.6468008,
    "id": 618587836
  },
  {
    "name": "subhan mobile",
    "category": "shop",
    "subcategory": "photo",
    "latitude": 30.1604083,
    "longitude": 72.6809166,
    "id": 4273933791
  },
  {
    "name": "Ramay Medical Store",
    "category": "amenity",
    "subcategory": "pharmacy",
    "latitude": 30.1606842,
    "longitude": 72.6720038,
    "id": 4739354424
  },
  {
    "name": "Hafiz Carpet and Foam Center",
    "category": "shop",
    "subcategory": "clothes",
    "latitude": 30.1579499,
    "longitude": 72.6836568,
    "id": 5160751121
  },
  {
    "name": "Madina Masjid",
    "category": "tourism",
    "subcategory": "attraction",
    "latitude": 30.1601514,
    "longitude": 72.6901605,
    "id": 5228371522
  },
  {
    "name": "Attok Petrol Pump",
    "category": "amenity",
    "subcategory": "fuel",
    "latitude": 30.1619743,
    "longitude": 72.7044377,
    "id": 5823751844
  },
  {
    "name": "Rehman Bedsheet and Parda Cloth",
    "category": "shop",
    "subcategory": "clothes",
    "latitude": 30.1580173,
    "longitude": 72.6836351,
    "id": 10605993405
  },
  {
    "name": "Rehman Carpet and Foam Center",
    "category": "shop",
    "subcategory": "clothes",
    "latitude": 30.1579689,
    "longitude": 72.6836337,
    "id": 11509745469
  }
]