[
  {
    "name": "Jallo Park",
    "category": "tourism",
    "subcategory": "zoo",
    "latitude": 31.5717696,
    "longitude": 74.4745342,
    "id": 2406886867
  },
  {
    "name": "Basical Health Unit, Dograi Kalan, Lahore",
    "category": "amenity",
    "subcategory": "hospital",
    "latitude": 31.5926873,
    "longitude": 74.4997202,
    "id": 3940035722
  },
  {
    "name": "Basic Health Unit (BHU), Chappa, Lahore",
    "category": "amenity",
    "subcategory": "hospital",
    "latitude": 31.5660149,
    "longitude": 74.5208351,
    "id": 3940059891
  },
  {
    "name": "Alfalah Bank, Batapur",
    "category": "amenity",
    "subcategory": "bank",
    "latitude": 31.5961659,
    "longitude": 74.4911585,
    "id": 4102342398
  },
  {
    "name": "Mecca Tower",
    "category": "shop",
    "subcategory": "department_store",
    "latitude": 31.596634,
    "longitude": 74.4996973,
    "id": 4102342400
  },
  {
    "name": "Habib Bank Limited, Batapur",
    "category": "amenity",
    "subcategory": "bank",
    "latitude": 31.5959226,
    "longitude": 74.4930625,
    "id": 4102345195
  },
  {
    "name": "United Bank Limited, Batapur",
    "category": "amenity",
    "subcategory": "bank",
    "latitude": 31.5963447,
    "longitude": 74.4928207,
    "id": 4102348594
  },
  {
    "name": "Silk Bank, Batapur",
    "category": "amenity",
    "subcategory": "bank",
    "latitude": 31.5962355,
    "longitude": 74.4918261,
    "id": 4102348595
  },
  {
    "name": "ایم سی بی بینک",
    "category": "amenity",
    "subcategory": "bank",
    "latitude": 31.5953205,
    "longitude": 74.4870601,
    "id": 4102357089
  },
  {
    "name": "Pakistan Bookshops ",
    "category": "shop",
    "subcategory": "books",
    "latitude": 31.5956914,
    "longitude": 74.4994099,
    "id": 4109147489
  },
  {
    "name": "Ch.Siraj Sabzi Mandi",
    "category": "shop",
    "subcategory": "supermarket",
    "latitude": 31.5969185,
    "longitude": 74.4986776,
    "id": 4532397089
  },
  {
    "name": "qingqi to Wagah",
    "category": "amenity",
    "subcategory": "bus_station",
    "latitude": 31.596988,
    "longitude": 74.4994839,
    "id": 4938702022
  },
  {
    "name": "Jallo Park",
    "category": "tourism",
    "subcategory": "attraction",
    "latitude": 31.5746415,
    "longitude": 74.4754935,
    "id": 5167082026
  },
  {
    "name": "Ghurki Hospital",
    "category": "amenity",
    "subcategory": "hospital",
    "latitude": 31.5900053,
    "longitude": 74.5020634,
    "id": 5255424739
  },
  {
    "name": "Laraka Panja",
    "category": "tourism",
    "subcategory": "guest_house",
    "latitude": 31.5706903,
    "longitude": 74.4528043,
    "id": 5514545422
  },
  {
    "name": "ٹوٹل",
    "category": "amenity",
    "subcategory": "fuel",
    "latitude": 31.59294,
    "longitude": 74.4655156,
    "id": 6197259934
  },
  {
    "name": "Lakkan Shrine",
    "category": "amenity",
    "subcategory": "place_of_worship",
    "latitude": 31.6077189,
    "longitude": 74.5135253,
    "id": 7113975773
  },
  {
    "name": "Jamia Masjid Tulspura",
    "category": "amenity",
    "subcategory": "place_of_worship",
    "latitude": 31.5821108,
    "longitude": 74.4599314,
    "id": 8851381919
  },
  {
    "name": "New Apostolic",
    "category": "amenity",
    "subcategory": "place_of_worship",
    "latitude": 31.5813698,
    "longitude": 74.4590608,
    "id": 8851381920
  },
  {
    "name": "Shrine of Hazrat Sakhi Sultan Baba Jani Sarkar Allah Walay",
    "category": "amenity",
    "subcategory": "place_of_worship",
    "latitude": 31.5799048,
    "longitude": 74.461384,
    "id": 8851381921
  },
  {
    "name": "Al-Khair Estate & Developers",
    "category": "shop",
    "subcategory": "estate_agent",
    "latitude": 31.6037532,
    "longitude": 74.4938351,
    "id": 9699139111
  },
  {
    "name": "Bata",
    "category": "shop",
    "subcategory": "shoes",
    "latitude": 31.595893,
    "longitude": 74.4927309,
    "id": 10211414076
  },
  {
    "name": "Bata Shoe Mela",
    "category": "shop",
    "subcategory": "shoes",
    "latitude": 31.595949,
    "longitude": 74.4933414,
    "id": 10211414077
  },
  {
    "name": "Husnain Traders",
    "category": "shop",
    "subcategory": "trade",
    "latitude": 31.5830132,
    "longitude": 74.458406,
    "id": 12045976097
  },
  {
    "name": "Butt Sweets",
    "category": "shop",
    "subcategory": "bakery",
    "latitude": 31.5803133,
    "longitude": 74.466094,
    "id": 12045991866
  },
  {
    "name": "Ohamza",
    "category": "shop",
    "subcategory": "supermarket",
    "latitude": 31.5788435,
    "longitude": 74.4647553,
    "id": 13631182508
  },
  {
    "name": "Sozo Thrill & Adventure Park",
    "category": "tourism",
    "subcategory": "attraction",
    "latitude": 31.5725387,
    "longitude": 74.4639555,
    "id": 13956880599
  }
]