[
  {
    "name": "لوئر ٹوپہ",
    "category": "place",
    "subcategory": "village",
    "latitude": 33.8975996,
    "longitude": 73.4317336,
    "id": 2466324565
  },
  {
    "name": "Sozo Adventure Park",
    "category": "tourism",
    "subcategory": "attraction",
    "latitude": 33.8902357,
    "longitude": 73.4320592,
    "id": 2466324566
  },
  {
    "name": "parking",
    "category": "amenity",
    "subcategory": "parking",
    "latitude": 33.890787,
    "longitude": 73.432592,
    "id": 3575457095
  },
  {
    "name": "مغل آباد",
    "category": "highway",
    "subcategory": "bus_stop",
    "latitude": 33.896962,
    "longitude": 73.425016,
    "id": 4688294489
  },
  {
    "name": "McDonald's",
    "category": "amenity",
    "subcategory": "fast_food",
    "latitude": 33.8955999,
    "longitude": 73.4330042,
    "id": 12046125600
  },
  {
    "name": "PAF Officer's Mess",
    "category": "amenity",
    "subcategory": "restaurant",
    "latitude": 33.8975271,
    "longitude": 73.4327473,
    "id": 12046134326
  },
  {
    "name": "pitch",
    "category": "leisure",
    "subcategory": "pitch",
    "latitude": 33.9024752,
    "longitude": 73.4290655,
    "id": 12046148790
  },
  {
    "name": "atm",
    "category": "amenity",
    "subcategory": "atm",
    "latitude": 33.8958083,
    "longitude": 73.4327419,
    "id": 12046157300
  },
  {
    "name": "سرینگر ہائی وے",
    "category": "highway",
    "subcategory": "trunk",
    "latitude": 33.89139860909091,
    "longitude": 73.42563343496504,
    "id": 238407919
  },
  {
    "name": "سرینگر ہائی وے",
    "category": "highway",
    "subcategory": "trunk",
    "latitude": 33.88410598850575,
    "longitude": 73.43304174367816,
    "id": 238412436
  },
  {
    "name": "سرینگر ہائی وے",
    "category": "highway",
    "subcategory": "trunk",
    "latitude": 33.88119338347107,
    "longitude": 73.43186307933885,
    "id": 238412438
  },
  {
    "name": "سرینگر ہائی وے",
    "category": "highway",
    "subcategory": "trunk",
    "latitude": 33.894360750000004,
    "longitude": 73.43330035,
    "id": 238412440
  },
  {
    "name": "Muzaffarabad Road",
    "category": "highway",
    "subcategory": "primary",
    "latitude": 33.90469019251337,
    "longitude": 73.42785427433155,
    "id": 288854894
  },
  {
    "name": "عباسی کالونی روڈ",
    "category": "highway",
    "subcategory": "secondary",
    "latitude": 33.88921104418605,
    "longitude": 73.43166962093024,
    "id": 288854895
  },
  {
    "name": "trunk_link",
    "category": "highway",
    "subcategory": "trunk_link",
    "latitude": 33.89531853333333,
    "longitude": 73.43281004,
    "id": 288994081
  },
  {
    "name": "سرینگر ہائی وے",
    "category": "highway",
    "subcategory": "trunk",
    "latitude": 33.92156720699301,
    "longitude": 73.45250757039626,
    "id": 351711603
  },
  {
    "name": "residential",
    "category": "highway",
    "subcategory": "residential",
    "latitude": 33.89902720892857,
    "longitude": 73.43161401428571,
    "id": 699798199
  },
  {
    "name": "Jhika Gali Link Road",
    "category": "highway",
    "subcategory": "unclassified",
    "latitude": 33.899937414130434,
    "longitude": 73.42571976304347,
    "id": 704079991
  },
  {
    "name": "path",
    "category": "highway",
    "subcategory": "path",
    "latitude": 33.89727826666667,
    "longitude": 73.42474573333332,
    "id": 914654232
  },
  {
    "name": "path",
    "category": "highway",
    "subcategory": "path",
    "latitude": 33.8973485,
    "longitude": 73.42508972499999,
    "id": 914654233
  },
  {
    "name": "path",
    "category": "highway",
    "subcategory": "path",
    "latitude": 33.897719933333335,
    "longitude": 73.42486443333333,
    "id": 914654234
  },
  {
    "name": "path",
    "category": "highway",
    "subcategory": "path",
    "latitude": 33.89786278333333,
    "longitude": 73.42519209999999,
    "id": 914654235
  },
  {
    "name": "path",
    "category": "highway",
    "subcategory": "path",
    "latitude": 33.897169680000005,
    "longitude": 73.42592333,
    "id": 914654236
  },
  {
    "name": "path",
    "category": "highway",
    "subcategory": "path",
    "latitude": 33.89702855714285,
    "longitude": 73.42549674285715,
    "id": 914654237
  },
  {
    "name": "مغل آباد",
    "category": "place",
    "subcategory": "village",
    "latitude": 33.89678528636364,
    "longitude": 73.4256410909091,
    "id": 914656107
  },
  {
    "name": "unclassified",
    "category": "highway",
    "subcategory": "unclassified",
    "latitude": 33.88666161036585,
    "longitude": 73.44215831463414,
    "id": 1143512660
  },
  {
    "name": "unclassified",
    "category": "highway",
    "subcategory": "unclassified",
    "latitude": 33.895936151196175,
    "longitude": 73.43871374736842,
    "id": 1143512661
  },
  {
    "name": "unclassified",
    "category": "highway",
    "subcategory": "unclassified",
    "latitude": 33.89098686589148,
    "longitude": 73.42487954418606,
    "id": 1143659163
  },
  {
    "name": "سرینگر ہائی وے",
    "category": "highway",
    "subcategory": "trunk",
    "latitude": 33.888248485714286,
    "longitude": 73.4259661255102,
    "id": 1161146249
  },
  {
    "name": "service",
    "category": "highway",
    "subcategory": "service",
    "latitude": 33.8979031,
    "longitude": 73.43228020000001,
    "id": 1161146252
  },
  {
    "name": "service",
    "category": "highway",
    "subcategory": "service",
    "latitude": 33.89782218333333,
    "longitude": 73.43155618333333,
    "id": 1161146253
  },
  {
    "name": "service",
    "category": "highway",
    "subcategory": "service",
    "latitude": 33.897963644444445,
    "longitude": 73.43117513333333,
    "id": 1161146254
  },
  {
    "name": "service",
    "category": "highway",
    "subcategory": "service",
    "latitude": 33.8963219,
    "longitude": 73.43150332,
    "id": 1161146255
  },
  {
    "name": "service",
    "category": "highway",
    "subcategory": "service",
    "latitude": 33.89250577,
    "longitude": 73.43378211000001,
    "id": 1161455743
  },
  {
    "name": "footway",
    "category": "highway",
    "subcategory": "footway",
    "latitude": 33.896183419047624,
    "longitude": 73.43294818571428,
    "id": 1161455744
  },
  {
    "name": "مغل آباد",
    "category": "place",
    "subcategory": "village",
    "latitude": 33.89684000454545,
    "longitude": 73.42561353181817,
    "id": 914656107
  },
  {
    "name": "residential",
    "category": "landuse",
    "subcategory": "residential",
    "latitude": 33.89998094901961,
    "longitude": 73.43148067647058,
    "id": 19617243
  },
  {
    "name": "wood",
    "category": "natural",
    "subcategory": "wood",
    "latitude": 33.8754873372796,
    "longitude": 73.4079281372796,
    "id": 19620133
  }
]