[
  {
    "name": "Habib Bank Limited",
    "category": "amenity",
    "subcategory": "atm",
    "latitude": 32.1248849,
    "longitude": 73.5522042,
    "id": 11307605003
  },
  {
    "name": "گورنمنٹ رورل ہیلتھ ڈسپنسری علی آباد",
    "category": "amenity",
    "subcategory": "hospital",
    "latitude": 32.0984088,
    "longitude": 73.5307603,
    "id": 11506526287
  },
  {
    "name": "Post Office Aliabad",
    "category": "amenity",
    "subcategory": "post_office",
    "latitude": 32.0985219,
    "longitude": 73.5309055,
    "id": 11584263284
  },
  {
    "name": "Play Ground Aliabad",
    "category": "leisure",
    "subcategory": "pitch",
    "latitude": 32.0989221,
    "longitude": 73.5307372,
    "id": 11584263285
  },
  {
    "name": "جامعہ مسجد ٹھٹھہ چھینہ",
    "category": "amenity",
    "subcategory": "place_of_worship",
    "latitude": 32.1133078,
    "longitude": 73.5230426,
    "id": 11746623407
  }
]