[
  {
    "name": "خانسر",
    "category": "place",
    "subcategory": "village",
    "latitude": 31.657361,
    "longitude": 71.3268829,
    "id": 4294645196
  },
  {
    "name": "Koray Wala",
    "category": "place",
    "subcategory": "village",
    "latitude": 31.6336832,
    "longitude": 71.3141347,
    "id": 4306500387
  },
  {
    "name": "Chinjarian Ala",
    "category": "place",
    "subcategory": "village",
    "latitude": 31.6903358,
    "longitude": 71.3533416,
    "id": 4306500694
  },
  {
    "name": "خان محمد والہ",
    "category": "place",
    "subcategory": "village",
    "latitude": 31.6929967,
    "longitude": 71.3436629,
    "id": 4306500695
  },
  {
    "name": "Naurang Wala",
    "category": "place",
    "subcategory": "village",
    "latitude": 31.6712519,
    "longitude": 71.3358624,
    "id": 4306500696
  },
  {
    "name": "جعفروالا",
    "category": "place",
    "subcategory": "town",
    "latitude": 31.662331,
    "longitude": 71.3359635,
    "id": 4306500697
  },
  {
    "name": "Bakhtawar Wala",
    "category": "place",
    "subcategory": "village",
    "latitude": 31.6579841,
    "longitude": 71.3355272,
    "id": 4306500698
  },
  {
    "name": "مرید والا",
    "category": "place",
    "subcategory": "town",
    "latitude": 31.6613875,
    "longitude": 71.3042489,
    "id": 4306500699
  },
  {
    "name": "Bahadar Wala",
    "category": "place",
    "subcategory": "village",
    "latitude": 31.6562065,
    "longitude": 71.3057147,
    "id": 4306500700
  },
  {
    "name": "fuel",
    "category": "amenity",
    "subcategory": "fuel",
    "latitude": 31.6539674,
    "longitude": 71.3240234,
    "id": 4318739113
  },
  {
    "name": "189/TDA",
    "category": "place",
    "subcategory": "village",
    "latitude": 31.691795,
    "longitude": 71.3595536,
    "id": 4318739115
  },
  {
    "name": "وادی نمل ہوٹل خانسر",
    "category": "tourism",
    "subcategory": "hotel",
    "latitude": 31.6536567,
    "longitude": 71.3239164,
    "id": 4318739123
  },
  {
    "name": "Shahzaadian",
    "category": "place",
    "subcategory": "village",
    "latitude": 31.6311552,
    "longitude": 71.3489863,
    "id": 4318739125
  },
  {
    "name": "Lashkranian Wala",
    "category": "place",
    "subcategory": "village",
    "latitude": 31.6634741,
    "longitude": 71.3290645,
    "id": 10751907764
  },
  {
    "name": "مزار طوطا شاہ",
    "category": "historic",
    "subcategory": "tomb",
    "latitude": 31.6904854,
    "longitude": 71.3477908,
    "id": 10751907766
  },
  {
    "name": "گھلوانوالہ",
    "category": "place",
    "subcategory": "village",
    "latitude": 31.7017703,
    "longitude": 71.3550938,
    "id": 10751907767
  },
  {
    "name": "Gighi Minor",
    "category": "highway",
    "subcategory": "unclassified",
    "latitude": 31.646162986666663,
    "longitude": 71.38166129999999,
    "id": 72844185
  },
  {
    "name": "unclassified",
    "category": "highway",
    "subcategory": "unclassified",
    "latitude": 31.68163286,
    "longitude": 71.37087232,
    "id": 72844186
  },
  {
    "name": "unclassified",
    "category": "highway",
    "subcategory": "unclassified",
    "latitude": 31.73254915555556,
    "longitude": 71.38472075555555,
    "id": 72844191
  },
  {
    "name": "secondary",
    "category": "highway",
    "subcategory": "secondary",
    "latitude": 31.652772815384616,
    "longitude": 71.2969323,
    "id": 72844193
  },
  {
    "name": "میانوالی - مظفر گڑھ سڑک‎",
    "category": "highway",
    "subcategory": "trunk",
    "latitude": 31.624014336842105,
    "longitude": 71.30224204210526,
    "id": 93416839
  },
  {
    "name": "میانوالی - مظفر گڑھ سڑک‎",
    "category": "highway",
    "subcategory": "trunk",
    "latitude": 31.860958954838708,
    "longitude": 71.42586445870967,
    "id": 93416931
  },
  {
    "name": "secondary",
    "category": "highway",
    "subcategory": "secondary",
    "latitude": 31.659928038888886,
    "longitude": 71.37027125555556,
    "id": 182425844
  },
  {
    "name": "secondary",
    "category": "highway",
    "subcategory": "secondary",
    "latitude": 31.65783325,
    "longitude": 71.3516716,
    "id": 182425847
  },
  {
    "name": "secondary",
    "category": "highway",
    "subcategory": "secondary",
    "latitude": 31.65719787,
    "longitude": 71.33746767333334,
    "id": 182425852
  },
  {
    "name": "secondary",
    "category": "highway",
    "subcategory": "secondary",
    "latitude": 31.655198940000002,
    "longitude": 71.31712012,
    "id": 182425861
  },
  {
    "name": "unclassified",
    "category": "highway",
    "subcategory": "unclassified",
    "latitude": 31.718425878947368,
    "longitude": 71.32557919298246,
    "id": 241871427
  },
  {
    "name": "میانوالی - مظفر گڑھ سڑک‎",
    "category": "highway",
    "subcategory": "trunk",
    "latitude": 31.665321300000002,
    "longitude": 71.332098925,
    "id": 305799562
  },
  {
    "name": "میانوالی - مظفر گڑھ سڑک‎",
    "category": "highway",
    "subcategory": "trunk",
    "latitude": 31.656515249999998,
    "longitude": 71.32546145,
    "id": 305799564
  },
  {
    "name": "میانوالی - مظفر گڑھ سڑک‎",
    "category": "highway",
    "subcategory": "trunk",
    "latitude": 31.65654435,
    "longitude": 71.3256138,
    "id": 305799565
  },
  {
    "name": "میانوالی - مظفر گڑھ سڑک‎",
    "category": "highway",
    "subcategory": "trunk",
    "latitude": 31.656939866666665,
    "longitude": 71.32591966666666,
    "id": 305799566
  },
  {
    "name": "میانوالی - مظفر گڑھ سڑک‎",
    "category": "highway",
    "subcategory": "trunk",
    "latitude": 31.656911166666664,
    "longitude": 71.32574783333332,
    "id": 305799567
  },
  {
    "name": "secondary",
    "category": "highway",
    "subcategory": "secondary",
    "latitude": 31.6567873,
    "longitude": 71.32557636666667,
    "id": 305799568
  },
  {
    "name": "secondary",
    "category": "highway",
    "subcategory": "secondary",
    "latitude": 31.656704533333336,
    "longitude": 71.32552073333333,
    "id": 305799569
  },
  {
    "name": "Butti Rd",
    "category": "highway",
    "subcategory": "tertiary",
    "latitude": 31.627826016666663,
    "longitude": 71.34752155833333,
    "id": 432951642
  },
  {
    "name": "Gighi Minor",
    "category": "highway",
    "subcategory": "unclassified",
    "latitude": 31.68206995,
    "longitude": 71.37112365,
    "id": 693645707
  },
  {
    "name": "Gighi Minor",
    "category": "highway",
    "subcategory": "unclassified",
    "latitude": 31.6821178,
    "longitude": 71.37109275,
    "id": 693645708
  },
  {
    "name": "secondary",
    "category": "highway",
    "subcategory": "secondary",
    "latitude": 31.656784100000003,
    "longitude": 71.32597855,
    "id": 930743618
  },
  {
    "name": "secondary",
    "category": "highway",
    "subcategory": "secondary",
    "latitude": 31.6568386,
    "longitude": 71.32599680000001,
    "id": 930743619
  },
  {
    "name": "unclassified",
    "category": "highway",
    "subcategory": "unclassified",
    "latitude": 31.701095661111108,
    "longitude": 71.29598886944444,
    "id": 1075848367
  },
  {
    "name": "unclassified",
    "category": "highway",
    "subcategory": "unclassified",
    "latitude": 31.70827047777778,
    "longitude": 71.30736224444445,
    "id": 1075860470
  }
]