[
  {
    "name": "Lalazar Jeep Trek start here",
    "category": "tourism",
    "subcategory": "information",
    "latitude": 34.9324229,
    "longitude": 73.7720356,
    "id": 4139985889
  },
  {
    "name": "peak",
    "category": "natural",
    "subcategory": "peak",
    "latitude": 34.8990154,
    "longitude": 73.7944084,
    "id": 4852819120
  },
  {
    "name": "peak",
    "category": "natural",
    "subcategory": "peak",
    "latitude": 34.9028694,
    "longitude": 73.7807613,
    "id": 4852821821
  },
  {
    "name": "Lalazaar 3106 m above sea level",
    "category": "tourism",
    "subcategory": "attraction",
    "latitude": 34.920662,
    "longitude": 73.763785,
    "id": 5005565327
  },
  {
    "name": "MILAT HOTEL",
    "category": "tourism",
    "subcategory": "hotel",
    "latitude": 34.9262224,
    "longitude": 73.7756943,
    "id": 6634736585
  },
  {
    "name": "SAJJAD HOTEL",
    "category": "tourism",
    "subcategory": "hotel",
    "latitude": 34.9272649,
    "longitude": 73.7767696,
    "id": 6634736586
  },
  {
    "name": "TAJ PEARL CONTINENTAL HOTEL & RESTAURANT BATAKUNDI",
    "category": "tourism",
    "subcategory": "hotel",
    "latitude": 34.9275947,
    "longitude": 73.7777187,
    "id": 6634738585
  },
  {
    "name": "HOTEL FAIRY MEADOWS BATAKUNDI",
    "category": "tourism",
    "subcategory": "hotel",
    "latitude": 34.9288114,
    "longitude": 73.7771859,
    "id": 6634738586
  },
  {
    "name": "VALLE DU LAC BATAKUNDI",
    "category": "tourism",
    "subcategory": "hotel",
    "latitude": 34.9282102,
    "longitude": 73.7762473,
    "id": 6634744385
  },
  {
    "name": "SHAN CONTINENTAL HOTEL BATAKUNDI",
    "category": "tourism",
    "subcategory": "hotel",
    "latitude": 34.9292933,
    "longitude": 73.7784828,
    "id": 6634744387
  },
  {
    "name": "PANJAB TIKKA HOUSE BATAKUNDI",
    "category": "amenity",
    "subcategory": "restaurant",
    "latitude": 34.9292363,
    "longitude": 73.7767373,
    "id": 6634744388
  },
  {
    "name": "ROSS VALLEY HOTEL BATAKUNDI",
    "category": "tourism",
    "subcategory": "hotel",
    "latitude": 34.9260986,
    "longitude": 73.7799878,
    "id": 6634744389
  },
  {
    "name": "NEW LALAZAR HOTEL BATAKUNDI",
    "category": "tourism",
    "subcategory": "hotel",
    "latitude": 34.9335745,
    "longitude": 73.7710636,
    "id": 6634768285
  },
  {
    "name": "بٹہ کنڈی",
    "category": "place",
    "subcategory": "town",
    "latitude": 34.9305834,
    "longitude": 73.7774603,
    "id": 8241790120
  },
  {
    "name": "View on Nanga Parbat",
    "category": "tourism",
    "subcategory": "viewpoint",
    "latitude": 34.9206568,
    "longitude": 73.7638687,
    "id": 9772907529
  },
  {
    "name": "hotel",
    "category": "tourism",
    "subcategory": "hotel",
    "latitude": 34.9248764,
    "longitude": 73.7831914,
    "id": 9931400427
  },
  {
    "name": "hotel",
    "category": "tourism",
    "subcategory": "hotel",
    "latitude": 34.9233963,
    "longitude": 73.7837913,
    "id": 9931405125
  },
  {
    "name": "restaurant",
    "category": "amenity",
    "subcategory": "restaurant",
    "latitude": 34.9290947,
    "longitude": 73.7771022,
    "id": 9931407621
  },
  {
    "name": "Roomy Mountain View",
    "category": "tourism",
    "subcategory": "alpine_hut",
    "latitude": 34.9172075,
    "longitude": 73.8030196,
    "id": 10033499917
  },
  {
    "name": "ساہراہِ بابوسر",
    "category": "highway",
    "subcategory": "trunk",
    "latitude": 34.93223455720524,
    "longitude": 73.72505762336245,
    "id": 866736774
  },
  {
    "name": "unclassified",
    "category": "highway",
    "subcategory": "unclassified",
    "latitude": 34.92546955,
    "longitude": 73.77708195,
    "id": 866749416
  },
  {
    "name": "service",
    "category": "highway",
    "subcategory": "service",
    "latitude": 34.91661661,
    "longitude": 73.8042823,
    "id": 1008197922
  },
  {
    "name": "unclassified",
    "category": "highway",
    "subcategory": "unclassified",
    "latitude": 34.925509014285716,
    "longitude": 73.7763151,
    "id": 1097911225
  },
  {
    "name": "unclassified",
    "category": "highway",
    "subcategory": "unclassified",
    "latitude": 34.925892138461535,
    "longitude": 73.77770813846153,
    "id": 1097911227
  },
  {
    "name": "ساہراہِ بابوسر",
    "category": "highway",
    "subcategory": "trunk",
    "latitude": 34.92447385529412,
    "longitude": 73.81608270470588,
    "id": 1097911228
  },
  {
    "name": "ساہراہِ بابوسر",
    "category": "highway",
    "subcategory": "trunk",
    "latitude": 34.925922150000005,
    "longitude": 73.7767752,
    "id": 1097911229
  },
  {
    "name": "track",
    "category": "highway",
    "subcategory": "track",
    "latitude": 34.91677438235294,
    "longitude": 73.8164418,
    "id": 1223619506
  },
  {
    "name": "wood",
    "category": "natural",
    "subcategory": "wood",
    "latitude": 34.918522153846155,
    "longitude": 73.75973363076923,
    "id": 1244281956
  },
  {
    "name": "wood",
    "category": "natural",
    "subcategory": "wood",
    "latitude": 34.92628746666667,
    "longitude": 73.76810543333333,
    "id": 1244281957
  },
  {
    "name": "ridge",
    "category": "natural",
    "subcategory": "ridge",
    "latitude": 34.93670126923077,
    "longitude": 73.80417368076922,
    "id": 1463660967
  },
  {
    "name": "wood",
    "category": "natural",
    "subcategory": "wood",
    "latitude": 34.92747952941176,
    "longitude": 73.76070024598931,
    "id": 17101139
  },
  {
    "name": "wood",
    "category": "natural",
    "subcategory": "wood",
    "latitude": 34.91845205384615,
    "longitude": 73.75958917692309,
    "id": 1244281956
  },
  {
    "name": "wood",
    "category": "natural",
    "subcategory": "wood",
    "latitude": 34.92628746666667,
    "longitude": 73.76810543333333,
    "id": 1244281957
  },
  {
    "name": "wood",
    "category": "natural",
    "subcategory": "wood",
    "latitude": 34.92489635243903,
    "longitude": 73.74627326463414,
    "id": 17101140
  }
]