[
  {
    "name": "جنڈولہ",
    "category": "place",
    "subcategory": "village",
    "latitude": 32.3339941,
    "longitude": 70.1219562,
    "id": 1740990742
  },
  {
    "name": "Jandola Hosp",
    "category": "amenity",
    "subcategory": "hospital",
    "latitude": 32.3356394,
    "longitude": 70.1252215,
    "id": 1741002364
  },
  {
    "name": "Jandola PO",
    "category": "amenity",
    "subcategory": "post_office",
    "latitude": 32.3365096,
    "longitude": 70.1223033,
    "id": 1741002372
  },
  {
    "name": "SPSC",
    "category": "amenity",
    "subcategory": "school",
    "latitude": 32.3370898,
    "longitude": 70.1221316,
    "id": 1741007463
  },
  {
    "name": "Jandola-Chagmalai Road",
    "category": "highway",
    "subcategory": "primary",
    "latitude": 32.3257677883871,
    "longitude": 70.12787865806452,
    "id": 194820740
  },
  {
    "name": "primary",
    "category": "highway",
    "subcategory": "primary",
    "latitude": 32.33858485416667,
    "longitude": 70.11542122499999,
    "id": 320464233
  },
  {
    "name": "residential",
    "category": "highway",
    "subcategory": "residential",
    "latitude": 32.331060666666666,
    "longitude": 70.11400311666667,
    "id": 968464912
  },
  {
    "name": "unclassified",
    "category": "highway",
    "subcategory": "unclassified",
    "latitude": 32.33441525,
    "longitude": 70.11214940625,
    "id": 969461103
  },
  {
    "name": "unclassified",
    "category": "highway",
    "subcategory": "unclassified",
    "latitude": 32.3250406027027,
    "longitude": 70.12431675945946,
    "id": 969461104
  },
  {
    "name": "unclassified",
    "category": "highway",
    "subcategory": "unclassified",
    "latitude": 32.330882392,
    "longitude": 70.11945218,
    "id": 969461106
  }
]