[
  {
    "name": "Rest House",
    "category": "tourism",
    "subcategory": "hotel",
    "latitude": 34.8211923,
    "longitude": 74.3487655,
    "id": 3562436541
  },
  {
    "name": "orient hotel",
    "category": "tourism",
    "subcategory": "hotel",
    "latitude": 34.8233282,
    "longitude": 74.3480061,
    "id": 7140987387
  },
  {
    "name": "سول ہسپتال",
    "category": "amenity",
    "subcategory": "hospital",
    "latitude": 34.8251224,
    "longitude": 74.3554998,
    "id": 8347370560
  },
  {
    "name": "Titanic Guest House",
    "category": "tourism",
    "subcategory": "guest_house",
    "latitude": 34.8085043,
    "longitude": 74.3508282,
    "id": 8910830718
  },
  {
    "name": "Wanderlust Chapter 1",
    "category": "leisure",
    "subcategory": "resort",
    "latitude": 34.8104354,
    "longitude": 74.3510079,
    "id": 9889968377
  }
]