[
  {
    "name": "اکبر مسجد",
    "category": "amenity",
    "subcategory": "place_of_worship",
    "latitude": 32.1288294,
    "longitude": 74.206891,
    "id": 2192381732
  },
  {
    "name": "Madina-Tul-Bashir Mosque",
    "category": "amenity",
    "subcategory": "place_of_worship",
    "latitude": 32.1300869,
    "longitude": 74.2105135,
    "id": 2192396861
  },
  {
    "name": "Hospital",
    "category": "amenity",
    "subcategory": "school",
    "latitude": 32.1294761,
    "longitude": 74.2078846,
    "id": 2192541481
  },
  {
    "name": "Govt. Primary School",
    "category": "amenity",
    "subcategory": "school",
    "latitude": 32.1298053,
    "longitude": 74.2078471,
    "id": 2192541488
  },
  {
    "name": "Govt. Middle School Girls",
    "category": "amenity",
    "subcategory": "school",
    "latitude": 32.1294646,
    "longitude": 74.2088824,
    "id": 2192555512
  },
  {
    "name": "Play Grounds",
    "category": "leisure",
    "subcategory": "playground",
    "latitude": 32.1295011,
    "longitude": 74.2084747,
    "id": 2192555515
  },
  {
    "name": "Irshad Super Store",
    "category": "amenity",
    "subcategory": "cafe",
    "latitude": 32.1301301,
    "longitude": 74.2079275,
    "id": 2192558440
  },
  {
    "name": "نیو ہورائزن اسکول",
    "category": "amenity",
    "subcategory": "school",
    "latitude": 32.1301142,
    "longitude": 74.2098483,
    "id": 2192600903
  },
  {
    "name": "Malik Bakery",
    "category": "shop",
    "subcategory": "bakery",
    "latitude": 32.1292462,
    "longitude": 74.2078102,
    "id": 2192629808
  },
  {
    "name": "Shaikupura Morr",
    "category": "amenity",
    "subcategory": "bus_station",
    "latitude": 32.1477736,
    "longitude": 74.1912037,
    "id": 2897375021
  },
  {
    "name": "Government College for Girls",
    "category": "amenity",
    "subcategory": "college",
    "latitude": 32.1743433,
    "longitude": 74.1751483,
    "id": 2911301703
  },
  {
    "name": "Sialkot Ada",
    "category": "amenity",
    "subcategory": "bus_station",
    "latitude": 32.1594006,
    "longitude": 74.1904009,
    "id": 2911480979
  },
  {
    "name": "Kashmir Mehal",
    "category": "amenity",
    "subcategory": "cinema",
    "latitude": 32.1590869,
    "longitude": 74.190237,
    "id": 2911480980
  },
  {
    "name": "PSO Police Welfare Filling Station",
    "category": "amenity",
    "subcategory": "fuel",
    "latitude": 32.1625306,
    "longitude": 74.192723,
    "id": 2928425059
  },
  {
    "name": "Ghulam Dastgir Fuel Station",
    "category": "amenity",
    "subcategory": "fuel",
    "latitude": 32.1432553,
    "longitude": 74.1926316,
    "id": 2961569256
  },
  {
    "name": "Satellite Town Market",
    "category": "shop",
    "subcategory": "mall",
    "latitude": 32.1633387,
    "longitude": 74.2033795,
    "id": 2963708804
  },
  {
    "name": "CNG Station",
    "category": "amenity",
    "subcategory": "fuel",
    "latitude": 32.1844137,
    "longitude": 74.1815015,
    "id": 3055461725
  },
  {
    "name": "CNG Station",
    "category": "amenity",
    "subcategory": "fuel",
    "latitude": 32.1802603,
    "longitude": 74.1826847,
    "id": 3059206904
  },
  {
    "name": "CNG Station",
    "category": "amenity",
    "subcategory": "fuel",
    "latitude": 32.1706362,
    "longitude": 74.1856685,
    "id": 3059270055
  },
  {
    "name": "Municipal Coorporation",
    "category": "amenity",
    "subcategory": "townhall",
    "latitude": 32.1474504,
    "longitude": 74.1927953,
    "id": 3094980496
  },
  {
    "name": "Trust Plaza",
    "category": "shop",
    "subcategory": "mall",
    "latitude": 32.1740926,
    "longitude": 74.1833858,
    "id": 3096048894
  },
  {
    "name": "Government College boys",
    "category": "amenity",
    "subcategory": "college",
    "latitude": 32.1608113,
    "longitude": 74.2037414,
    "id": 3232328122
  },
  {
    "name": "یونائیٹڈ بینک لمیٹڈ",
    "category": "amenity",
    "subcategory": "bank",
    "latitude": 32.1616601,
    "longitude": 74.1787454,
    "id": 4158499289
  },
  {
    "name": "یونائیٹڈ بینک لمیٹڈ",
    "category": "amenity",
    "subcategory": "bank",
    "latitude": 32.157007,
    "longitude": 74.1758174,
    "id": 4158499389
  },
  {
    "name": "UBL Regional HQs",
    "category": "amenity",
    "subcategory": "bank",
    "latitude": 32.1789289,
    "longitude": 74.1830777,
    "id": 4158507890
  },
  {
    "name": "یونائیٹڈ بینک لمیٹڈ",
    "category": "amenity",
    "subcategory": "bank",
    "latitude": 32.1684748,
    "longitude": 74.1872259,
    "id": 4158709493
  },
  {
    "name": "یونائیٹڈ بینک لمیٹڈ",
    "category": "amenity",
    "subcategory": "bank",
    "latitude": 32.1845787,
    "longitude": 74.1878181,
    "id": 4158744392
  },
  {
    "name": "یونائیٹڈ بینک لمیٹڈ",
    "category": "amenity",
    "subcategory": "bank",
    "latitude": 32.1531109,
    "longitude": 74.1904679,
    "id": 4158753889
  },
  {
    "name": "یونائیٹڈ بینک لمیٹڈ",
    "category": "amenity",
    "subcategory": "bank",
    "latitude": 32.1814193,
    "longitude": 74.198746,
    "id": 4158772190
  },
  {
    "name": "Sessions Court Complex",
    "category": "amenity",
    "subcategory": "courthouse",
    "latitude": 32.1717774,
    "longitude": 74.1982636,
    "id": 4235045489
  },
  {
    "name": "MCB Islamic Bank Limited",
    "category": "amenity",
    "subcategory": "bank",
    "latitude": 32.1825667,
    "longitude": 74.1820176,
    "id": 4426017990
  },
  {
    "name": "Saint Joseph Church",
    "category": "amenity",
    "subcategory": "place_of_worship",
    "latitude": 32.1552533,
    "longitude": 74.1636939,
    "id": 4427307595
  },
  {
    "name": "Govt PB Model High School",
    "category": "amenity",
    "subcategory": "school",
    "latitude": 32.1545153,
    "longitude": 74.1670574,
    "id": 4427307599
  },
  {
    "name": "DHQ Hospital Civil Hospital Gujranwala",
    "category": "amenity",
    "subcategory": "hospital",
    "latitude": 32.168777,
    "longitude": 74.1921142,
    "id": 4469614489
  },
  {
    "name": "4Star Rent A Car",
    "category": "amenity",
    "subcategory": "car_rental",
    "latitude": 32.1856274,
    "longitude": 74.2074905,
    "id": 4506575389
  },
  {
    "name": "بینک الفلاح",
    "category": "amenity",
    "subcategory": "bank",
    "latitude": 32.1379757,
    "longitude": 74.1851678,
    "id": 4527304217
  },
  {
    "name": "awan chowk",
    "category": "shop",
    "subcategory": "bakery",
    "latitude": 32.1392219,
    "longitude": 74.1536251,
    "id": 4530009008
  },
  {
    "name": "Al-Raee Hospiatl",
    "category": "amenity",
    "subcategory": "hospital",
    "latitude": 32.1514271,
    "longitude": 74.1735031,
    "id": 4537330493
  },
  {
    "name": "Nayyer Stainless Steel Industry",
    "category": "tourism",
    "subcategory": "artwork",
    "latitude": 32.1570447,
    "longitude": 74.1752701,
    "id": 4567356889
  },
  {
    "name": "Pasban Fabrics",
    "category": "shop",
    "subcategory": "clothes",
    "latitude": 32.1573323,
    "longitude": 74.1830346,
    "id": 4567356890
  },
  {
    "name": "Government Maternity Hospital",
    "category": "amenity",
    "subcategory": "hospital",
    "latitude": 32.163555,
    "longitude": 74.2028699,
    "id": 4574595191
  },
  {
    "name": "University of Sargodha Gujranwala Campus",
    "category": "amenity",
    "subcategory": "school",
    "latitude": 32.1896479,
    "longitude": 74.2230706,
    "id": 4578599789
  },
  {
    "name": "Raza Abad",
    "category": "amenity",
    "subcategory": "pub",
    "latitude": 32.1690607,
    "longitude": 74.1555616,
    "id": 4579580397
  },
  {
    "name": "Sufi G khoy walay mutton Chanay",
    "category": "amenity",
    "subcategory": "cafe",
    "latitude": 32.1667735,
    "longitude": 74.2060712,
    "id": 4579621298
  },
  {
    "name": "Rahat Dental and Health Care",
    "category": "amenity",
    "subcategory": "clinic",
    "latitude": 32.1679524,
    "longitude": 74.2025038,
    "id": 4579980693
  },
  {
    "name": "alflah electric store",
    "category": "shop",
    "subcategory": "electronics",
    "latitude": 32.1157799,
    "longitude": 74.191057,
    "id": 4585111851
  },
  {
    "name": "Madina Colony Street # 10, Gujranwala",
    "category": "amenity",
    "subcategory": "courthouse",
    "latitude": 32.1889116,
    "longitude": 74.191385,
    "id": 4594064094
  },
  {
    "name": "پیزا کلب",
    "category": "amenity",
    "subcategory": "fast_food",
    "latitude": 32.1733177,
    "longitude": 74.177789,
    "id": 4596328423
  },
  {
    "name": "Sidique Sadaq Hospital",
    "category": "amenity",
    "subcategory": "hospital",
    "latitude": 32.135364,
    "longitude": 74.1842382,
    "id": 4648133189
  },
  {
    "name": "ghusia beauty parlour",
    "category": "shop",
    "subcategory": "cosmetics",
    "latitude": 32.1761914,
    "longitude": 74.1666795,
    "id": 4699591490
  },
  {
    "name": "Pizza Paza & Cafe",
    "category": "amenity",
    "subcategory": "fast_food",
    "latitude": 32.1615555,
    "longitude": 74.2016923,
    "id": 4701023094
  },
  {
    "name": "Alama Iqbal Open University Regional Campus Gujranwala",
    "category": "amenity",
    "subcategory": "school",
    "latitude": 32.1355366,
    "longitude": 74.2051155,
    "id": 4701088490
  },
  {
    "name": "Recipes",
    "category": "amenity",
    "subcategory": "fast_food",
    "latitude": 32.1738458,
    "longitude": 74.2002553,
    "id": 4756629222
  },
  {
    "name": "The Leather Home",
    "category": "shop",
    "subcategory": "clothes",
    "latitude": 32.1741544,
    "longitude": 74.1846149,
    "id": 4804290718
  },
  {
    "name": "Chaman Ice Cream",
    "category": "amenity",
    "subcategory": "ice_cream",
    "latitude": 32.1740918,
    "longitude": 74.1845348,
    "id": 4804290719
  },
  {
    "name": "Pizza Cottage",
    "category": "amenity",
    "subcategory": "restaurant",
    "latitude": 32.1738962,
    "longitude": 74.1845872,
    "id": 4804290720
  },
  {
    "name": "TCS",
    "category": "amenity",
    "subcategory": "post_office",
    "latitude": 32.1739679,
    "longitude": 74.1846365,
    "id": 4804291721
  },
  {
    "name": "National Tours",
    "category": "shop",
    "subcategory": "travel_agency",
    "latitude": 32.1739066,
    "longitude": 74.1843345,
    "id": 4804291722
  },
  {
    "name": "Al-Mashoor Haji Allah Rakha Tikka",
    "category": "amenity",
    "subcategory": "restaurant",
    "latitude": 32.1585396,
    "longitude": 74.1891833,
    "id": 4903511986
  },
  {
    "name": "Javed Iqbal Restaurant",
    "category": "amenity",
    "subcategory": "restaurant",
    "latitude": 32.1581664,
    "longitude": 74.1894156,
    "id": 4903511987
  },
  {
    "name": "Sialkot Sweets & Bakers",
    "category": "shop",
    "subcategory": "bakery",
    "latitude": 32.1588897,
    "longitude": 74.1890272,
    "id": 4903511988
  },
  {
    "name": "Bhatti Resturant",
    "category": "amenity",
    "subcategory": "restaurant",
    "latitude": 32.1607511,
    "longitude": 74.1877244,
    "id": 4903511989
  },
  {
    "name": "میزان بینک",
    "category": "amenity",
    "subcategory": "bank",
    "latitude": 32.1609301,
    "longitude": 74.1880171,
    "id": 4903511990
  },
  {
    "name": "Baby Bakery",
    "category": "shop",
    "subcategory": "bakery",
    "latitude": 32.1604016,
    "longitude": 74.1877131,
    "id": 4903511991
  },
  {
    "name": "ویسٹرن یونین",
    "category": "amenity",
    "subcategory": "money_transfer",
    "latitude": 32.16126,
    "longitude": 74.1883025,
    "id": 4903511996
  },
  {
    "name": "جے ایس بینک",
    "category": "amenity",
    "subcategory": "bank",
    "latitude": 32.1615647,
    "longitude": 74.1875882,
    "id": 4903511997
  },
  {
    "name": "ایچ بی ایل پاکستان",
    "category": "amenity",
    "subcategory": "atm",
    "latitude": 32.1619043,
    "longitude": 74.1876395,
    "id": 4903511998
  },
  {
    "name": "عسکری بینک",
    "category": "amenity",
    "subcategory": "bank",
    "latitude": 32.1615205,
    "longitude": 74.1871688,
    "id": 4903511999
  },
  {
    "name": "St. John's Church",
    "category": "amenity",
    "subcategory": "place_of_worship",
    "latitude": 32.1633563,
    "longitude": 74.1900023,
    "id": 4903512000
  },
  {
    "name": "Usmania Mosque",
    "category": "amenity",
    "subcategory": "place_of_worship",
    "latitude": 32.16423,
    "longitude": 74.1888562,
    "id": 4903512001
  },
  {
    "name": "Pakistani Hotel",
    "category": "tourism",
    "subcategory": "hotel",
    "latitude": 32.1639002,
    "longitude": 74.1876059,
    "id": 4903512006
  },
  {
    "name": "Al-Karim Baba Restaurant",
    "category": "amenity",
    "subcategory": "restaurant",
    "latitude": 32.1635701,
    "longitude": 74.1875779,
    "id": 4903512007
  },
  {
    "name": "Al-Naseeb Biryani & Catering Centre",
    "category": "amenity",
    "subcategory": "restaurant",
    "latitude": 32.1634891,
    "longitude": 74.1872113,
    "id": 4903512008
  },
  {
    "name": "Civil Baker",
    "category": "shop",
    "subcategory": "bakery",
    "latitude": 32.1643825,
    "longitude": 74.1892544,
    "id": 4903512009
  },
  {
    "name": "عسکری بینک",
    "category": "amenity",
    "subcategory": "bank",
    "latitude": 32.1657488,
    "longitude": 74.1872823,
    "id": 4903512018
  },
  {
    "name": "Jamia Masjid Noor",
    "category": "amenity",
    "subcategory": "place_of_worship",
    "latitude": 32.1660294,
    "longitude": 74.1895309,
    "id": 4903512019
  },
  {
    "name": "سونیری بینک",
    "category": "amenity",
    "subcategory": "bank",
    "latitude": 32.16635,
    "longitude": 74.1870004,
    "id": 4903512020
  },
  {
    "name": "سمٹ بینک",
    "category": "amenity",
    "subcategory": "bank",
    "latitude": 32.1664189,
    "longitude": 74.1871278,
    "id": 4903512221
  },
  {
    "name": "Working Women Development Organization (WWDO)",
    "category": "amenity",
    "subcategory": "university",
    "latitude": 32.1675363,
    "longitude": 74.1880303,
    "id": 4903512222
  },
  {
    "name": "Makki Masjid",
    "category": "amenity",
    "subcategory": "place_of_worship",
    "latitude": 32.168504,
    "longitude": 74.1879631,
    "id": 4903512223
  },
  {
    "name": "Super Traders",
    "category": "amenity",
    "subcategory": "pharmacy",
    "latitude": 32.168469,
    "longitude": 74.1893965,
    "id": 4903512224
  },
  {
    "name": "HFC Food Point",
    "category": "amenity",
    "subcategory": "restaurant",
    "latitude": 32.1692181,
    "longitude": 74.1870591,
    "id": 4903512225
  },
  {
    "name": "ایم سی بی بینک",
    "category": "amenity",
    "subcategory": "bank",
    "latitude": 32.1703504,
    "longitude": 74.1870756,
    "id": 4903512234
  },
  {
    "name": "BOP ISLAMIC BANKING TAQWA",
    "category": "amenity",
    "subcategory": "bank",
    "latitude": 32.1707159,
    "longitude": 74.1866119,
    "id": 4903512235
  },
  {
    "name": "سندھ بینک",
    "category": "amenity",
    "subcategory": "bank",
    "latitude": 32.1708237,
    "longitude": 74.186573,
    "id": 4903512236
  },
  {
    "name": "Meezan Bank Limited",
    "category": "amenity",
    "subcategory": "bank",
    "latitude": 32.1708656,
    "longitude": 74.1856032,
    "id": 4903512237
  },
  {
    "name": "PSO Filling Station Gt Road",
    "category": "amenity",
    "subcategory": "fuel",
    "latitude": 32.1714863,
    "longitude": 74.1863809,
    "id": 4903512238
  },
  {
    "name": "Green Hotel & Restaurant",
    "category": "amenity",
    "subcategory": "restaurant",
    "latitude": 32.1713159,
    "longitude": 74.1864236,
    "id": 4903512239
  },
  {
    "name": "جے ایس بینک",
    "category": "amenity",
    "subcategory": "bank",
    "latitude": 32.1713331,
    "longitude": 74.1854784,
    "id": 4903512241
  },
  {
    "name": "Sufi Hotel Takka Tak",
    "category": "tourism",
    "subcategory": "hotel",
    "latitude": 32.1714157,
    "longitude": 74.1854561,
    "id": 4903512242
  },
  {
    "name": "فیصل بینک",
    "category": "amenity",
    "subcategory": "bank",
    "latitude": 32.1719147,
    "longitude": 74.1862488,
    "id": 4903512243
  },
  {
    "name": "Summit Bank Limited",
    "category": "amenity",
    "subcategory": "bank",
    "latitude": 32.1722933,
    "longitude": 74.1861513,
    "id": 4903512244
  },
  {
    "name": "Usmania Restaurant",
    "category": "amenity",
    "subcategory": "restaurant",
    "latitude": 32.1720887,
    "longitude": 74.1852536,
    "id": 4903512245
  },
  {
    "name": "Admore Filling Station, Lari Adda",
    "category": "amenity",
    "subcategory": "fuel",
    "latitude": 32.1719784,
    "longitude": 74.1848797,
    "id": 4903512246
  },
  {
    "name": "First Women Bank Ltd",
    "category": "amenity",
    "subcategory": "bank",
    "latitude": 32.1725061,
    "longitude": 74.1851319,
    "id": 4903512247
  },
  {
    "name": "Citi bank",
    "category": "amenity",
    "subcategory": "bank",
    "latitude": 32.1726405,
    "longitude": 74.1850945,
    "id": 4903512248
  },
  {
    "name": "Baba Bakers & Sweets",
    "category": "shop",
    "subcategory": "bakery",
    "latitude": 32.1734073,
    "longitude": 74.1848703,
    "id": 4903512249
  },
  {
    "name": "Khyber Hotel",
    "category": "tourism",
    "subcategory": "hotel",
    "latitude": 32.1734646,
    "longitude": 74.1842235,
    "id": 4903512251
  },
  {
    "name": "Dawood Islamic Bank Limited",
    "category": "amenity",
    "subcategory": "bank",
    "latitude": 32.1734389,
    "longitude": 74.1844921,
    "id": 4903512252
  },
  {
    "name": "عسکری بینک",
    "category": "amenity",
    "subcategory": "bank",
    "latitude": 32.1738916,
    "longitude": 74.1856993,
    "id": 4903512253
  },
  {
    "name": "State Bank of Pakistan",
    "category": "amenity",
    "subcategory": "bank",
    "latitude": 32.1746304,
    "longitude": 74.1834078,
    "id": 4903512254
  },
  {
    "name": "KASB Bank",
    "category": "amenity",
    "subcategory": "bank",
    "latitude": 32.1744718,
    "longitude": 74.1827028,
    "id": 4903512255
  },
  {
    "name": "اسٹینڈرڈ چارٹرڈ",
    "category": "amenity",
    "subcategory": "bank",
    "latitude": 32.1741341,
    "longitude": 74.1822952,
    "id": 4903512256
  },
  {
    "name": "McDonald's",
    "category": "amenity",
    "subcategory": "fast_food",
    "latitude": 32.1785885,
    "longitude": 74.184429,
    "id": 4903512290
  },
  {
    "name": "Younis Petroleum Services",
    "category": "amenity",
    "subcategory": "fuel",
    "latitude": 32.1810711,
    "longitude": 74.1836272,
    "id": 4903512291
  },
  {
    "name": "Mehar CNG Station",
    "category": "amenity",
    "subcategory": "fuel",
    "latitude": 32.1813233,
    "longitude": 74.1835513,
    "id": 4903512292
  },
  {
    "name": "Lone Palace",
    "category": "amenity",
    "subcategory": "community_centre",
    "latitude": 32.1817604,
    "longitude": 74.1820375,
    "id": 4903512301
  },
  {
    "name": "Medcare International Hospital",
    "category": "amenity",
    "subcategory": "hospital",
    "latitude": 32.1770908,
    "longitude": 74.1898874,
    "id": 4903545837
  },
  {
    "name": "Railway's Rest House",
    "category": "tourism",
    "subcategory": "guest_house",
    "latitude": 32.1779333,
    "longitude": 74.1883821,
    "id": 4903545850
  },
  {
    "name": "Working Women Hostel",
    "category": "tourism",
    "subcategory": "hostel",
    "latitude": 32.1831454,
    "longitude": 74.1842533,
    "id": 4903545855
  },
  {
    "name": "Sanatzar",
    "category": "amenity",
    "subcategory": "college",
    "latitude": 32.1833175,
    "longitude": 74.1847858,
    "id": 4903545856
  },
  {
    "name": "Govt Institute of Technology",
    "category": "amenity",
    "subcategory": "school",
    "latitude": 32.1835205,
    "longitude": 74.1831149,
    "id": 4903545857
  },
  {
    "name": "Zarai Taraqiati Bank Limited",
    "category": "amenity",
    "subcategory": "bank",
    "latitude": 32.1834242,
    "longitude": 74.1817977,
    "id": 4903545858
  },
  {
    "name": "Royal Group of Colleges",
    "category": "amenity",
    "subcategory": "college",
    "latitude": 32.1870362,
    "longitude": 74.1807115,
    "id": 4903545859
  },
  {
    "name": "Samba Bank",
    "category": "amenity",
    "subcategory": "bank",
    "latitude": 32.1884274,
    "longitude": 74.1802959,
    "id": 4903545861
  },
  {
    "name": "Ghani Paya",
    "category": "amenity",
    "subcategory": "fast_food",
    "latitude": 32.19151,
    "longitude": 74.179424,
    "id": 4903545862
  },
  {
    "name": "ایم سی بی بینک",
    "category": "amenity",
    "subcategory": "bank",
    "latitude": 32.1913915,
    "longitude": 74.1794497,
    "id": 4903545863
  },
  {
    "name": "Masjid Aman Ahlul Hadith",
    "category": "amenity",
    "subcategory": "place_of_worship",
    "latitude": 32.1912512,
    "longitude": 74.1794918,
    "id": 4903545864
  },
  {
    "name": "Gondal Medical Complex",
    "category": "amenity",
    "subcategory": "hospital",
    "latitude": 32.1668155,
    "longitude": 74.1917391,
    "id": 4903600015
  },
  {
    "name": "Jamia Masjid Din Mohammad",
    "category": "amenity",
    "subcategory": "place_of_worship",
    "latitude": 32.1666653,
    "longitude": 74.1923019,
    "id": 4903600016
  },
  {
    "name": "Khan Medical Store",
    "category": "amenity",
    "subcategory": "pharmacy",
    "latitude": 32.1674184,
    "longitude": 74.1917739,
    "id": 4903600017
  },
  {
    "name": "Clinix Pharmacy",
    "category": "amenity",
    "subcategory": "pharmacy",
    "latitude": 32.1677011,
    "longitude": 74.1919523,
    "id": 4903600018
  },
  {
    "name": "Hasan Clinic",
    "category": "amenity",
    "subcategory": "clinic",
    "latitude": 32.1685797,
    "longitude": 74.1925008,
    "id": 4903600019
  },
  {
    "name": "Fazal Deen Pharmacy",
    "category": "amenity",
    "subcategory": "pharmacy",
    "latitude": 32.1688552,
    "longitude": 74.1927075,
    "id": 4903600020
  },
  {
    "name": "Chaudhry Lab & Digital X-Ray Clinic",
    "category": "amenity",
    "subcategory": "clinic",
    "latitude": 32.169344,
    "longitude": 74.1927148,
    "id": 4903600021
  },
  {
    "name": "Muneeb Pharmacy",
    "category": "amenity",
    "subcategory": "pharmacy",
    "latitude": 32.1693256,
    "longitude": 74.1930048,
    "id": 4903600022
  },
  {
    "name": "Circuit House",
    "category": "tourism",
    "subcategory": "guest_house",
    "latitude": 32.1717329,
    "longitude": 74.1936391,
    "id": 4905273536
  },
  {
    "name": "National Bank Of Pakistan",
    "category": "amenity",
    "subcategory": "bank",
    "latitude": 32.1699847,
    "longitude": 74.1934968,
    "id": 4905273543
  },
  {
    "name": "National Hospital",
    "category": "amenity",
    "subcategory": "hospital",
    "latitude": 32.1712958,
    "longitude": 74.1933139,
    "id": 4905273544
  },
  {
    "name": "Dr. Rashida Ch. Memorial Hospital & Maternity",
    "category": "amenity",
    "subcategory": "hospital",
    "latitude": 32.1706936,
    "longitude": 74.1944603,
    "id": 4905273546
  },
  {
    "name": "Dr. Nabila Bashir",
    "category": "amenity",
    "subcategory": "hospital",
    "latitude": 32.1726454,
    "longitude": 74.1957918,
    "id": 4905273547
  },
  {
    "name": "Banking Courts",
    "category": "amenity",
    "subcategory": "courthouse",
    "latitude": 32.1732099,
    "longitude": 74.1967432,
    "id": 4905273556
  },
  {
    "name": "Drugs Court Division",
    "category": "amenity",
    "subcategory": "courthouse",
    "latitude": 32.1719294,
    "longitude": 74.1975613,
    "id": 4905273557
  },
  {
    "name": "Church",
    "category": "amenity",
    "subcategory": "place_of_worship",
    "latitude": 32.173407,
    "longitude": 74.1996577,
    "id": 4905273560
  },
  {
    "name": "Beconhouse School Junior Branch",
    "category": "amenity",
    "subcategory": "school",
    "latitude": 32.1697545,
    "longitude": 74.195889,
    "id": 4905273561
  },
  {
    "name": "St. Joseph's English High School",
    "category": "amenity",
    "subcategory": "school",
    "latitude": 32.1690548,
    "longitude": 74.1979204,
    "id": 4905273562
  },
  {
    "name": "St. Mary's High School and Education College",
    "category": "amenity",
    "subcategory": "school",
    "latitude": 32.1703554,
    "longitude": 74.1957349,
    "id": 4905273563
  },
  {
    "name": "St. Mary's High School and Education College",
    "category": "amenity",
    "subcategory": "college",
    "latitude": 32.1686796,
    "longitude": 74.1957988,
    "id": 4905273564
  },
  {
    "name": "New Pearl Filling Station",
    "category": "amenity",
    "subcategory": "fuel",
    "latitude": 32.1679304,
    "longitude": 74.1971802,
    "id": 4905273565
  },
  {
    "name": "Anti Terrorist Court",
    "category": "amenity",
    "subcategory": "courthouse",
    "latitude": 32.1675104,
    "longitude": 74.1962924,
    "id": 4905273566
  },
  {
    "name": "Cheema Heart Complex",
    "category": "amenity",
    "subcategory": "hospital",
    "latitude": 32.1680329,
    "longitude": 74.1947276,
    "id": 4905273567
  },
  {
    "name": "Gujranwala College of Commerce",
    "category": "amenity",
    "subcategory": "college",
    "latitude": 32.1676049,
    "longitude": 74.1972474,
    "id": 4905273569
  },
  {
    "name": "سب وے",
    "category": "amenity",
    "subcategory": "fast_food",
    "latitude": 32.1638369,
    "longitude": 74.1939383,
    "id": 4905276790
  },
  {
    "name": "Rafique Anwar Memorial Trust Hospital",
    "category": "amenity",
    "subcategory": "hospital",
    "latitude": 32.1623949,
    "longitude": 74.1913567,
    "id": 4905276791
  },
  {
    "name": "Bashir Butt Memorial Hospital",
    "category": "amenity",
    "subcategory": "hospital",
    "latitude": 32.174427,
    "longitude": 74.2002594,
    "id": 4905664785
  },
  {
    "name": "ایچ بی ایل پاکستان",
    "category": "amenity",
    "subcategory": "bank",
    "latitude": 32.1766513,
    "longitude": 74.2017052,
    "id": 4905664786
  },
  {
    "name": "Pizza MASTER",
    "category": "amenity",
    "subcategory": "restaurant",
    "latitude": 32.1773582,
    "longitude": 74.2023989,
    "id": 4905664787
  },
  {
    "name": "Bandhan Marriage Hall",
    "category": "amenity",
    "subcategory": "townhall",
    "latitude": 32.1776069,
    "longitude": 74.2025475,
    "id": 4905664788
  },
  {
    "name": "ایم سی بی بینک",
    "category": "amenity",
    "subcategory": "bank",
    "latitude": 32.1783962,
    "longitude": 74.2027776,
    "id": 4905664790
  },
  {
    "name": "Meezan Bank Limited",
    "category": "amenity",
    "subcategory": "bank",
    "latitude": 32.1796288,
    "longitude": 74.203765,
    "id": 4905664792
  },
  {
    "name": "Caltex",
    "category": "amenity",
    "subcategory": "fuel",
    "latitude": 32.1815768,
    "longitude": 74.2049878,
    "id": 4905664793
  },
  {
    "name": "Men Hair & Beauty Salon",
    "category": "shop",
    "subcategory": "hairdresser",
    "latitude": 32.1807939,
    "longitude": 74.2055642,
    "id": 4905664794
  },
  {
    "name": "Ali The School of Science",
    "category": "amenity",
    "subcategory": "school",
    "latitude": 32.181808,
    "longitude": 74.2059716,
    "id": 4905664795
  },
  {
    "name": "Pig Food Point",
    "category": "amenity",
    "subcategory": "restaurant",
    "latitude": 32.1825678,
    "longitude": 74.2055584,
    "id": 4905664796
  },
  {
    "name": "Post Office",
    "category": "amenity",
    "subcategory": "post_office",
    "latitude": 32.1830277,
    "longitude": 74.2061107,
    "id": 4905664797
  },
  {
    "name": "یونائیٹڈ بینک لمیٹڈ",
    "category": "amenity",
    "subcategory": "bank",
    "latitude": 32.1833235,
    "longitude": 74.2060062,
    "id": 4905664798
  },
  {
    "name": "Masjed Bait ul Mukaram",
    "category": "amenity",
    "subcategory": "place_of_worship",
    "latitude": 32.1830392,
    "longitude": 74.2050449,
    "id": 4905664799
  },
  {
    "name": "نیشنل بینک آف پاکستان",
    "category": "amenity",
    "subcategory": "bank",
    "latitude": 32.1843457,
    "longitude": 74.2063667,
    "id": 4905664800
  },
  {
    "name": "Imam Bargah Qasr-e-Batool",
    "category": "amenity",
    "subcategory": "place_of_worship",
    "latitude": 32.187801,
    "longitude": 74.2097819,
    "id": 4905664801
  },
  {
    "name": "Nomi's Food & restaurant",
    "category": "amenity",
    "subcategory": "restaurant",
    "latitude": 32.1875636,
    "longitude": 74.208298,
    "id": 4905664802
  },
  {
    "name": "Punjab Bank",
    "category": "amenity",
    "subcategory": "bank",
    "latitude": 32.1924554,
    "longitude": 74.2116777,
    "id": 4905664803
  },
  {
    "name": "Servis Store",
    "category": "shop",
    "subcategory": "shoes",
    "latitude": 32.1923075,
    "longitude": 74.2112386,
    "id": 4905664805
  },
  {
    "name": "City Hospital",
    "category": "amenity",
    "subcategory": "hospital",
    "latitude": 32.1889382,
    "longitude": 74.201522,
    "id": 4905664921
  },
  {
    "name": "Chick & Fish",
    "category": "amenity",
    "subcategory": "restaurant",
    "latitude": 32.1838834,
    "longitude": 74.1996676,
    "id": 4905664922
  },
  {
    "name": "MSZ High School",
    "category": "amenity",
    "subcategory": "school",
    "latitude": 32.1840323,
    "longitude": 74.1981661,
    "id": 4905664923
  },
  {
    "name": "Utility Store",
    "category": "shop",
    "subcategory": "supermarket",
    "latitude": 32.183881,
    "longitude": 74.1986562,
    "id": 4905664924
  },
  {
    "name": "Hafiz Tikka Shop",
    "category": "amenity",
    "subcategory": "fast_food",
    "latitude": 32.1808881,
    "longitude": 74.1985869,
    "id": 4905664925
  },
  {
    "name": "Silsila-e-Idreesia Mosque",
    "category": "amenity",
    "subcategory": "place_of_worship",
    "latitude": 32.1798887,
    "longitude": 74.1979098,
    "id": 4905664926
  },
  {
    "name": "Moazam Traders",
    "category": "amenity",
    "subcategory": "pharmacy",
    "latitude": 32.1785158,
    "longitude": 74.1962324,
    "id": 4905664931
  },
  {
    "name": "Dr. Naseem Ahmad Saeed",
    "category": "amenity",
    "subcategory": "doctors",
    "latitude": 32.178901,
    "longitude": 74.1948193,
    "id": 4905664932
  },
  {
    "name": "Virtual University of Pakistan Associate",
    "category": "amenity",
    "subcategory": "university",
    "latitude": 32.1794821,
    "longitude": 74.1943848,
    "id": 4905664933
  },
  {
    "name": "Gourmet Bakers",
    "category": "shop",
    "subcategory": "bakery",
    "latitude": 32.1813113,
    "longitude": 74.1916905,
    "id": 4905664934
  },
  {
    "name": "Gulistan Cinema",
    "category": "amenity",
    "subcategory": "cinema",
    "latitude": 32.1592034,
    "longitude": 74.1911301,
    "id": 4905664935
  },
  {
    "name": "Lepari Hotel & Banquet Hall",
    "category": "amenity",
    "subcategory": "community_centre",
    "latitude": 32.1550442,
    "longitude": 74.1901751,
    "id": 4905664936
  },
  {
    "name": "Mohammadi Restaurant",
    "category": "amenity",
    "subcategory": "restaurant",
    "latitude": 32.153026,
    "longitude": 74.1904295,
    "id": 4905664956
  },
  {
    "name": "City Traffic Police",
    "category": "amenity",
    "subcategory": "police",
    "latitude": 32.151642,
    "longitude": 74.1904089,
    "id": 4905664957
  },
  {
    "name": "ایچ بی ایل پاکستان",
    "category": "amenity",
    "subcategory": "bank",
    "latitude": 32.150466,
    "longitude": 74.1906127,
    "id": 4905664960
  },
  {
    "name": "شیل",
    "category": "amenity",
    "subcategory": "fuel",
    "latitude": 32.1498057,
    "longitude": 74.1908929,
    "id": 4905664961
  },
  {
    "name": "فیضانِ مدینہ مسجد",
    "category": "amenity",
    "subcategory": "place_of_worship",
    "latitude": 32.1497919,
    "longitude": 74.1914066,
    "id": 4905664962
  },
  {
    "name": "Al-Muntaha Restaurant & Party Hall",
    "category": "amenity",
    "subcategory": "restaurant",
    "latitude": 32.1503514,
    "longitude": 74.1906337,
    "id": 4905664963
  },
  {
    "name": "Atmaramji Shrine",
    "category": "tourism",
    "subcategory": "attraction",
    "latitude": 32.1491837,
    "longitude": 74.1901706,
    "id": 4905664964
  },
  {
    "name": "Govt Technical Training Institute, (TEVTA)",
    "category": "amenity",
    "subcategory": "school",
    "latitude": 32.1571948,
    "longitude": 74.1918924,
    "id": 4905788800
  },
  {
    "name": "Madina Masjid",
    "category": "amenity",
    "subcategory": "place_of_worship",
    "latitude": 32.158112,
    "longitude": 74.2004542,
    "id": 4905788802
  },
  {
    "name": "Sattelite Town Police Station",
    "category": "amenity",
    "subcategory": "police",
    "latitude": 32.1586835,
    "longitude": 74.2001206,
    "id": 4905788803
  },
  {
    "name": "Al-Rasheed Mosque",
    "category": "amenity",
    "subcategory": "place_of_worship",
    "latitude": 32.1592978,
    "longitude": 74.2006869,
    "id": 4905788804
  },
  {
    "name": "Post Office",
    "category": "amenity",
    "subcategory": "post_office",
    "latitude": 32.1586206,
    "longitude": 74.2028705,
    "id": 4905788805
  },
  {
    "name": "Al Badar Masjid",
    "category": "amenity",
    "subcategory": "place_of_worship",
    "latitude": 32.1582281,
    "longitude": 74.2036421,
    "id": 4905788806
  },
  {
    "name": "Ashraf Hospital",
    "category": "amenity",
    "subcategory": "hospital",
    "latitude": 32.1610897,
    "longitude": 74.2100374,
    "id": 4905788807
  },
  {
    "name": "Bloomfield Hall School",
    "category": "amenity",
    "subcategory": "school",
    "latitude": 32.1622114,
    "longitude": 74.2094634,
    "id": 4905788808
  },
  {
    "name": "عسکری بینک",
    "category": "amenity",
    "subcategory": "bank",
    "latitude": 32.1619856,
    "longitude": 74.2099036,
    "id": 4905788809
  },
  {
    "name": "Sunny Chaska House & Restaurant",
    "category": "amenity",
    "subcategory": "restaurant",
    "latitude": 32.1605189,
    "longitude": 74.2113607,
    "id": 4905788810
  },
  {
    "name": "Karachi Student Biryani",
    "category": "amenity",
    "subcategory": "restaurant",
    "latitude": 32.1603627,
    "longitude": 74.2116546,
    "id": 4905788811
  },
  {
    "name": "Allied School Canal Campus",
    "category": "amenity",
    "subcategory": "school",
    "latitude": 32.1603884,
    "longitude": 74.2118998,
    "id": 4905788812
  },
  {
    "name": "Admore Fuel Station",
    "category": "amenity",
    "subcategory": "fuel",
    "latitude": 32.1425893,
    "longitude": 74.1869957,
    "id": 4905790422
  },
  {
    "name": "الائیڈ بینک",
    "category": "amenity",
    "subcategory": "atm",
    "latitude": 32.1410247,
    "longitude": 74.1863696,
    "id": 4905790423
  },
  {
    "name": "فیصل بینک",
    "category": "amenity",
    "subcategory": "bank",
    "latitude": 32.1388762,
    "longitude": 74.1856991,
    "id": 4905790424
  },
  {
    "name": "عسکری بینک",
    "category": "amenity",
    "subcategory": "bank",
    "latitude": 32.139017,
    "longitude": 74.1857098,
    "id": 4905790425
  },
  {
    "name": "بينک الحبيب",
    "category": "amenity",
    "subcategory": "atm",
    "latitude": 32.1376225,
    "longitude": 74.1847764,
    "id": 4905790426
  },
  {
    "name": "Sultan Hotel & Baryani House",
    "category": "amenity",
    "subcategory": "fast_food",
    "latitude": 32.1373045,
    "longitude": 74.1846745,
    "id": 4905790427
  },
  {
    "name": "Meezan Bank Limited",
    "category": "amenity",
    "subcategory": "bank",
    "latitude": 32.136555,
    "longitude": 74.1843741,
    "id": 4905790428
  },
  {
    "name": "Hospital Mosque",
    "category": "amenity",
    "subcategory": "place_of_worship",
    "latitude": 32.1356238,
    "longitude": 74.184181,
    "id": 4905790430
  },
  {
    "name": "Abdul Hotel",
    "category": "tourism",
    "subcategory": "hotel",
    "latitude": 32.1325575,
    "longitude": 74.1821854,
    "id": 4905790431
  },
  {
    "name": "Abdul Shakoor Tea Stall & PCO",
    "category": "amenity",
    "subcategory": "cafe",
    "latitude": 32.13139,
    "longitude": 74.1815631,
    "id": 4905790432
  },
  {
    "name": "Alfalah Bank Limited",
    "category": "amenity",
    "subcategory": "bank",
    "latitude": 32.1310311,
    "longitude": 74.1816436,
    "id": 4905790433
  },
  {
    "name": "پاکستان اسٹیٹ آئل",
    "category": "amenity",
    "subcategory": "fuel",
    "latitude": 32.1289505,
    "longitude": 74.1805278,
    "id": 4905790434
  },
  {
    "name": "Lasani Restaurant",
    "category": "amenity",
    "subcategory": "restaurant",
    "latitude": 32.1275377,
    "longitude": 74.1793584,
    "id": 4905790435
  },
  {
    "name": "Allied School Khiali Campus",
    "category": "amenity",
    "subcategory": "school",
    "latitude": 32.126779,
    "longitude": 74.1792832,
    "id": 4905790436
  },
  {
    "name": "Allied School City Campus Gujranwala",
    "category": "amenity",
    "subcategory": "school",
    "latitude": 32.1265148,
    "longitude": 74.1787867,
    "id": 4905790437
  },
  {
    "name": "Sharjah Medical Store",
    "category": "amenity",
    "subcategory": "pharmacy",
    "latitude": 32.123456,
    "longitude": 74.1771056,
    "id": 4905790438
  },
  {
    "name": "Pakistan Post",
    "category": "amenity",
    "subcategory": "post_office",
    "latitude": 32.1219323,
    "longitude": 74.177212,
    "id": 4905790439
  },
  {
    "name": "Gourmet Bakers",
    "category": "shop",
    "subcategory": "bakery",
    "latitude": 32.1219459,
    "longitude": 74.1765521,
    "id": 4905790440
  },
  {
    "name": "Habib Bank",
    "category": "amenity",
    "subcategory": "bank",
    "latitude": 32.1212621,
    "longitude": 74.1761739,
    "id": 4905790441
  },
  {
    "name": "Al-Sadat Maqbool Restaurant",
    "category": "amenity",
    "subcategory": "restaurant",
    "latitude": 32.1208146,
    "longitude": 74.1759272,
    "id": 4905790442
  },
  {
    "name": "Animal Medical Store",
    "category": "amenity",
    "subcategory": "pharmacy",
    "latitude": 32.118798,
    "longitude": 74.1745548,
    "id": 4905790445
  },
  {
    "name": "TakeAwayz",
    "category": "amenity",
    "subcategory": "restaurant",
    "latitude": 32.1199361,
    "longitude": 74.1751422,
    "id": 4905790446
  },
  {
    "name": "یونائیٹڈ بینک لمیٹڈ",
    "category": "amenity",
    "subcategory": "bank",
    "latitude": 32.1169481,
    "longitude": 74.1732645,
    "id": 4905790447
  },
  {
    "name": "بینک اسلامی",
    "category": "amenity",
    "subcategory": "bank",
    "latitude": 32.1345763,
    "longitude": 74.1941667,
    "id": 4905831268
  },
  {
    "name": "البرکہ بینک",
    "category": "amenity",
    "subcategory": "bank",
    "latitude": 32.1334332,
    "longitude": 74.1942802,
    "id": 4905831269
  },
  {
    "name": "این آئی بی بینک",
    "category": "amenity",
    "subcategory": "bank",
    "latitude": 32.133595,
    "longitude": 74.1942432,
    "id": 4905831270
  },
  {
    "name": "عثمانیہ ریستوران",
    "category": "amenity",
    "subcategory": "restaurant",
    "latitude": 32.1332711,
    "longitude": 74.19349,
    "id": 4905831272
  },
  {
    "name": "ٹوٹل",
    "category": "amenity",
    "subcategory": "fuel",
    "latitude": 32.1324604,
    "longitude": 74.1946342,
    "id": 4905831273
  },
  {
    "name": "Sewa CNG Station",
    "category": "amenity",
    "subcategory": "fuel",
    "latitude": 32.1325474,
    "longitude": 74.1937422,
    "id": 4905831274
  },
  {
    "name": "Hotel Crown City",
    "category": "tourism",
    "subcategory": "hotel",
    "latitude": 32.1319938,
    "longitude": 74.1945127,
    "id": 4905831275
  },
  {
    "name": "Punjab College of Commerce",
    "category": "amenity",
    "subcategory": "college",
    "latitude": 32.1308074,
    "longitude": 74.1947322,
    "id": 4905831280
  },
  {
    "name": "پاکستان اسٹیٹ آئل",
    "category": "amenity",
    "subcategory": "fuel",
    "latitude": 32.1288803,
    "longitude": 74.1943803,
    "id": 4905831281
  },
  {
    "name": "Alfalah Bank (Islamic Banking)",
    "category": "amenity",
    "subcategory": "bank",
    "latitude": 32.1285948,
    "longitude": 74.1944691,
    "id": 4905831282
  },
  {
    "name": "Payal Marriage Hall",
    "category": "amenity",
    "subcategory": "community_centre",
    "latitude": 32.1273501,
    "longitude": 74.1952657,
    "id": 4905831283
  },
  {
    "name": "بينک الحبيب",
    "category": "amenity",
    "subcategory": "bank",
    "latitude": 32.1264528,
    "longitude": 74.1947775,
    "id": 4905831284
  },
  {
    "name": "Virtual University of Pakistan",
    "category": "amenity",
    "subcategory": "university",
    "latitude": 32.1262143,
    "longitude": 74.1948151,
    "id": 4905831285
  },
  {
    "name": "Jamia Muhammadia Ahl-e-Hadees",
    "category": "amenity",
    "subcategory": "place_of_worship",
    "latitude": 32.1256766,
    "longitude": 74.1949308,
    "id": 4905831286
  },
  {
    "name": "Fuel Station",
    "category": "amenity",
    "subcategory": "fuel",
    "latitude": 32.1254104,
    "longitude": 74.1957658,
    "id": 4905831287
  },
  {
    "name": "Masjid Ibne Abbas",
    "category": "amenity",
    "subcategory": "place_of_worship",
    "latitude": 32.1236595,
    "longitude": 74.1938586,
    "id": 4905831288
  },
  {
    "name": "The Thistle Hotel & Banquet Hall",
    "category": "amenity",
    "subcategory": "townhall",
    "latitude": 32.1235343,
    "longitude": 74.1961294,
    "id": 4905831289
  },
  {
    "name": "MD Palace",
    "category": "amenity",
    "subcategory": "townhall",
    "latitude": 32.1232107,
    "longitude": 74.1970013,
    "id": 4905831290
  },
  {
    "name": "Govt Girls High School",
    "category": "amenity",
    "subcategory": "school",
    "latitude": 32.1225871,
    "longitude": 74.1953252,
    "id": 4905831291
  },
  {
    "name": "Star Ceramics",
    "category": "amenity",
    "subcategory": "pharmacy",
    "latitude": 32.1221018,
    "longitude": 74.1955409,
    "id": 4905831292
  },
  {
    "name": "Heaven Castle",
    "category": "amenity",
    "subcategory": "townhall",
    "latitude": 32.117578,
    "longitude": 74.1963723,
    "id": 4905831293
  },
  {
    "name": "Suba sadiq",
    "category": "amenity",
    "subcategory": "place_of_worship",
    "latitude": 32.147476,
    "longitude": 74.2170886,
    "id": 4926575521
  },
  {
    "name": "SABRI Battery Service",
    "category": "shop",
    "subcategory": "car_parts",
    "latitude": 32.1704009,
    "longitude": 74.1871283,
    "id": 4950552923
  },
  {
    "name": "Lepari Hotel",
    "category": "tourism",
    "subcategory": "hotel",
    "latitude": 32.1549529,
    "longitude": 74.1899301,
    "id": 5548400221
  },
  {
    "name": "7 street",
    "category": "shop",
    "subcategory": "bicycle",
    "latitude": 32.157962,
    "longitude": 74.1537548,
    "id": 5647169621
  },
  {
    "name": "Kotli Rustam",
    "category": "tourism",
    "subcategory": "apartment",
    "latitude": 32.1608479,
    "longitude": 74.1552844,
    "id": 5647169622
  },
  {
    "name": "Spicy Bites",
    "category": "amenity",
    "subcategory": "fast_food",
    "latitude": 32.1365885,
    "longitude": 74.2080915,
    "id": 5688344650
  },
  {
    "name": "Mubarak Mosque",
    "category": "amenity",
    "subcategory": "place_of_worship",
    "latitude": 32.1537903,
    "longitude": 74.1593684,
    "id": 5709415276
  },
  {
    "name": "Finger Art (Boss)",
    "category": "shop",
    "subcategory": "hairdresser",
    "latitude": 32.1618067,
    "longitude": 74.2146029,
    "id": 5865997889
  },
  {
    "name": "Be Superior College",
    "category": "amenity",
    "subcategory": "college",
    "latitude": 32.1795097,
    "longitude": 74.1829281,
    "id": 5866000485
  },
  {
    "name": "Masjid Aqsa",
    "category": "amenity",
    "subcategory": "school",
    "latitude": 32.1608486,
    "longitude": 74.1946225,
    "id": 5866000585
  },
  {
    "name": "Hacker's Street",
    "category": "amenity",
    "subcategory": "school",
    "latitude": 32.1513436,
    "longitude": 74.2025498,
    "id": 5894700785
  },
  {
    "name": "Mufti Trading Company",
    "category": "shop",
    "subcategory": "supermarket",
    "latitude": 32.1181537,
    "longitude": 74.1944904,
    "id": 6132245655
  },
  {
    "name": "Niaz Memorial Hospital",
    "category": "amenity",
    "subcategory": "hospital",
    "latitude": 32.1802187,
    "longitude": 74.1935552,
    "id": 6176439786
  },
  {
    "name": "Suleman Sweets",
    "category": "shop",
    "subcategory": "confectionery",
    "latitude": 32.1707739,
    "longitude": 74.1805181,
    "id": 6180674786
  },
  {
    "name": "Chaman",
    "category": "amenity",
    "subcategory": "ice_cream",
    "latitude": 32.1741902,
    "longitude": 74.1845539,
    "id": 6180693686
  },
  {
    "name": "آر ڈی بی",
    "category": "amenity",
    "subcategory": "cafe",
    "latitude": 32.160965,
    "longitude": 74.1997351,
    "id": 6338030789
  },
  {
    "name": "BSC UFONE GRW",
    "category": "tourism",
    "subcategory": "viewpoint",
    "latitude": 32.176701,
    "longitude": 74.183551,
    "id": 6390377996
  },
  {
    "name": "Um-Ul-Qura Mosque",
    "category": "amenity",
    "subcategory": "place_of_worship",
    "latitude": 32.1267715,
    "longitude": 74.2031743,
    "id": 6410347893
  },
  {
    "name": "Rehmania Masjid",
    "category": "amenity",
    "subcategory": "place_of_worship",
    "latitude": 32.1654012,
    "longitude": 74.1769601,
    "id": 6553762370
  },
  {
    "name": "Mezan Bank Model Town Branch Gujranwala",
    "category": "amenity",
    "subcategory": "bank",
    "latitude": 32.1730201,
    "longitude": 74.179437,
    "id": 6829352585
  },
  {
    "name": "The Scholars School",
    "category": "amenity",
    "subcategory": "school",
    "latitude": 32.1917812,
    "longitude": 74.2141586,
    "id": 7049733773
  },
  {
    "name": "Jinnah Library",
    "category": "amenity",
    "subcategory": "library",
    "latitude": 32.1744456,
    "longitude": 74.1829357,
    "id": 7450527957
  },
  {
    "name": "Central Jail",
    "category": "amenity",
    "subcategory": "prison",
    "latitude": 32.1642731,
    "longitude": 74.1968036,
    "id": 7450527959
  },
  {
    "name": "Rescue 1122",
    "category": "amenity",
    "subcategory": "fire_station",
    "latitude": 32.1632868,
    "longitude": 74.187453,
    "id": 7507202850
  },
  {
    "name": "Din Muhammad Library",
    "category": "amenity",
    "subcategory": "library",
    "latitude": 32.1564604,
    "longitude": 74.1895991,
    "id": 7507202861
  },
  {
    "name": "Machlion Wali",
    "category": "amenity",
    "subcategory": "place_of_worship",
    "latitude": 32.1560465,
    "longitude": 74.1877809,
    "id": 7507202862
  },
  {
    "name": "Noor",
    "category": "amenity",
    "subcategory": "place_of_worship",
    "latitude": 32.1598179,
    "longitude": 74.1796969,
    "id": 7507288466
  },
  {
    "name": "Satellite Police",
    "category": "amenity",
    "subcategory": "police",
    "latitude": 32.1571257,
    "longitude": 74.1911824,
    "id": 7507288476
  },
  {
    "name": "Civil Veterinary Hospital",
    "category": "amenity",
    "subcategory": "veterinary",
    "latitude": 32.156617,
    "longitude": 74.1913808,
    "id": 7507288477
  },
  {
    "name": "Landa Bazaar",
    "category": "amenity",
    "subcategory": "marketplace",
    "latitude": 32.15691,
    "longitude": 74.1903991,
    "id": 7507288478
  },
  {
    "name": "Decent Electro Power Company",
    "category": "shop",
    "subcategory": "electronics",
    "latitude": 32.1639221,
    "longitude": 74.1872621,
    "id": 7908848720
  },
  {
    "name": "گجرانوالہ",
    "category": "amenity",
    "subcategory": "bus_station",
    "latitude": 32.1592141,
    "longitude": 74.1894267,
    "id": 8158193018
  },
  {
    "name": "Shelton Hotel",
    "category": "tourism",
    "subcategory": "hotel",
    "latitude": 32.1881336,
    "longitude": 74.1790916,
    "id": 8476538497
  },
  {
    "name": "Bundu Khan",
    "category": "amenity",
    "subcategory": "restaurant",
    "latitude": 32.1883788,
    "longitude": 74.177879,
    "id": 8476538498
  },
  {
    "name": "The Aritum",
    "category": "amenity",
    "subcategory": "cafe",
    "latitude": 32.1882912,
    "longitude": 74.1778885,
    "id": 8476538499
  },
  {
    "name": "ڈومینوز",
    "category": "amenity",
    "subcategory": "fast_food",
    "latitude": 32.1820305,
    "longitude": 74.1820583,
    "id": 8476713295
  },
  {
    "name": "Jade Express",
    "category": "amenity",
    "subcategory": "restaurant",
    "latitude": 32.18197,
    "longitude": 74.1818573,
    "id": 8476713296
  },
  {
    "name": "Salt N Pepper Express",
    "category": "amenity",
    "subcategory": "restaurant",
    "latitude": 32.1818922,
    "longitude": 74.1816461,
    "id": 8476713297
  },
  {
    "name": "شیل",
    "category": "amenity",
    "subcategory": "fuel",
    "latitude": 32.1825487,
    "longitude": 74.183238,
    "id": 8476713304
  },
  {
    "name": "Civic Centre",
    "category": "shop",
    "subcategory": "mall",
    "latitude": 32.1838991,
    "longitude": 74.181444,
    "id": 8476713311
  },
  {
    "name": "Gujranwala Science Foundation High School",
    "category": "amenity",
    "subcategory": "school",
    "latitude": 32.1766955,
    "longitude": 74.1911058,
    "id": 9411330193
  },
  {
    "name": "Baba Ramzani",
    "category": "amenity",
    "subcategory": "place_of_worship",
    "latitude": 32.1590455,
    "longitude": 74.1878432,
    "id": 9593097092
  },
  {
    "name": "Old Partap Mandir",
    "category": "tourism",
    "subcategory": "attraction",
    "latitude": 32.1575431,
    "longitude": 74.1852106,
    "id": 9593097096
  },
  {
    "name": "باغیچی والی",
    "category": "amenity",
    "subcategory": "place_of_worship",
    "latitude": 32.1572851,
    "longitude": 74.182828,
    "id": 9593097098
  },
  {
    "name": "Bazar Sheikh Jhando",
    "category": "amenity",
    "subcategory": "marketplace",
    "latitude": 32.1582123,
    "longitude": 74.1819653,
    "id": 9593097110
  },
  {
    "name": "Old Bhabhrian Aala Mandir",
    "category": "tourism",
    "subcategory": "attraction",
    "latitude": 32.1559994,
    "longitude": 74.1862003,
    "id": 9593189781
  },
  {
    "name": "Mian Noor Deen",
    "category": "amenity",
    "subcategory": "place_of_worship",
    "latitude": 32.1528336,
    "longitude": 74.1882889,
    "id": 9593558574
  },
  {
    "name": "Bagbanpura Police Station",
    "category": "amenity",
    "subcategory": "police",
    "latitude": 32.1579655,
    "longitude": 74.1795824,
    "id": 9593558593
  },
  {
    "name": "Lords Hotel",
    "category": "tourism",
    "subcategory": "hotel",
    "latitude": 32.1677618,
    "longitude": 74.1949617,
    "id": 10061648799
  },
  {
    "name": "Javed Autos",
    "category": "shop",
    "subcategory": "motorcycle_repair",
    "latitude": 32.1568597,
    "longitude": 74.1802846,
    "id": 10554512887
  },
  {
    "name": "Fatima Masjid",
    "category": "amenity",
    "subcategory": "place_of_worship",
    "latitude": 32.1592219,
    "longitude": 74.1673681,
    "id": 10981730771
  },
  {
    "name": "Mumtaz Market",
    "category": "amenity",
    "subcategory": "marketplace",
    "latitude": 32.1811695,
    "longitude": 74.1851322,
    "id": 11059834000
  },
  {
    "name": "Allied Science Schools",
    "category": "amenity",
    "subcategory": "school",
    "latitude": 32.176415,
    "longitude": 74.205585,
    "id": 11220741409
  },
  {
    "name": "فائیوسٹار رینٹ اے کار",
    "category": "amenity",
    "subcategory": "car_rental",
    "latitude": 32.1828857,
    "longitude": 74.199039,
    "id": 11300289837
  },
  {
    "name": "Elegance Bridal Salon",
    "category": "shop",
    "subcategory": "beauty",
    "latitude": 32.1674923,
    "longitude": 74.2049462,
    "id": 11418669408
  },
  {
    "name": "PurrCure Pet Clinic Gujranwala (Animal Hospital)",
    "category": "amenity",
    "subcategory": "hospital",
    "latitude": 32.1906439,
    "longitude": 74.2102186,
    "id": 12208458988
  },
  {
    "name": "CH. MAZHAR IQBAL SEEDS TRADING COMPANY PVT. LTD",
    "category": "shop",
    "subcategory": "supermarket",
    "latitude": 32.1674007,
    "longitude": 74.1860115,
    "id": 12230334078
  },
  {
    "name": "Chanar Agro",
    "category": "shop",
    "subcategory": "supermarket",
    "latitude": 32.1673727,
    "longitude": 74.1857517,
    "id": 12230370818
  },
  {
    "name": "itlano Pizza",
    "category": "amenity",
    "subcategory": "restaurant",
    "latitude": 32.1854559,
    "longitude": 74.2069709,
    "id": 12569313668
  },
  {
    "name": "Chaudhary Tiles and Sanitary Ware",
    "category": "shop",
    "subcategory": "tiles",
    "latitude": 32.1163719,
    "longitude": 74.1985226,
    "id": 13051607534
  },
  {
    "name": "Alsarij Dajaj",
    "category": "amenity",
    "subcategory": "restaurant",
    "latitude": 32.1803915,
    "longitude": 74.184334,
    "id": 13107933938
  },
  {
    "name": "Goraya Service Station",
    "category": "amenity",
    "subcategory": "car_wash",
    "latitude": 32.1751299,
    "longitude": 74.1904899,
    "id": 13175484776
  },
  {
    "name": "Baseus gujranwala",
    "category": "shop",
    "subcategory": "electronics",
    "latitude": 32.161509,
    "longitude": 74.2016953,
    "id": 13280446916
  },
  {
    "name": "Irani Tailor",
    "category": "shop",
    "subcategory": "tailor",
    "latitude": 32.1553268,
    "longitude": 74.1705517,
    "id": 13817133529
  },
  {
    "name": "AL HAMZA BAKERS",
    "category": "shop",
    "subcategory": "bakery",
    "latitude": 32.1555213,
    "longitude": 74.169826,
    "id": 13817133533
  },
  {
    "name": "Allied Bank",
    "category": "amenity",
    "subcategory": "bank",
    "latitude": 32.1552923,
    "longitude": 74.1688629,
    "id": 13817133534
  },
  {
    "name": "Naeem Electronics",
    "category": "shop",
    "subcategory": "electronics",
    "latitude": 32.1548893,
    "longitude": 74.1685903,
    "id": 13817133535
  },
  {
    "name": "Chand Rent a Car",
    "category": "amenity",
    "subcategory": "car_rental",
    "latitude": 32.1559726,
    "longitude": 74.171389,
    "id": 13817234445
  },
  {
    "name": "Aurangzaib Bakers",
    "category": "shop",
    "subcategory": "bakery",
    "latitude": 32.1562063,
    "longitude": 74.1721818,
    "id": 13817234453
  },
  {
    "name": "Pappu Siri Paye",
    "category": "amenity",
    "subcategory": "food_court",
    "latitude": 32.1559067,
    "longitude": 74.1722773,
    "id": 13817234454
  },
  {
    "name": "Jamia Masjid Siddiqiya Minaar Wali",
    "category": "amenity",
    "subcategory": "place_of_worship",
    "latitude": 32.1562812,
    "longitude": 74.1724366,
    "id": 13817234455
  },
  {
    "name": "یونائیٹڈ بینک لمیٹڈ",
    "category": "amenity",
    "subcategory": "bank",
    "latitude": 32.1549125,
    "longitude": 74.1687121,
    "id": 13833389976
  },
  {
    "name": "Meezan Bank",
    "category": "amenity",
    "subcategory": "bank",
    "latitude": 32.1548592,
    "longitude": 74.1684957,
    "id": 13833389977
  }
]