[
  {
    "name": "Chowk Jameha Masjid",
    "category": "amenity",
    "subcategory": "place_of_worship",
    "latitude": 33.9970284,
    "longitude": 72.9333071,
    "id": 296064576
  },
  {
    "name": "Govt High School No.1 Haripur",
    "category": "amenity",
    "subcategory": "school",
    "latitude": 33.994086,
    "longitude": 72.933583,
    "id": 296092445
  },
  {
    "name": "Darul Aluum Islamia Rehmania",
    "category": "amenity",
    "subcategory": "school",
    "latitude": 33.9989093,
    "longitude": 72.9313018,
    "id": 296159440
  },
  {
    "name": "G.P.O",
    "category": "amenity",
    "subcategory": "post_office",
    "latitude": 33.9956042,
    "longitude": 72.9333886,
    "id": 296159916
  },
  {
    "name": "Govt. Girl's Pilot School",
    "category": "amenity",
    "subcategory": "school",
    "latitude": 33.9952205,
    "longitude": 72.9354203,
    "id": 296160067
  },
  {
    "name": "Govt. Girl's College",
    "category": "amenity",
    "subcategory": "school",
    "latitude": 34.00081,
    "longitude": 72.9312826,
    "id": 296344805
  },
  {
    "name": "D.H.Q. Hospital",
    "category": "amenity",
    "subcategory": "hospital",
    "latitude": 33.9994153,
    "longitude": 72.915155,
    "id": 296345225
  },
  {
    "name": "Post Graduate College",
    "category": "amenity",
    "subcategory": "college",
    "latitude": 33.9870914,
    "longitude": 72.9019587,
    "id": 296350543
  },
  {
    "name": "Fauji Foundation School",
    "category": "amenity",
    "subcategory": "school",
    "latitude": 33.9996003,
    "longitude": 72.9129148,
    "id": 296352940
  },
  {
    "name": "Gate of Knowledge",
    "category": "amenity",
    "subcategory": "school",
    "latitude": 33.9969034,
    "longitude": 72.9309221,
    "id": 296353603
  },
  {
    "name": "Qureshi Hotel",
    "category": "tourism",
    "subcategory": "hotel",
    "latitude": 33.994134,
    "longitude": 72.9330963,
    "id": 296360951
  },
  {
    "name": "Govt.High School No.2",
    "category": "amenity",
    "subcategory": "school",
    "latitude": 33.9983964,
    "longitude": 72.9404605,
    "id": 296362514
  },
  {
    "name": "Masjid Chor Sharif",
    "category": "amenity",
    "subcategory": "place_of_worship",
    "latitude": 34.0029864,
    "longitude": 72.9211873,
    "id": 296365628
  },
  {
    "name": "Sir Syed College",
    "category": "amenity",
    "subcategory": "school",
    "latitude": 34.0010435,
    "longitude": 72.9300664,
    "id": 296365795
  },
  {
    "name": "Aafaq Hotel",
    "category": "tourism",
    "subcategory": "hotel",
    "latitude": 33.9956463,
    "longitude": 72.9431563,
    "id": 296403549
  },
  {
    "name": "نیشنل بینک آف پاکستان",
    "category": "amenity",
    "subcategory": "bank",
    "latitude": 33.9953414,
    "longitude": 72.9447072,
    "id": 296404186
  },
  {
    "name": "Tareen Filling Station",
    "category": "amenity",
    "subcategory": "fuel",
    "latitude": 33.9890476,
    "longitude": 72.913581,
    "id": 296410360
  },
  {
    "name": "Masjid Muslimeen",
    "category": "amenity",
    "subcategory": "place_of_worship",
    "latitude": 33.9950212,
    "longitude": 72.9294722,
    "id": 296410804
  },
  {
    "name": "Rehmania Masjid",
    "category": "amenity",
    "subcategory": "place_of_worship",
    "latitude": 33.9986579,
    "longitude": 72.9303587,
    "id": 296412743
  },
  {
    "name": "Gov. Girls School",
    "category": "amenity",
    "subcategory": "school",
    "latitude": 33.9993807,
    "longitude": 72.9315059,
    "id": 296413046
  },
  {
    "name": "Elementary College",
    "category": "amenity",
    "subcategory": "school",
    "latitude": 33.9943381,
    "longitude": 72.9300559,
    "id": 296413104
  },
  {
    "name": "FEF College for Women, Haripur",
    "category": "amenity",
    "subcategory": "school",
    "latitude": 33.9933019,
    "longitude": 72.9308469,
    "id": 296413617
  },
  {
    "name": "Muncipal Library Haripur",
    "category": "amenity",
    "subcategory": "library",
    "latitude": 33.9943595,
    "longitude": 72.9338262,
    "id": 296875552
  },
  {
    "name": "Alrasheed Hospital Haripur",
    "category": "amenity",
    "subcategory": "hospital",
    "latitude": 33.996244,
    "longitude": 72.9296294,
    "id": 297159227
  },
  {
    "name": "Masjid Fawara Haripur",
    "category": "amenity",
    "subcategory": "place_of_worship",
    "latitude": 33.9970481,
    "longitude": 72.9361354,
    "id": 297159931
  },
  {
    "name": "Alghazi Hospital",
    "category": "amenity",
    "subcategory": "hospital",
    "latitude": 33.9968489,
    "longitude": 72.9321443,
    "id": 297213052
  },
  {
    "name": "Yateem Khana",
    "category": "amenity",
    "subcategory": "school",
    "latitude": 33.9933833,
    "longitude": 72.9324103,
    "id": 297213176
  },
  {
    "name": "Govt. High School Darwesh",
    "category": "amenity",
    "subcategory": "school",
    "latitude": 33.9903233,
    "longitude": 72.9100858,
    "id": 297233686
  },
  {
    "name": "International Public School",
    "category": "amenity",
    "subcategory": "school",
    "latitude": 33.9874838,
    "longitude": 72.9110213,
    "id": 297235224
  },
  {
    "name": "Hazara Public School",
    "category": "amenity",
    "subcategory": "school",
    "latitude": 33.9853985,
    "longitude": 72.9166432,
    "id": 297235254
  },
  {
    "name": "Kalash Hotel",
    "category": "tourism",
    "subcategory": "hotel",
    "latitude": 33.9951521,
    "longitude": 72.9274738,
    "id": 297426155
  },
  {
    "name": "Telecom Girl's School Haripur",
    "category": "amenity",
    "subcategory": "school",
    "latitude": 33.9679287,
    "longitude": 72.9234655,
    "id": 297469184
  },
  {
    "name": "Jame Masjid TIP",
    "category": "amenity",
    "subcategory": "place_of_worship",
    "latitude": 33.969452,
    "longitude": 72.932306,
    "id": 297469396
  },
  {
    "name": "TIP Hospital",
    "category": "amenity",
    "subcategory": "hospital",
    "latitude": 33.9689679,
    "longitude": 72.9266669,
    "id": 297470231
  },
  {
    "name": "TIP Children Park",
    "category": "leisure",
    "subcategory": "park",
    "latitude": 33.969089,
    "longitude": 72.9208648,
    "id": 297471025
  },
  {
    "name": "Officer's Club (Marriage Hall)",
    "category": "amenity",
    "subcategory": "cafe",
    "latitude": 33.9710927,
    "longitude": 72.9212348,
    "id": 297471981
  },
  {
    "name": "Telecom Boys's Public School",
    "category": "amenity",
    "subcategory": "school",
    "latitude": 33.9756873,
    "longitude": 72.9291303,
    "id": 297472052
  },
  {
    "name": "Govt. Commerce College",
    "category": "amenity",
    "subcategory": "school",
    "latitude": 34.0026165,
    "longitude": 72.9005315,
    "id": 297476467
  },
  {
    "name": "Eid Gah Meelum",
    "category": "amenity",
    "subcategory": "place_of_worship",
    "latitude": 33.9973652,
    "longitude": 72.8980853,
    "id": 297476495
  },
  {
    "name": "New Session Court",
    "category": "amenity",
    "subcategory": "courthouse",
    "latitude": 33.9944596,
    "longitude": 72.9353136,
    "id": 297480806
  },
  {
    "name": "Police Station Haripur",
    "category": "amenity",
    "subcategory": "police",
    "latitude": 33.9991265,
    "longitude": 72.9358176,
    "id": 297482850
  },
  {
    "name": "Mohallah Koha",
    "category": "amenity",
    "subcategory": "school",
    "latitude": 34.00008,
    "longitude": 72.9327449,
    "id": 297486607
  },
  {
    "name": "PSO & CNG",
    "category": "amenity",
    "subcategory": "fuel",
    "latitude": 33.9952405,
    "longitude": 72.9425105,
    "id": 299723132
  },
  {
    "name": "Rawalpindi Bus stand",
    "category": "amenity",
    "subcategory": "bus_station",
    "latitude": 33.9945859,
    "longitude": 72.9426822,
    "id": 299723602
  },
  {
    "name": "Bank Alflah",
    "category": "amenity",
    "subcategory": "bank",
    "latitude": 33.9959166,
    "longitude": 72.9423646,
    "id": 309504972
  },
  {
    "name": "Mother Care Maternity",
    "category": "amenity",
    "subcategory": "hospital",
    "latitude": 33.9959664,
    "longitude": 72.9419183,
    "id": 309505786
  },
  {
    "name": "مسجد",
    "category": "amenity",
    "subcategory": "place_of_worship",
    "latitude": 33.9944507,
    "longitude": 72.9386224,
    "id": 309506226
  },
  {
    "name": "Alfaisal Hospital",
    "category": "amenity",
    "subcategory": "hospital",
    "latitude": 33.994919,
    "longitude": 72.927017,
    "id": 309598272
  },
  {
    "name": "Gajal Plaza",
    "category": "shop",
    "subcategory": "supermarket",
    "latitude": 34.001494,
    "longitude": 72.930991,
    "id": 309598881
  },
  {
    "name": "Peshawar Coster Stand",
    "category": "amenity",
    "subcategory": "bus_station",
    "latitude": 33.9946272,
    "longitude": 72.9392307,
    "id": 309599514
  },
  {
    "name": "Suzuki Stand Jari Kas",
    "category": "amenity",
    "subcategory": "parking",
    "latitude": 33.9949721,
    "longitude": 72.9287706,
    "id": 309625535
  },
  {
    "name": "CNG Stand",
    "category": "amenity",
    "subcategory": "parking",
    "latitude": 33.9954204,
    "longitude": 72.9298606,
    "id": 309625575
  },
  {
    "name": "مسجد",
    "category": "amenity",
    "subcategory": "place_of_worship",
    "latitude": 34.0013324,
    "longitude": 72.9321011,
    "id": 309675635
  },
  {
    "name": "Jaferi Market",
    "category": "shop",
    "subcategory": "supermarket",
    "latitude": 33.9968779,
    "longitude": 72.9326419,
    "id": 309675959
  },
  {
    "name": "Eidgah Darwesh",
    "category": "amenity",
    "subcategory": "place_of_worship",
    "latitude": 33.9885366,
    "longitude": 72.9113432,
    "id": 309683497
  },
  {
    "name": "Rehmania Masjid",
    "category": "amenity",
    "subcategory": "place_of_worship",
    "latitude": 33.9992095,
    "longitude": 72.9311454,
    "id": 310220983
  },
  {
    "name": "Timber Market",
    "category": "shop",
    "subcategory": "yes",
    "latitude": 33.996662,
    "longitude": 72.9366558,
    "id": 310225509
  },
  {
    "name": "Ahele Hadith Mosque",
    "category": "amenity",
    "subcategory": "place_of_worship",
    "latitude": 33.9948814,
    "longitude": 72.9361114,
    "id": 340232314
  },
  {
    "name": "پیزا ہٹ",
    "category": "amenity",
    "subcategory": "fast_food",
    "latitude": 33.9951571,
    "longitude": 72.927503,
    "id": 482878992
  },
  {
    "name": "سی این جی",
    "category": "amenity",
    "subcategory": "fuel",
    "latitude": 34.0178743,
    "longitude": 72.9294735,
    "id": 2633757346
  },
  {
    "name": "cng",
    "category": "amenity",
    "subcategory": "fuel",
    "latitude": 33.9731915,
    "longitude": 72.920956,
    "id": 2734486959
  },
  {
    "name": "cng",
    "category": "amenity",
    "subcategory": "fuel",
    "latitude": 33.9738341,
    "longitude": 72.9211049,
    "id": 2734486964
  },
  {
    "name": "سی این جی",
    "category": "amenity",
    "subcategory": "fuel",
    "latitude": 33.9800039,
    "longitude": 72.9239397,
    "id": 2734486986
  },
  {
    "name": "سی این جی",
    "category": "amenity",
    "subcategory": "fuel",
    "latitude": 33.9895252,
    "longitude": 72.9298052,
    "id": 2734487006
  },
  {
    "name": "malik ahmer cng station",
    "category": "amenity",
    "subcategory": "fuel",
    "latitude": 33.9943264,
    "longitude": 72.9236376,
    "id": 2734608179
  },
  {
    "name": "Admore",
    "category": "amenity",
    "subcategory": "fuel",
    "latitude": 33.9946338,
    "longitude": 72.9245514,
    "id": 2734608185
  },
  {
    "name": "Haq CNG",
    "category": "amenity",
    "subcategory": "fuel",
    "latitude": 33.9951488,
    "longitude": 72.9279268,
    "id": 2734680252
  },
  {
    "name": "سی این جی",
    "category": "amenity",
    "subcategory": "fuel",
    "latitude": 33.9847568,
    "longitude": 72.8958424,
    "id": 2740085506
  },
  {
    "name": "shell petrol pump",
    "category": "amenity",
    "subcategory": "fuel",
    "latitude": 33.994436,
    "longitude": 72.9487101,
    "id": 4205244290
  },
  {
    "name": "M&P Courier Haripur",
    "category": "amenity",
    "subcategory": "post_office",
    "latitude": 33.9951914,
    "longitude": 72.9257747,
    "id": 4555926891
  },
  {
    "name": "Jamia Masjid Kanz-ul-eman",
    "category": "amenity",
    "subcategory": "place_of_worship",
    "latitude": 33.9937233,
    "longitude": 72.9490153,
    "id": 5168897921
  },
  {
    "name": "Zeeshan",
    "category": "tourism",
    "subcategory": "apartment",
    "latitude": 33.9980244,
    "longitude": 72.9386713,
    "id": 5597867921
  },
  {
    "name": "HARIPUR HAZARA",
    "category": "amenity",
    "subcategory": "community_centre",
    "latitude": 33.9943917,
    "longitude": 72.9335495,
    "id": 6185589385
  },
  {
    "name": "Friends Mart",
    "category": "shop",
    "subcategory": "supermarket",
    "latitude": 33.9989916,
    "longitude": 72.9301482,
    "id": 6311445285
  },
  {
    "name": "Italian Inn Hotel",
    "category": "tourism",
    "subcategory": "hotel",
    "latitude": 33.9952035,
    "longitude": 72.9275156,
    "id": 6886585785
  },
  {
    "name": "Muhammad Miskeen (Home)",
    "category": "tourism",
    "subcategory": "guest_house",
    "latitude": 34.0149802,
    "longitude": 72.923891,
    "id": 7883592586
  },
  {
    "name": "Sabzi Mandi Haripur",
    "category": "amenity",
    "subcategory": "marketplace",
    "latitude": 33.9965075,
    "longitude": 72.9268911,
    "id": 8933741747
  }
]