[
  {
    "name": "Shrine of Lal Shah Bari",
    "category": "amenity",
    "subcategory": "place_of_worship",
    "latitude": 28.0129842,
    "longitude": 68.0993088,
    "id": 13822189781
  },
  {
    "name": "Lal Shah Bari",
    "category": "place",
    "subcategory": "village",
    "latitude": 28.0127089,
    "longitude": 68.1000138,
    "id": 13822189782
  },
  {
    "name": "Ghulam Hussain Brohi",
    "category": "place",
    "subcategory": "village",
    "latitude": 28.0187793,
    "longitude": 68.1056539,
    "id": 13968812412
  },
  {
    "name": "لال شاہ باری روڈ",
    "category": "highway",
    "subcategory": "residential",
    "latitude": 28.016332375925927,
    "longitude": 68.09709350185186,
    "id": 1060527949
  },
  {
    "name": "Ghulam Hussain Brohi Road",
    "category": "highway",
    "subcategory": "residential",
    "latitude": 28.017100550000002,
    "longitude": 68.09936102500001,
    "id": 1062032398
  },
  {
    "name": "residential",
    "category": "highway",
    "subcategory": "residential",
    "latitude": 28.019134964285712,
    "longitude": 68.10500630714286,
    "id": 1062032399
  }
]