[
  {
    "name": "school of law",
    "category": "amenity",
    "subcategory": "school",
    "latitude": 34.4175491,
    "longitude": 73.249588,
    "id": 4305472895
  },
  {
    "name": "Nes Fast Technology",
    "category": "shop",
    "subcategory": "copyshop",
    "latitude": 34.4237739,
    "longitude": 73.246652,
    "id": 6417384085
  },
  {
    "name": "Smart Institute of Information Technology",
    "category": "amenity",
    "subcategory": "college",
    "latitude": 34.4289,
    "longitude": 73.2516181,
    "id": 6417384285
  },
  {
    "name": "Department of Conservation Studies",
    "category": "amenity",
    "subcategory": "school",
    "latitude": 34.4212448,
    "longitude": 73.2535493,
    "id": 6438122385
  },
  {
    "name": "Examination section",
    "category": "amenity",
    "subcategory": "school",
    "latitude": 34.4199359,
    "longitude": 73.2509527,
    "id": 6438122485
  }
]