[
  {
    "name": "fountain",
    "category": "amenity",
    "subcategory": "fountain",
    "latitude": 33.5131291,
    "longitude": 73.9006688,
    "id": 1625042878
  },
  {
    "name": "Jamia Mosque",
    "category": "amenity",
    "subcategory": "place_of_worship",
    "latitude": 33.5125656,
    "longitude": 73.9022218,
    "id": 1625045341
  },
  {
    "name": "jamia mosque",
    "category": "amenity",
    "subcategory": "place_of_worship",
    "latitude": 33.5156405,
    "longitude": 73.9027368,
    "id": 1625046097
  },
  {
    "name": "jamia mosque",
    "category": "amenity",
    "subcategory": "place_of_worship",
    "latitude": 33.5200771,
    "longitude": 73.9056229,
    "id": 1625047063
  },
  {
    "name": "PETROL PUMP",
    "category": "amenity",
    "subcategory": "fuel",
    "latitude": 33.5148878,
    "longitude": 73.9001539,
    "id": 1631123223
  },
  {
    "name": "MOSQUE",
    "category": "shop",
    "subcategory": "kiosk",
    "latitude": 33.5124502,
    "longitude": 73.891839,
    "id": 1631157890
  },
  {
    "name": "jamia masjid",
    "category": "amenity",
    "subcategory": "place_of_worship",
    "latitude": 33.5179264,
    "longitude": 73.8959644,
    "id": 1671555370
  },
  {
    "name": "bank of azad jamuu kashmir",
    "category": "amenity",
    "subcategory": "bank",
    "latitude": 33.5214008,
    "longitude": 73.9070743,
    "id": 5110207621
  },
  {
    "name": "bus stand",
    "category": "amenity",
    "subcategory": "bus_station",
    "latitude": 33.5226656,
    "longitude": 73.9071993,
    "id": 5110207721
  },
  {
    "name": "Aslam House",
    "category": "tourism",
    "subcategory": "apartment",
    "latitude": 33.5175209,
    "longitude": 73.8961205,
    "id": 5272617521
  },
  {
    "name": "cocacola",
    "category": "shop",
    "subcategory": "beverages",
    "latitude": 33.4901222,
    "longitude": 73.8937675,
    "id": 5369849326
  }
]