[
  {
    "name": "grave_yard",
    "category": "amenity",
    "subcategory": "grave_yard",
    "latitude": 32.775076,
    "longitude": 73.1164869,
    "id": 2319855713
  },
  {
    "name": "Jhek",
    "category": "place",
    "subcategory": "village",
    "latitude": 32.7799112,
    "longitude": 73.1042978,
    "id": 2319923765
  },
  {
    "name": "Wagwal Zer",
    "category": "place",
    "subcategory": "village",
    "latitude": 32.7760324,
    "longitude": 73.10492,
    "id": 2319924426
  },
  {
    "name": "Loharan",
    "category": "place",
    "subcategory": "village",
    "latitude": 32.7678051,
    "longitude": 73.111014,
    "id": 2319927285
  },
  {
    "name": "Khokhar Wali",
    "category": "place",
    "subcategory": "village",
    "latitude": 32.7681299,
    "longitude": 73.1141254,
    "id": 2319927529
  },
  {
    "name": "Khotian",
    "category": "place",
    "subcategory": "village",
    "latitude": 32.7730555,
    "longitude": 73.108997,
    "id": 2319927682
  },
  {
    "name": "Asif Shaheed Road",
    "category": "highway",
    "subcategory": "residential",
    "latitude": 32.77639624909091,
    "longitude": 73.11362125636364,
    "id": 223041324
  },
  {
    "name": "water",
    "category": "natural",
    "subcategory": "water",
    "latitude": 32.7753611,
    "longitude": 73.10960900833334,
    "id": 223043370
  },
  {
    "name": "Dhok Wagwal Zer Road",
    "category": "highway",
    "subcategory": "unclassified",
    "latitude": 32.77610740555556,
    "longitude": 73.11146362777778,
    "id": 273195562
  },
  {
    "name": "Wagwal Zer Road",
    "category": "highway",
    "subcategory": "unclassified",
    "latitude": 32.77830893653846,
    "longitude": 73.10864121346154,
    "id": 273196343
  },
  {
    "name": "water",
    "category": "natural",
    "subcategory": "water",
    "latitude": 32.7753611,
    "longitude": 73.10960900833334,
    "id": 223043370
  }
]