[
  {
    "name": "Heer Ranjha Darbar",
    "category": "amenity",
    "subcategory": "place_of_worship",
    "latitude": 31.2752562,
    "longitude": 72.3369112,
    "id": 4438465863
  },
  {
    "name": "Tanga Adda Jhang City",
    "category": "tourism",
    "subcategory": "attraction",
    "latitude": 31.3023737,
    "longitude": 72.3235259,
    "id": 4788283726
  },
  {
    "name": "Chohan Brothers PVT. LTD",
    "category": "shop",
    "subcategory": "travel_agency",
    "latitude": 31.2664601,
    "longitude": 72.3245992,
    "id": 4788298324
  },
  {
    "name": "Civil line home",
    "category": "amenity",
    "subcategory": "casino",
    "latitude": 31.2606406,
    "longitude": 72.3226812,
    "id": 4926573321
  },
  {
    "name": "Ayub Chowk Jhang",
    "category": "amenity",
    "subcategory": "bus_station",
    "latitude": 31.2777606,
    "longitude": 72.3213727,
    "id": 5156559523
  },
  {
    "name": "Niaz Petroleum Service",
    "category": "amenity",
    "subcategory": "fuel",
    "latitude": 31.3054305,
    "longitude": 72.3152989,
    "id": 5300923822
  },
  {
    "name": "DHQ Hospital Jhang Sadar",
    "category": "amenity",
    "subcategory": "hospital",
    "latitude": 31.2632597,
    "longitude": 72.3332446,
    "id": 6155086487
  },
  {
    "name": "Jhang Sadar Bus Station",
    "category": "amenity",
    "subcategory": "bus_station",
    "latitude": 31.2896607,
    "longitude": 72.3225131,
    "id": 6155160387
  },
  {
    "name": "Rescue 1122 Jhang Sadar",
    "category": "amenity",
    "subcategory": "fire_station",
    "latitude": 31.2778182,
    "longitude": 72.3255034,
    "id": 6155160585
  },
  {
    "name": "پاکستان اسٹیٹ آئل",
    "category": "amenity",
    "subcategory": "fuel",
    "latitude": 31.288675,
    "longitude": 72.3277033,
    "id": 6155160586
  },
  {
    "name": "Government Primary School",
    "category": "amenity",
    "subcategory": "school",
    "latitude": 31.2888225,
    "longitude": 72.3247306,
    "id": 6155160785
  },
  {
    "name": "Bank Alfalah Ayub Chowk",
    "category": "amenity",
    "subcategory": "bank",
    "latitude": 31.2784817,
    "longitude": 72.3210602,
    "id": 6155341987
  },
  {
    "name": "Allied Bank Ketchary Road",
    "category": "amenity",
    "subcategory": "bank",
    "latitude": 31.2766398,
    "longitude": 72.3218791,
    "id": 6155341989
  },
  {
    "name": "شیل",
    "category": "amenity",
    "subcategory": "fuel",
    "latitude": 31.2779581,
    "longitude": 72.324432,
    "id": 6155342192
  },
  {
    "name": "Al-Jannat Bakery Ayub Chowk",
    "category": "shop",
    "subcategory": "bakery",
    "latitude": 31.2775931,
    "longitude": 72.3213591,
    "id": 6182657486
  },
  {
    "name": "پاکستان اسٹیٹ آئل",
    "category": "amenity",
    "subcategory": "fuel",
    "latitude": 31.2737735,
    "longitude": 72.3192023,
    "id": 6182657487
  },
  {
    "name": "Districts Courts Jhang",
    "category": "amenity",
    "subcategory": "courthouse",
    "latitude": 31.2704139,
    "longitude": 72.3231224,
    "id": 6182657488
  },
  {
    "name": "Pakistan Post Office",
    "category": "amenity",
    "subcategory": "post_office",
    "latitude": 31.270535,
    "longitude": 72.3232075,
    "id": 6182657489
  },
  {
    "name": "Shaheen Guest House",
    "category": "tourism",
    "subcategory": "guest_house",
    "latitude": 31.2748751,
    "longitude": 72.3243591,
    "id": 6182657491
  },
  {
    "name": "Tahir Garden",
    "category": "amenity",
    "subcategory": "restaurant",
    "latitude": 31.2689734,
    "longitude": 72.330794,
    "id": 6182657492
  },
  {
    "name": "Medical Store",
    "category": "amenity",
    "subcategory": "pharmacy",
    "latitude": 31.2777132,
    "longitude": 72.3216842,
    "id": 6182657493
  },
  {
    "name": "مسجد بلال",
    "category": "amenity",
    "subcategory": "place_of_worship",
    "latitude": 31.2779982,
    "longitude": 72.321566,
    "id": 6182657494
  },
  {
    "name": "سالویشن آرمی چرچ جھنگ ڈویژن",
    "category": "amenity",
    "subcategory": "place_of_worship",
    "latitude": 31.2706332,
    "longitude": 72.3214862,
    "id": 6182657495
  },
  {
    "name": "Awaz FM 105 Plaza",
    "category": "amenity",
    "subcategory": "community_centre",
    "latitude": 31.2705927,
    "longitude": 72.3207501,
    "id": 6182657496
  },
  {
    "name": "پٹرول پمپ",
    "category": "amenity",
    "subcategory": "fuel",
    "latitude": 31.2766422,
    "longitude": 72.3204367,
    "id": 6182657497
  },
  {
    "name": "شیل",
    "category": "amenity",
    "subcategory": "fuel",
    "latitude": 31.2885353,
    "longitude": 72.3188781,
    "id": 6182657498
  },
  {
    "name": "Government Post Graduate College Jhang",
    "category": "amenity",
    "subcategory": "college",
    "latitude": 31.2897692,
    "longitude": 72.317834,
    "id": 6182657499
  },
  {
    "name": "Tableeghi Markaz Jhang",
    "category": "amenity",
    "subcategory": "place_of_worship",
    "latitude": 31.2915458,
    "longitude": 72.3188751,
    "id": 6182657500
  },
  {
    "name": "Bismillah Sweets",
    "category": "shop",
    "subcategory": "bakery",
    "latitude": 31.2775726,
    "longitude": 72.3215099,
    "id": 6182657501
  },
  {
    "name": "Fowara Chowk",
    "category": "tourism",
    "subcategory": "attraction",
    "latitude": 31.2741768,
    "longitude": 72.316438,
    "id": 6182717586
  },
  {
    "name": "IBRAHIM Hotel",
    "category": "amenity",
    "subcategory": "fast_food",
    "latitude": 31.2740963,
    "longitude": 72.3189063,
    "id": 6182717587
  },
  {
    "name": "Ketchary Chowk",
    "category": "tourism",
    "subcategory": "attraction",
    "latitude": 31.270467,
    "longitude": 72.3228242,
    "id": 6182717588
  },
  {
    "name": "Nawaz Chowk Jhang",
    "category": "tourism",
    "subcategory": "attraction",
    "latitude": 31.2662084,
    "longitude": 72.3248882,
    "id": 6182717589
  },
  {
    "name": "ایم سی بی بینک",
    "category": "amenity",
    "subcategory": "bank",
    "latitude": 31.2662914,
    "longitude": 72.3249012,
    "id": 6182717590
  },
  {
    "name": "Ibrahim Marriage Hall",
    "category": "amenity",
    "subcategory": "restaurant",
    "latitude": 31.2699319,
    "longitude": 72.3281286,
    "id": 6182717591
  },
  {
    "name": "Vicky Hotel Ayub Chowk",
    "category": "amenity",
    "subcategory": "bus_station",
    "latitude": 31.2763197,
    "longitude": 72.3201778,
    "id": 6182717592
  },
  {
    "name": "Jigar Restaurant Yusif Shah Road",
    "category": "amenity",
    "subcategory": "restaurant",
    "latitude": 31.2717069,
    "longitude": 72.3189106,
    "id": 6182717593
  },
  {
    "name": "Dinner's Cloth Shop",
    "category": "shop",
    "subcategory": "clothes",
    "latitude": 31.2698533,
    "longitude": 72.3204799,
    "id": 6182717594
  },
  {
    "name": "Government Girls College Jhang",
    "category": "amenity",
    "subcategory": "college",
    "latitude": 31.2672928,
    "longitude": 72.3208066,
    "id": 6182717596
  },
  {
    "name": "Medical Store",
    "category": "amenity",
    "subcategory": "pharmacy",
    "latitude": 31.2636008,
    "longitude": 72.3331614,
    "id": 6182717597
  },
  {
    "name": "Medical Store",
    "category": "amenity",
    "subcategory": "pharmacy",
    "latitude": 31.2635512,
    "longitude": 72.3334058,
    "id": 6182717598
  },
  {
    "name": "Gondal Diagnostic Laboratory",
    "category": "amenity",
    "subcategory": "clinic",
    "latitude": 31.2642363,
    "longitude": 72.3297995,
    "id": 6182717600
  },
  {
    "name": "Gyane Hospital",
    "category": "amenity",
    "subcategory": "hospital",
    "latitude": 31.2762668,
    "longitude": 72.3220651,
    "id": 6182717601
  },
  {
    "name": "ایم سی بی بینک",
    "category": "amenity",
    "subcategory": "bank",
    "latitude": 31.275935,
    "longitude": 72.3221925,
    "id": 6182717602
  },
  {
    "name": "ڈاکٹر کلینک",
    "category": "amenity",
    "subcategory": "hospital",
    "latitude": 31.2672544,
    "longitude": 72.322231,
    "id": 6182717603
  },
  {
    "name": "CNG Station",
    "category": "amenity",
    "subcategory": "fuel",
    "latitude": 31.2769384,
    "longitude": 72.3218386,
    "id": 6182717605
  },
  {
    "name": "3 Star Guest House",
    "category": "tourism",
    "subcategory": "guest_house",
    "latitude": 31.2767462,
    "longitude": 72.3218523,
    "id": 6182717606
  },
  {
    "name": "Car Rental Area Ayub Chowk",
    "category": "amenity",
    "subcategory": "car_rental",
    "latitude": 31.2772052,
    "longitude": 72.3214433,
    "id": 6182717608
  },
  {
    "name": "HFC",
    "category": "amenity",
    "subcategory": "fast_food",
    "latitude": 31.2710379,
    "longitude": 72.3206217,
    "id": 6698434889
  },
  {
    "name": "Jamis mosque toheedia",
    "category": "amenity",
    "subcategory": "school",
    "latitude": 31.2745536,
    "longitude": 72.305289,
    "id": 10706737805
  },
  {
    "name": "حرمین موٹرز",
    "category": "shop",
    "subcategory": "car",
    "latitude": 31.2629581,
    "longitude": 72.3170116,
    "id": 11117328618
  }
]