[
  {
    "name": "Qila Islam Nagar",
    "category": "amenity",
    "subcategory": "dentist",
    "latitude": 32.6973674,
    "longitude": 74.4097802,
    "id": 4744465721
  },
  {
    "name": "Government Higher Secondary School Tanda",
    "category": "amenity",
    "subcategory": "school",
    "latitude": 32.7051587,
    "longitude": 74.3695109,
    "id": 4864623045
  },
  {
    "name": "Khatana Supermarket & Sweetshop",
    "category": "shop",
    "subcategory": "supermarket",
    "latitude": 32.7029816,
    "longitude": 74.3691175,
    "id": 4864623046
  },
  {
    "name": "Municipality Office Tanda",
    "category": "tourism",
    "subcategory": "guest_house",
    "latitude": 32.7032948,
    "longitude": 74.3686108,
    "id": 4864623047
  },
  {
    "name": "Tanda Police Station",
    "category": "amenity",
    "subcategory": "police",
    "latitude": 32.702283,
    "longitude": 74.3693615,
    "id": 4864623048
  },
  {
    "name": "Town Water Supplies",
    "category": "amenity",
    "subcategory": "drinking_water",
    "latitude": 32.7034636,
    "longitude": 74.3698159,
    "id": 4864623050
  },
  {
    "name": "UBL Bank Tanda",
    "category": "amenity",
    "subcategory": "bank",
    "latitude": 32.7008232,
    "longitude": 74.3671125,
    "id": 4864623828
  },
  {
    "name": "National Bank Tanda",
    "category": "amenity",
    "subcategory": "bank",
    "latitude": 32.700631,
    "longitude": 74.3670339,
    "id": 4864623829
  },
  {
    "name": "Government Rural Health Centre Tanda",
    "category": "amenity",
    "subcategory": "hospital",
    "latitude": 32.6985219,
    "longitude": 74.3654767,
    "id": 4865408821
  },
  {
    "name": "Deen Memorial Pharmacy",
    "category": "amenity",
    "subcategory": "pharmacy",
    "latitude": 32.6998108,
    "longitude": 74.3652222,
    "id": 4865408823
  },
  {
    "name": "Butcher Shop",
    "category": "shop",
    "subcategory": "butcher",
    "latitude": 32.6999622,
    "longitude": 74.3664027,
    "id": 4865408824
  },
  {
    "name": "Jinnah Star School Tanda",
    "category": "amenity",
    "subcategory": "school",
    "latitude": 32.7011009,
    "longitude": 74.3656213,
    "id": 4865408825
  },
  {
    "name": "Ishaq Hardware Store",
    "category": "shop",
    "subcategory": "hardware",
    "latitude": 32.7007209,
    "longitude": 74.3673823,
    "id": 4865408826
  },
  {
    "name": "Lady's Healthcare Centre",
    "category": "amenity",
    "subcategory": "clinic",
    "latitude": 32.6996162,
    "longitude": 74.3661874,
    "id": 4865410221
  },
  {
    "name": "Choudhary Ibrahim Gas Station Tanda",
    "category": "amenity",
    "subcategory": "fuel",
    "latitude": 32.6982202,
    "longitude": 74.357549,
    "id": 4865454221
  },
  {
    "name": "Marriage Hall Tanda",
    "category": "amenity",
    "subcategory": "community_centre",
    "latitude": 32.6975108,
    "longitude": 74.3554772,
    "id": 4865454222
  },
  {
    "name": "Government Veterinary Centre Tanda",
    "category": "amenity",
    "subcategory": "veterinary",
    "latitude": 32.7037238,
    "longitude": 74.3681555,
    "id": 4865454223
  },
  {
    "name": "Eidgah Mosque Tanda",
    "category": "amenity",
    "subcategory": "place_of_worship",
    "latitude": 32.7016898,
    "longitude": 74.3705615,
    "id": 4865454224
  },
  {
    "name": "Malik & Sons Tanda",
    "category": "shop",
    "subcategory": "department_store",
    "latitude": 32.7014291,
    "longitude": 74.3702593,
    "id": 4865454225
  },
  {
    "name": "Abid Shah Copy Shop Tanda",
    "category": "shop",
    "subcategory": "copyshop",
    "latitude": 32.7015749,
    "longitude": 74.3693168,
    "id": 4865454226
  },
  {
    "name": "Dr. Sabar Clinic Tanda",
    "category": "amenity",
    "subcategory": "clinic",
    "latitude": 32.7031326,
    "longitude": 74.3697617,
    "id": 4865454421
  },
  {
    "name": "Dewan Ali Supermarket",
    "category": "shop",
    "subcategory": "supermarket",
    "latitude": 32.7029983,
    "longitude": 74.3695201,
    "id": 4865454521
  },
  {
    "name": "Government Computer Centre Tanda",
    "category": "shop",
    "subcategory": "computer",
    "latitude": 32.7051137,
    "longitude": 74.3691015,
    "id": 4865454522
  },
  {
    "name": "Government Primary Boys School Tanda",
    "category": "amenity",
    "subcategory": "school",
    "latitude": 32.7048922,
    "longitude": 74.3686246,
    "id": 4865454721
  },
  {
    "name": "Village Hospital Tanda",
    "category": "amenity",
    "subcategory": "hospital",
    "latitude": 32.7015029,
    "longitude": 74.3705881,
    "id": 4865454723
  },
  {
    "name": "Bata & Service Shop Tanda",
    "category": "shop",
    "subcategory": "shoes",
    "latitude": 32.7013189,
    "longitude": 74.3689705,
    "id": 4865454724
  },
  {
    "name": "Sufi  Furniture Store",
    "category": "shop",
    "subcategory": "furniture",
    "latitude": 32.7013583,
    "longitude": 74.3693191,
    "id": 4865455121
  },
  {
    "name": "Karam Elahi Clothes House",
    "category": "shop",
    "subcategory": "clothes",
    "latitude": 32.7011979,
    "longitude": 74.3706131,
    "id": 4888511921
  },
  {
    "name": "Rafique Saraf Jewellery Tanda",
    "category": "shop",
    "subcategory": "jewelry",
    "latitude": 32.7006968,
    "longitude": 74.3707526,
    "id": 4888511922
  },
  {
    "name": "Nazar & Zahoor Veg. Shop",
    "category": "shop",
    "subcategory": "beverages",
    "latitude": 32.7000586,
    "longitude": 74.3705744,
    "id": 4888511923
  },
  {
    "name": "Butt Sweet Shop Tanda",
    "category": "shop",
    "subcategory": "confectionery",
    "latitude": 32.7000482,
    "longitude": 74.3710166,
    "id": 4888511924
  },
  {
    "name": "Maqsud Jutt Gift Shop",
    "category": "shop",
    "subcategory": "gift",
    "latitude": 32.7005027,
    "longitude": 74.3707549,
    "id": 4888511925
  },
  {
    "name": "Rana Medical Store Tanda",
    "category": "amenity",
    "subcategory": "pharmacy",
    "latitude": 32.7005152,
    "longitude": 74.3704976,
    "id": 4888511926
  },
  {
    "name": "Nawaz Saraf Jewellery Tanda",
    "category": "shop",
    "subcategory": "jewelry",
    "latitude": 32.7002432,
    "longitude": 74.3706238,
    "id": 4888512021
  },
  {
    "name": "Ijaz Shah Restaurant Tanda",
    "category": "tourism",
    "subcategory": "hotel",
    "latitude": 32.7007619,
    "longitude": 74.3663636,
    "id": 4888512022
  },
  {
    "name": "Al Farid's Book Store",
    "category": "shop",
    "subcategory": "books",
    "latitude": 32.7025179,
    "longitude": 74.3692717,
    "id": 4888512023
  },
  {
    "name": "Sheikh Rashid Barber Shop",
    "category": "shop",
    "subcategory": "cosmetics",
    "latitude": 32.7007123,
    "longitude": 74.365459,
    "id": 4888512121
  },
  {
    "name": "Malik Book Store Tanda",
    "category": "shop",
    "subcategory": "books",
    "latitude": 32.7006506,
    "longitude": 74.365644,
    "id": 4888512221
  },
  {
    "name": "Tanda Honda Centre Tanda",
    "category": "shop",
    "subcategory": "bicycle",
    "latitude": 32.6999233,
    "longitude": 74.363662,
    "id": 6427599885
  },
  {
    "name": "Qadri Auto Service Tanda",
    "category": "shop",
    "subcategory": "bicycle",
    "latitude": 32.703211,
    "longitude": 74.3692832,
    "id": 6474779086
  }
]