[
  {
    "name": "ٹانڈہ",
    "category": "place",
    "subcategory": "town",
    "latitude": 32.7019282,
    "longitude": 74.3701841,
    "id": 2425933719
  },
  {
    "name": "Gujran",
    "category": "place",
    "subcategory": "village",
    "latitude": 32.6721709,
    "longitude": 74.3535514,
    "id": 2449326410
  },
  {
    "name": "ماڑی کھوکھراں",
    "category": "place",
    "subcategory": "village",
    "latitude": 32.6689661,
    "longitude": 74.4078611,
    "id": 2450174863
  },
  {
    "name": "پرہ بھٹی",
    "category": "place",
    "subcategory": "village",
    "latitude": 32.703002,
    "longitude": 74.3939207,
    "id": 2450178909
  },
  {
    "name": "کاکیاں والا",
    "category": "place",
    "subcategory": "village",
    "latitude": 32.6956505,
    "longitude": 74.3892698,
    "id": 2450178936
  },
  {
    "name": "شیرو چک",
    "category": "place",
    "subcategory": "village",
    "latitude": 32.7074264,
    "longitude": 74.3889923,
    "id": 2450185764
  },
  {
    "name": "سنگو",
    "category": "place",
    "subcategory": "village",
    "latitude": 32.7336554,
    "longitude": 74.402769,
    "id": 2450808510
  },
  {
    "name": "ھڈکا",
    "category": "place",
    "subcategory": "village",
    "latitude": 32.7326498,
    "longitude": 74.3926296,
    "id": 2450808513
  },
  {
    "name": "Gujran Kalan",
    "category": "place",
    "subcategory": "village",
    "latitude": 32.6659235,
    "longitude": 74.3533956,
    "id": 2619479945
  },
  {
    "name": "Budan",
    "category": "place",
    "subcategory": "village",
    "latitude": 32.67926,
    "longitude": 74.3582689,
    "id": 2833334817
  },
  {
    "name": "قاضی چک",
    "category": "place",
    "subcategory": "village",
    "latitude": 32.7257399,
    "longitude": 74.3412957,
    "id": 3625722630
  },
  {
    "name": "Mota",
    "category": "place",
    "subcategory": "village",
    "latitude": 32.6935209,
    "longitude": 74.3703369,
    "id": 4511546448
  },
  {
    "name": "Thatti",
    "category": "place",
    "subcategory": "village",
    "latitude": 32.6967894,
    "longitude": 74.3702833,
    "id": 4511546473
  },
  {
    "name": "Government Rural Hospital",
    "category": "historic",
    "subcategory": "memorial",
    "latitude": 32.6994214,
    "longitude": 74.3652995,
    "id": 4741031724
  },
  {
    "name": "Qila Islam Nagar",
    "category": "amenity",
    "subcategory": "dentist",
    "latitude": 32.6973674,
    "longitude": 74.4097802,
    "id": 4744465721
  },
  {
    "name": "Tanda Bus Stop",
    "category": "highway",
    "subcategory": "bus_stop",
    "latitude": 32.7005105,
    "longitude": 74.3655893,
    "id": 4864623043
  },
  {
    "name": "atm",
    "category": "amenity",
    "subcategory": "atm",
    "latitude": 32.7008004,
    "longitude": 74.3670198,
    "id": 4864623044
  },
  {
    "name": "Government Higher Secondary School Tanda",
    "category": "amenity",
    "subcategory": "school",
    "latitude": 32.7051587,
    "longitude": 74.3695109,
    "id": 4864623045
  },
  {
    "name": "Khatana Supermarket & Sweetshop",
    "category": "shop",
    "subcategory": "supermarket",
    "latitude": 32.7029816,
    "longitude": 74.3691175,
    "id": 4864623046
  },
  {
    "name": "Municipality Office Tanda",
    "category": "tourism",
    "subcategory": "guest_house",
    "latitude": 32.7032948,
    "longitude": 74.3686108,
    "id": 4864623047
  },
  {
    "name": "Tanda Police Station",
    "category": "amenity",
    "subcategory": "police",
    "latitude": 32.702283,
    "longitude": 74.3693615,
    "id": 4864623048
  },
  {
    "name": "Town Water Supplies",
    "category": "amenity",
    "subcategory": "drinking_water",
    "latitude": 32.7034636,
    "longitude": 74.3698159,
    "id": 4864623050
  },
  {
    "name": "waste_basket",
    "category": "amenity",
    "subcategory": "waste_basket",
    "latitude": 32.7022055,
    "longitude": 74.3697704,
    "id": 4864623051
  },
  {
    "name": "UBL Bank Tanda",
    "category": "amenity",
    "subcategory": "bank",
    "latitude": 32.7008232,
    "longitude": 74.3671125,
    "id": 4864623828
  },
  {
    "name": "National Bank Tanda",
    "category": "amenity",
    "subcategory": "bank",
    "latitude": 32.700631,
    "longitude": 74.3670339,
    "id": 4864623829
  },
  {
    "name": "Government Rural Health Centre Tanda",
    "category": "amenity",
    "subcategory": "hospital",
    "latitude": 32.6985219,
    "longitude": 74.3654767,
    "id": 4865408821
  },
  {
    "name": "Deen Memorial Pharmacy",
    "category": "amenity",
    "subcategory": "pharmacy",
    "latitude": 32.6998108,
    "longitude": 74.3652222,
    "id": 4865408823
  },
  {
    "name": "Butcher Shop",
    "category": "shop",
    "subcategory": "butcher",
    "latitude": 32.6999622,
    "longitude": 74.3664027,
    "id": 4865408824
  },
  {
    "name": "Jinnah Star School Tanda",
    "category": "amenity",
    "subcategory": "school",
    "latitude": 32.7011009,
    "longitude": 74.3656213,
    "id": 4865408825
  },
  {
    "name": "Ishaq Hardware Store",
    "category": "shop",
    "subcategory": "hardware",
    "latitude": 32.7007209,
    "longitude": 74.3673823,
    "id": 4865408826
  },
  {
    "name": "Lady's Healthcare Centre",
    "category": "amenity",
    "subcategory": "clinic",
    "latitude": 32.6996162,
    "longitude": 74.3661874,
    "id": 4865410221
  },
  {
    "name": "Choudhary Ibrahim Gas Station Tanda",
    "category": "amenity",
    "subcategory": "fuel",
    "latitude": 32.6982202,
    "longitude": 74.357549,
    "id": 4865454221
  },
  {
    "name": "Marriage Hall Tanda",
    "category": "amenity",
    "subcategory": "community_centre",
    "latitude": 32.6975108,
    "longitude": 74.3554772,
    "id": 4865454222
  },
  {
    "name": "Government Veterinary Centre Tanda",
    "category": "amenity",
    "subcategory": "veterinary",
    "latitude": 32.7037238,
    "longitude": 74.3681555,
    "id": 4865454223
  },
  {
    "name": "Eidgah Mosque Tanda",
    "category": "amenity",
    "subcategory": "place_of_worship",
    "latitude": 32.7016898,
    "longitude": 74.3705615,
    "id": 4865454224
  },
  {
    "name": "Malik & Sons Tanda",
    "category": "shop",
    "subcategory": "department_store",
    "latitude": 32.7014291,
    "longitude": 74.3702593,
    "id": 4865454225
  },
  {
    "name": "Abid Shah Copy Shop Tanda",
    "category": "shop",
    "subcategory": "copyshop",
    "latitude": 32.7015749,
    "longitude": 74.3693168,
    "id": 4865454226
  },
  {
    "name": "Pakistan Jazz Telecoms Tanda",
    "category": "office",
    "subcategory": "telecommunication",
    "latitude": 32.7014083,
    "longitude": 74.3696143,
    "id": 4865454227
  },
  {
    "name": "Dr. Sabar Clinic Tanda",
    "category": "amenity",
    "subcategory": "clinic",
    "latitude": 32.7031326,
    "longitude": 74.3697617,
    "id": 4865454421
  },
  {
    "name": "Dewan Ali Supermarket",
    "category": "shop",
    "subcategory": "supermarket",
    "latitude": 32.7029983,
    "longitude": 74.3695201,
    "id": 4865454521
  },
  {
    "name": "Government Computer Centre Tanda",
    "category": "shop",
    "subcategory": "computer",
    "latitude": 32.7051137,
    "longitude": 74.3691015,
    "id": 4865454522
  },
  {
    "name": "Cimentry Tanda",
    "category": "historic",
    "subcategory": "memorial",
    "latitude": 32.7058569,
    "longitude": 74.3694794,
    "id": 4865454523
  },
  {
    "name": "Government Primary Boys School Tanda",
    "category": "amenity",
    "subcategory": "school",
    "latitude": 32.7048922,
    "longitude": 74.3686246,
    "id": 4865454721
  },
  {
    "name": "playground",
    "category": "leisure",
    "subcategory": "playground",
    "latitude": 32.7045494,
    "longitude": 74.3691371,
    "id": 4865454722
  },
  {
    "name": "Village Hospital Tanda",
    "category": "amenity",
    "subcategory": "hospital",
    "latitude": 32.7015029,
    "longitude": 74.3705881,
    "id": 4865454723
  },
  {
    "name": "Bata & Service Shop Tanda",
    "category": "shop",
    "subcategory": "shoes",
    "latitude": 32.7013189,
    "longitude": 74.3689705,
    "id": 4865454724
  },
  {
    "name": "Sufi  Furniture Store",
    "category": "shop",
    "subcategory": "furniture",
    "latitude": 32.7013583,
    "longitude": 74.3693191,
    "id": 4865455121
  },
  {
    "name": "Karam Elahi Clothes House",
    "category": "shop",
    "subcategory": "clothes",
    "latitude": 32.7011979,
    "longitude": 74.3706131,
    "id": 4888511921
  },
  {
    "name": "Rafique Saraf Jewellery Tanda",
    "category": "shop",
    "subcategory": "jewelry",
    "latitude": 32.7006968,
    "longitude": 74.3707526,
    "id": 4888511922
  },
  {
    "name": "Nazar & Zahoor Veg. Shop",
    "category": "shop",
    "subcategory": "beverages",
    "latitude": 32.7000586,
    "longitude": 74.3705744,
    "id": 4888511923
  },
  {
    "name": "Butt Sweet Shop Tanda",
    "category": "shop",
    "subcategory": "confectionery",
    "latitude": 32.7000482,
    "longitude": 74.3710166,
    "id": 4888511924
  },
  {
    "name": "Maqsud Jutt Gift Shop",
    "category": "shop",
    "subcategory": "gift",
    "latitude": 32.7005027,
    "longitude": 74.3707549,
    "id": 4888511925
  },
  {
    "name": "Rana Medical Store Tanda",
    "category": "amenity",
    "subcategory": "pharmacy",
    "latitude": 32.7005152,
    "longitude": 74.3704976,
    "id": 4888511926
  },
  {
    "name": "Nawaz Saraf Jewellery Tanda",
    "category": "shop",
    "subcategory": "jewelry",
    "latitude": 32.7002432,
    "longitude": 74.3706238,
    "id": 4888512021
  },
  {
    "name": "Ijaz Shah Restaurant Tanda",
    "category": "tourism",
    "subcategory": "hotel",
    "latitude": 32.7007619,
    "longitude": 74.3663636,
    "id": 4888512022
  },
  {
    "name": "Al Farid's Book Store",
    "category": "shop",
    "subcategory": "books",
    "latitude": 32.7025179,
    "longitude": 74.3692717,
    "id": 4888512023
  },
  {
    "name": "Sheikh Rashid Barber Shop",
    "category": "shop",
    "subcategory": "cosmetics",
    "latitude": 32.7007123,
    "longitude": 74.365459,
    "id": 4888512121
  },
  {
    "name": "Malik Book Store Tanda",
    "category": "shop",
    "subcategory": "books",
    "latitude": 32.7006506,
    "longitude": 74.365644,
    "id": 4888512221
  },
  {
    "name": "Randheer Khokhran",
    "category": "highway",
    "subcategory": "bus_stop",
    "latitude": 32.6628715,
    "longitude": 74.3858433,
    "id": 5105797230
  },
  {
    "name": "Tanda Honda Centre Tanda",
    "category": "shop",
    "subcategory": "bicycle",
    "latitude": 32.6999233,
    "longitude": 74.363662,
    "id": 6427599885
  },
  {
    "name": "Qadri Auto Service Tanda",
    "category": "shop",
    "subcategory": "bicycle",
    "latitude": 32.703211,
    "longitude": 74.3692832,
    "id": 6474779086
  },
  {
    "name": "Naar Pur",
    "category": "place",
    "subcategory": "village",
    "latitude": 32.7211511,
    "longitude": 74.4010735,
    "id": 9397860175
  },
  {
    "name": "Dera Islamabad",
    "category": "place",
    "subcategory": "hamlet",
    "latitude": 32.7302762,
    "longitude": 74.3858171,
    "id": 9397860176
  },
  {
    "name": "چک بگہ",
    "category": "place",
    "subcategory": "village",
    "latitude": 32.7327618,
    "longitude": 74.3432821,
    "id": 9397860177
  },
  {
    "name": "Chobara",
    "category": "place",
    "subcategory": "village",
    "latitude": 32.6632825,
    "longitude": 74.406701,
    "id": 9593032109
  },
  {
    "name": "بهيلووال کلاں",
    "category": "place",
    "subcategory": "village",
    "latitude": 32.6902037,
    "longitude": 74.3329221,
    "id": 13102539484
  },
  {
    "name": "Tanda - Karianwala Road",
    "category": "highway",
    "subcategory": "secondary",
    "latitude": 32.71701480526316,
    "longitude": 74.35210140526317,
    "id": 234150661
  },
  {
    "name": "tertiary",
    "category": "highway",
    "subcategory": "tertiary",
    "latitude": 32.73451646190476,
    "longitude": 74.39035177142857,
    "id": 234153703
  },
  {
    "name": "Karianwala Road",
    "category": "highway",
    "subcategory": "secondary",
    "latitude": 32.7055644,
    "longitude": 74.3698437,
    "id": 234153709
  },
  {
    "name": "Surkhpur - Tanda Road",
    "category": "highway",
    "subcategory": "secondary",
    "latitude": 32.71522365882353,
    "longitude": 74.4352121872549,
    "id": 234341100
  },
  {
    "name": "tertiary",
    "category": "highway",
    "subcategory": "tertiary",
    "latitude": 32.68172913666667,
    "longitude": 74.38265957833333,
    "id": 236981334
  },
  {
    "name": "residential",
    "category": "highway",
    "subcategory": "residential",
    "latitude": 32.695506,
    "longitude": 74.39089700000001,
    "id": 237064139
  },
  {
    "name": "residential",
    "category": "highway",
    "subcategory": "residential",
    "latitude": 32.69568888,
    "longitude": 74.38996846,
    "id": 237064140
  },
  {
    "name": "tertiary",
    "category": "highway",
    "subcategory": "tertiary",
    "latitude": 32.6936035,
    "longitude": 74.40780361333333,
    "id": 237064141
  },
  {
    "name": "tertiary",
    "category": "highway",
    "subcategory": "tertiary",
    "latitude": 32.75189110588235,
    "longitude": 74.35862732058823,
    "id": 237090719
  },
  {
    "name": "residential",
    "category": "highway",
    "subcategory": "residential",
    "latitude": 32.66896330625,
    "longitude": 74.40724778125,
    "id": 237817631
  },
  {
    "name": "residential",
    "category": "highway",
    "subcategory": "residential",
    "latitude": 32.66797571111111,
    "longitude": 74.40663122222222,
    "id": 237817632
  },
  {
    "name": "residential",
    "category": "highway",
    "subcategory": "residential",
    "latitude": 32.667906184375,
    "longitude": 74.408415784375,
    "id": 237894007
  },
  {
    "name": "residential",
    "category": "highway",
    "subcategory": "residential",
    "latitude": 32.66775715384615,
    "longitude": 74.40569846153846,
    "id": 237894008
  },
  {
    "name": "residential",
    "category": "highway",
    "subcategory": "residential",
    "latitude": 32.668068544444445,
    "longitude": 74.40487166666668,
    "id": 237894009
  },
  {
    "name": "residential",
    "category": "highway",
    "subcategory": "residential",
    "latitude": 32.667368800000006,
    "longitude": 74.4046101875,
    "id": 237894010
  },
  {
    "name": "secondary",
    "category": "highway",
    "subcategory": "secondary",
    "latitude": 32.647471095348834,
    "longitude": 74.35669834767442,
    "id": 237902823
  },
  {
    "name": "residential",
    "category": "highway",
    "subcategory": "residential",
    "latitude": 32.670793,
    "longitude": 74.406690425,
    "id": 237922561
  },
  {
    "name": "water",
    "category": "natural",
    "subcategory": "water",
    "latitude": 32.67655669090909,
    "longitude": 74.40400810909091,
    "id": 237922562
  },
  {
    "name": "grass",
    "category": "landuse",
    "subcategory": "grass",
    "latitude": 32.69538180714286,
    "longitude": 74.39903412857143,
    "id": 237922563
  },
  {
    "name": "residential",
    "category": "highway",
    "subcategory": "residential",
    "latitude": 32.66894576,
    "longitude": 74.40453099999999,
    "id": 237968921
  },
  {
    "name": "residential",
    "category": "highway",
    "subcategory": "residential",
    "latitude": 32.670313666666665,
    "longitude": 74.4076395,
    "id": 237968922
  },
  {
    "name": "residential",
    "category": "highway",
    "subcategory": "residential",
    "latitude": 32.669986800000004,
    "longitude": 74.407930775,
    "id": 237968923
  },
  {
    "name": "fuel",
    "category": "amenity",
    "subcategory": "fuel",
    "latitude": 32.6679275,
    "longitude": 74.36172028333333,
    "id": 256274388
  },
  {
    "name": "tertiary",
    "category": "highway",
    "subcategory": "tertiary",
    "latitude": 32.67738856,
    "longitude": 74.35632156,
    "id": 279075860
  },
  {
    "name": "tertiary",
    "category": "highway",
    "subcategory": "tertiary",
    "latitude": 32.71750816438356,
    "longitude": 74.3940360739726,
    "id": 293498092
  },
  {
    "name": "residential",
    "category": "highway",
    "subcategory": "residential",
    "latitude": 32.73320209,
    "longitude": 74.39329430000001,
    "id": 293498093
  },
  {
    "name": "residential",
    "category": "highway",
    "subcategory": "residential",
    "latitude": 32.73134378461538,
    "longitude": 74.39236356923077,
    "id": 293498094
  },
  {
    "name": "residential",
    "category": "highway",
    "subcategory": "residential",
    "latitude": 32.73254272,
    "longitude": 74.39233881999999,
    "id": 293498095
  },
  {
    "name": "residential",
    "category": "highway",
    "subcategory": "residential",
    "latitude": 32.73224283333334,
    "longitude": 74.39115020000001,
    "id": 293498096
  },
  {
    "name": "residential",
    "category": "highway",
    "subcategory": "residential",
    "latitude": 32.70354562105263,
    "longitude": 74.33358640526316,
    "id": 345833690
  },
  {
    "name": "secondary",
    "category": "highway",
    "subcategory": "secondary",
    "latitude": 32.7260733106383,
    "longitude": 74.3726620680851,
    "id": 357244168
  },
  {
    "name": "Karianwala Road",
    "category": "highway",
    "subcategory": "secondary",
    "latitude": 32.70899198461538,
    "longitude": 74.3670061076923,
    "id": 357244169
  },
  {
    "name": "Tanda road",
    "category": "highway",
    "subcategory": "primary",
    "latitude": 32.697979692857146,
    "longitude": 74.35730229642857,
    "id": 357244171
  },
  {
    "name": "Tanda Bypass",
    "category": "highway",
    "subcategory": "secondary",
    "latitude": 32.70396186,
    "longitude": 74.37271638,
    "id": 357245591
  },
  {
    "name": "Tanda road",
    "category": "highway",
    "subcategory": "secondary",
    "latitude": 32.70362341818182,
    "longitude": 74.36956350909091,
    "id": 357245593
  },
  {
    "name": "tertiary",
    "category": "highway",
    "subcategory": "tertiary",
    "latitude": 32.702332112,
    "longitude": 74.36741065999999,
    "id": 357245594
  },
  {
    "name": "Jalalpur Jattan - Head Marala Road",
    "category": "highway",
    "subcategory": "primary",
    "latitude": 32.67055339903846,
    "longitude": 74.38824323076923,
    "id": 357251494
  },
  {
    "name": "Tanda - Karianwala Road",
    "category": "highway",
    "subcategory": "secondary",
    "latitude": 32.7250764,
    "longitude": 74.33474489999999,
    "id": 357251496
  },
  {
    "name": "Tanda - Karianwala Road",
    "category": "highway",
    "subcategory": "secondary",
    "latitude": 32.72453285,
    "longitude": 74.33583680000001,
    "id": 357251497
  },
  {
    "name": "residential",
    "category": "highway",
    "subcategory": "residential",
    "latitude": 32.70113413529412,
    "longitude": 74.37152328235294,
    "id": 357252204
  },
  {
    "name": "residential",
    "category": "highway",
    "subcategory": "residential",
    "latitude": 32.70041151428571,
    "longitude": 74.37299268571428,
    "id": 357252205
  },
  {
    "name": "Surkhpur Road",
    "category": "highway",
    "subcategory": "secondary",
    "latitude": 32.701575575,
    "longitude": 74.37669805,
    "id": 357254735
  },
  {
    "name": "Mari Khokhran - Tanda Road",
    "category": "highway",
    "subcategory": "secondary",
    "latitude": 32.68853871388889,
    "longitude": 74.40323466111111,
    "id": 357254736
  },
  {
    "name": "Karianwala Road",
    "category": "highway",
    "subcategory": "secondary",
    "latitude": 32.700621999999996,
    "longitude": 74.3741595,
    "id": 357254739
  },
  {
    "name": "Mari Khokhran Road",
    "category": "highway",
    "subcategory": "secondary",
    "latitude": 32.69923412222222,
    "longitude": 74.37725472222222,
    "id": 357254741
  },
  {
    "name": "secondary",
    "category": "highway",
    "subcategory": "secondary",
    "latitude": 32.725036875,
    "longitude": 74.33471589999999,
    "id": 442980010
  },
  {
    "name": "secondary",
    "category": "highway",
    "subcategory": "secondary",
    "latitude": 32.7244747,
    "longitude": 74.33578345000001,
    "id": 442980011
  },
  {
    "name": "secondary",
    "category": "highway",
    "subcategory": "secondary",
    "latitude": 32.7239058,
    "longitude": 74.33704165,
    "id": 442980012
  },
  {
    "name": "Tanda - Karianwala Road",
    "category": "highway",
    "subcategory": "secondary",
    "latitude": 32.73576791071429,
    "longitude": 74.31011809285714,
    "id": 442980412
  },
  {
    "name": "unclassified",
    "category": "highway",
    "subcategory": "unclassified",
    "latitude": 32.74116472028986,
    "longitude": 74.33372429130435,
    "id": 442980413
  },
  {
    "name": "tertiary",
    "category": "highway",
    "subcategory": "tertiary",
    "latitude": 32.73999186486487,
    "longitude": 74.35485868378377,
    "id": 442980414
  },
  {
    "name": "Tanda - Karianwala Road",
    "category": "highway",
    "subcategory": "secondary",
    "latitude": 32.7239442,
    "longitude": 74.3370769,
    "id": 442980417
  },
  {
    "name": "residential",
    "category": "highway",
    "subcategory": "residential",
    "latitude": 32.72712377586207,
    "longitude": 74.34076083103449,
    "id": 442980871
  },
  {
    "name": "unclassified",
    "category": "highway",
    "subcategory": "unclassified",
    "latitude": 32.73967851190476,
    "longitude": 74.34420603095239,
    "id": 442981225
  },
  {
    "name": "ٹانڈہ",
    "category": "landuse",
    "subcategory": "residential",
    "latitude": 32.70134368888889,
    "longitude": 74.36785432777778,
    "id": 451674917
  },
  {
    "name": "Mota",
    "category": "landuse",
    "subcategory": "residential",
    "latitude": 32.69376464444444,
    "longitude": 74.3693417111111,
    "id": 451674918
  },
  {
    "name": "residential",
    "category": "landuse",
    "subcategory": "residential",
    "latitude": 32.74210281304347,
    "longitude": 74.33699012608695,
    "id": 451675043
  },
  {
    "name": "residential",
    "category": "landuse",
    "subcategory": "residential",
    "latitude": 32.6703287375,
    "longitude": 74.40766155,
    "id": 451676241
  },
  {
    "name": "residential",
    "category": "landuse",
    "subcategory": "residential",
    "latitude": 32.67244575,
    "longitude": 74.35407773333334,
    "id": 454462123
  },
  {
    "name": "residential",
    "category": "landuse",
    "subcategory": "residential",
    "latitude": 32.67963279,
    "longitude": 74.35950705,
    "id": 454462124
  },
  {
    "name": "residential",
    "category": "landuse",
    "subcategory": "residential",
    "latitude": 32.73304074,
    "longitude": 74.392721735,
    "id": 454462125
  },
  {
    "name": "residential",
    "category": "landuse",
    "subcategory": "residential",
    "latitude": 32.66567304,
    "longitude": 74.35420418999999,
    "id": 454462127
  },
  {
    "name": "residential",
    "category": "landuse",
    "subcategory": "residential",
    "latitude": 32.7253387,
    "longitude": 74.34158885,
    "id": 454606457
  },
  {
    "name": "living_street",
    "category": "highway",
    "subcategory": "living_street",
    "latitude": 32.725085500000006,
    "longitude": 74.34236725,
    "id": 454606462
  },
  {
    "name": "living_street",
    "category": "highway",
    "subcategory": "living_street",
    "latitude": 32.726059757142856,
    "longitude": 74.34092792857143,
    "id": 454606463
  },
  {
    "name": "living_street",
    "category": "highway",
    "subcategory": "living_street",
    "latitude": 32.72483638571428,
    "longitude": 74.34098365714286,
    "id": 454606464
  },
  {
    "name": "living_street",
    "category": "highway",
    "subcategory": "living_street",
    "latitude": 32.726572425,
    "longitude": 74.34162435,
    "id": 454606467
  },
  {
    "name": "living_street",
    "category": "highway",
    "subcategory": "living_street",
    "latitude": 32.72520215,
    "longitude": 74.3413045,
    "id": 454606468
  },
  {
    "name": "living_street",
    "category": "highway",
    "subcategory": "living_street",
    "latitude": 32.723969133333334,
    "longitude": 74.3416415111111,
    "id": 454606470
  },
  {
    "name": "living_street",
    "category": "highway",
    "subcategory": "living_street",
    "latitude": 32.72503185,
    "longitude": 74.342784975,
    "id": 454606471
  },
  {
    "name": "living_street",
    "category": "highway",
    "subcategory": "living_street",
    "latitude": 32.7242959,
    "longitude": 74.34152665,
    "id": 454606473
  },
  {
    "name": "living_street",
    "category": "highway",
    "subcategory": "living_street",
    "latitude": 32.725538300000004,
    "longitude": 74.34168736666666,
    "id": 454606475
  },
  {
    "name": "residential",
    "category": "highway",
    "subcategory": "residential",
    "latitude": 32.72687076923077,
    "longitude": 74.34238609230769,
    "id": 454606639
  },
  {
    "name": "reservoir",
    "category": "landuse",
    "subcategory": "reservoir",
    "latitude": 32.72333463333334,
    "longitude": 74.34080111666667,
    "id": 454606640
  },
  {
    "name": "track",
    "category": "highway",
    "subcategory": "track",
    "latitude": 32.725940550000004,
    "longitude": 74.344313,
    "id": 454606641
  },
  {
    "name": "living_street",
    "category": "highway",
    "subcategory": "living_street",
    "latitude": 32.72371976666667,
    "longitude": 74.34068606666666,
    "id": 454606642
  },
  {
    "name": "tertiary",
    "category": "highway",
    "subcategory": "tertiary",
    "latitude": 32.71512305,
    "longitude": 74.33079226923077,
    "id": 454607019
  },
  {
    "name": "track",
    "category": "highway",
    "subcategory": "track",
    "latitude": 32.72773708571429,
    "longitude": 74.33925337142857,
    "id": 454607021
  },
  {
    "name": "unclassified",
    "category": "highway",
    "subcategory": "unclassified",
    "latitude": 32.69359678888889,
    "longitude": 74.33004455555556,
    "id": 454607579
  },
  {
    "name": "living_street",
    "category": "highway",
    "subcategory": "living_street",
    "latitude": 32.701753679999996,
    "longitude": 74.37060676,
    "id": 454608353
  },
  {
    "name": "living_street",
    "category": "highway",
    "subcategory": "living_street",
    "latitude": 32.704325319999995,
    "longitude": 74.3656291,
    "id": 454608354
  },
  {
    "name": "living_street",
    "category": "highway",
    "subcategory": "living_street",
    "latitude": 32.70181535,
    "longitude": 74.366106,
    "id": 454608355
  },
  {
    "name": "living_street",
    "category": "highway",
    "subcategory": "living_street",
    "latitude": 32.70110485,
    "longitude": 74.3676548,
    "id": 454608356
  },
  {
    "name": "living_street",
    "category": "highway",
    "subcategory": "living_street",
    "latitude": 32.70139288125,
    "longitude": 74.36190328125,
    "id": 454608357
  },
  {
    "name": "residential",
    "category": "highway",
    "subcategory": "residential",
    "latitude": 32.7007875125,
    "longitude": 74.3628148,
    "id": 454608359
  },
  {
    "name": "residential",
    "category": "highway",
    "subcategory": "residential",
    "latitude": 32.70155483333333,
    "longitude": 74.37004836666667,
    "id": 454608360
  },
  {
    "name": "living_street",
    "category": "highway",
    "subcategory": "living_street",
    "latitude": 32.698930975,
    "longitude": 74.35986355,
    "id": 454608361
  },
  {
    "name": "residential",
    "category": "highway",
    "subcategory": "residential",
    "latitude": 32.69912915,
    "longitude": 74.3577666,
    "id": 454608362
  },
  {
    "name": "living_street",
    "category": "highway",
    "subcategory": "living_street",
    "latitude": 32.70074565,
    "longitude": 74.37061055,
    "id": 454608363
  },
  {
    "name": "living_street",
    "category": "highway",
    "subcategory": "living_street",
    "latitude": 32.70237214,
    "longitude": 74.37257534,
    "id": 454608364
  },
  {
    "name": "residential",
    "category": "highway",
    "subcategory": "residential",
    "latitude": 32.70221503333333,
    "longitude": 74.36434735238096,
    "id": 454608365
  },
  {
    "name": "living_street",
    "category": "highway",
    "subcategory": "living_street",
    "latitude": 32.70301444,
    "longitude": 74.36523696,
    "id": 454608366
  },
  {
    "name": "living_street",
    "category": "highway",
    "subcategory": "living_street",
    "latitude": 32.70366791666667,
    "longitude": 74.36689126666666,
    "id": 454608367
  },
  {
    "name": "living_street",
    "category": "highway",
    "subcategory": "living_street",
    "latitude": 32.694230016666666,
    "longitude": 74.36878501666666,
    "id": 454609596
  },
  {
    "name": "tertiary",
    "category": "highway",
    "subcategory": "tertiary",
    "latitude": 32.660969208000004,
    "longitude": 74.402791532,
    "id": 454609597
  },
  {
    "name": "living_street",
    "category": "highway",
    "subcategory": "living_street",
    "latitude": 32.69396768888888,
    "longitude": 74.37125742222221,
    "id": 454609598
  },
  {
    "name": "residential",
    "category": "landuse",
    "subcategory": "residential",
    "latitude": 32.696765275,
    "longitude": 74.37044501666666,
    "id": 454609599
  },
  {
    "name": "living_street",
    "category": "highway",
    "subcategory": "living_street",
    "latitude": 32.69710044615385,
    "longitude": 74.37022921538461,
    "id": 454609600
  },
  {
    "name": "residential",
    "category": "highway",
    "subcategory": "residential",
    "latitude": 32.692654679310344,
    "longitude": 74.36891196551723,
    "id": 454609601
  },
  {
    "name": "residential",
    "category": "highway",
    "subcategory": "residential",
    "latitude": 32.69898645,
    "longitude": 74.36905338,
    "id": 454609602
  },
  {
    "name": "tertiary",
    "category": "highway",
    "subcategory": "tertiary",
    "latitude": 32.66006227368421,
    "longitude": 74.3894035736842,
    "id": 524715357
  },
  {
    "name": "residential",
    "category": "highway",
    "subcategory": "residential",
    "latitude": 32.668214871875,
    "longitude": 74.333964784375,
    "id": 524718225
  },
  {
    "name": "residential",
    "category": "highway",
    "subcategory": "residential",
    "latitude": 32.70322005789474,
    "longitude": 74.41040768421053,
    "id": 524718340
  },
  {
    "name": "living_street",
    "category": "highway",
    "subcategory": "living_street",
    "latitude": 32.7311215,
    "longitude": 74.3446943,
    "id": 616231075
  },
  {
    "name": "path",
    "category": "highway",
    "subcategory": "path",
    "latitude": 32.72884204545455,
    "longitude": 74.35746694545455,
    "id": 616231076
  },
  {
    "name": "living_street",
    "category": "highway",
    "subcategory": "living_street",
    "latitude": 32.7323543,
    "longitude": 74.34376795,
    "id": 616231077
  },
  {
    "name": "living_street",
    "category": "highway",
    "subcategory": "living_street",
    "latitude": 32.73195973333333,
    "longitude": 74.34521389999999,
    "id": 616231078
  },
  {
    "name": "living_street",
    "category": "highway",
    "subcategory": "living_street",
    "latitude": 32.73256875,
    "longitude": 74.345475975,
    "id": 616231079
  },
  {
    "name": "living_street",
    "category": "highway",
    "subcategory": "living_street",
    "latitude": 32.73345308,
    "longitude": 74.34244272,
    "id": 616231080
  },
  {
    "name": "living_street",
    "category": "highway",
    "subcategory": "living_street",
    "latitude": 32.73123236666667,
    "longitude": 74.3450682,
    "id": 616231081
  },
  {
    "name": "residential",
    "category": "highway",
    "subcategory": "residential",
    "latitude": 32.705775341379315,
    "longitude": 74.37401215517241,
    "id": 732788610
  },
  {
    "name": "tertiary",
    "category": "highway",
    "subcategory": "tertiary",
    "latitude": 32.73615996666667,
    "longitude": 74.37677566666666,
    "id": 732789062
  },
  {
    "name": "unclassified",
    "category": "highway",
    "subcategory": "unclassified",
    "latitude": 32.724803466,
    "longitude": 74.40530080399999,
    "id": 732789063
  },
  {
    "name": "residential",
    "category": "highway",
    "subcategory": "residential",
    "latitude": 32.66980116470588,
    "longitude": 74.33183385294117,
    "id": 785110756
  },
  {
    "name": "residential",
    "category": "landuse",
    "subcategory": "residential",
    "latitude": 32.663485675,
    "longitude": 74.4064954875,
    "id": 891893385
  },
  {
    "name": "residential",
    "category": "highway",
    "subcategory": "residential",
    "latitude": 32.699543150000004,
    "longitude": 74.36528668333334,
    "id": 1043512217
  },
  {
    "name": "residential",
    "category": "highway",
    "subcategory": "residential",
    "latitude": 32.699216699999994,
    "longitude": 74.36731144999999,
    "id": 1043512218
  },
  {
    "name": "residential",
    "category": "highway",
    "subcategory": "residential",
    "latitude": 32.66770277142857,
    "longitude": 74.35301872857143,
    "id": 1043858399
  },
  {
    "name": "tertiary",
    "category": "highway",
    "subcategory": "tertiary",
    "latitude": 32.66941488095238,
    "longitude": 74.35291726190476,
    "id": 1043858400
  },
  {
    "name": "residential",
    "category": "highway",
    "subcategory": "residential",
    "latitude": 32.66541342142857,
    "longitude": 74.35518401428571,
    "id": 1043859139
  },
  {
    "name": "residential",
    "category": "highway",
    "subcategory": "residential",
    "latitude": 32.66664168571428,
    "longitude": 74.35903251428572,
    "id": 1043859140
  },
  {
    "name": "residential",
    "category": "highway",
    "subcategory": "residential",
    "latitude": 32.66543352,
    "longitude": 74.35760218666668,
    "id": 1043859141
  },
  {
    "name": "residential",
    "category": "highway",
    "subcategory": "residential",
    "latitude": 32.73382006666667,
    "longitude": 74.38396266666666,
    "id": 1043859391
  },
  {
    "name": "unclassified",
    "category": "highway",
    "subcategory": "unclassified",
    "latitude": 32.73972002083333,
    "longitude": 74.39436088958333,
    "id": 1043862507
  },
  {
    "name": "residential",
    "category": "highway",
    "subcategory": "residential",
    "latitude": 32.731953600000004,
    "longitude": 74.34205756666667,
    "id": 1045533539
  },
  {
    "name": "residential",
    "category": "highway",
    "subcategory": "residential",
    "latitude": 32.734120233333336,
    "longitude": 74.34242346666666,
    "id": 1045533540
  },
  {
    "name": "residential",
    "category": "highway",
    "subcategory": "residential",
    "latitude": 32.73317646666666,
    "longitude": 74.34170866666666,
    "id": 1045533541
  },
  {
    "name": "unclassified",
    "category": "highway",
    "subcategory": "unclassified",
    "latitude": 32.740217945454546,
    "longitude": 74.34117238181818,
    "id": 1045533542
  },
  {
    "name": "unclassified",
    "category": "highway",
    "subcategory": "unclassified",
    "latitude": 32.74085219166667,
    "longitude": 74.33807985,
    "id": 1045533547
  },
  {
    "name": "residential",
    "category": "highway",
    "subcategory": "residential",
    "latitude": 32.74158383333333,
    "longitude": 74.33627393333335,
    "id": 1045533548
  },
  {
    "name": "unclassified",
    "category": "highway",
    "subcategory": "unclassified",
    "latitude": 32.739470985714284,
    "longitude": 74.33596450714286,
    "id": 1045533549
  },
  {
    "name": "service",
    "category": "highway",
    "subcategory": "service",
    "latitude": 32.7150288,
    "longitude": 74.37073905,
    "id": 1255711708
  },
  {
    "name": "service",
    "category": "highway",
    "subcategory": "service",
    "latitude": 32.723435975,
    "longitude": 74.337769775,
    "id": 1264314637
  },
  {
    "name": "residential",
    "category": "highway",
    "subcategory": "residential",
    "latitude": 32.663607633333335,
    "longitude": 74.35342386666666,
    "id": 1264991192
  },
  {
    "name": "residential",
    "category": "highway",
    "subcategory": "residential",
    "latitude": 32.665051570833334,
    "longitude": 74.35337832500001,
    "id": 1264991193
  },
  {
    "name": "unclassified",
    "category": "highway",
    "subcategory": "unclassified",
    "latitude": 32.73274235454546,
    "longitude": 74.38631121818183,
    "id": 1299974551
  },
  {
    "name": "unclassified",
    "category": "highway",
    "subcategory": "unclassified",
    "latitude": 32.731042717647064,
    "longitude": 74.38234321764706,
    "id": 1299974552
  },
  {
    "name": "unclassified",
    "category": "highway",
    "subcategory": "unclassified",
    "latitude": 32.72034292773109,
    "longitude": 74.38281110504202,
    "id": 1299974553
  },
  {
    "name": "tertiary",
    "category": "highway",
    "subcategory": "tertiary",
    "latitude": 32.7401781,
    "longitude": 74.41263627790698,
    "id": 1305889487
  },
  {
    "name": "unclassified",
    "category": "highway",
    "subcategory": "unclassified",
    "latitude": 32.7373353,
    "longitude": 74.40951735,
    "id": 1305912894
  },
  {
    "name": "path",
    "category": "highway",
    "subcategory": "path",
    "latitude": 32.73668898333333,
    "longitude": 74.40934906666666,
    "id": 1305912895
  },
  {
    "name": "track",
    "category": "highway",
    "subcategory": "track",
    "latitude": 32.735225192307695,
    "longitude": 74.40761517692307,
    "id": 1305912896
  },
  {
    "name": "path",
    "category": "highway",
    "subcategory": "path",
    "latitude": 32.736469166666666,
    "longitude": 74.40567333333333,
    "id": 1305912900
  },
  {
    "name": "unclassified",
    "category": "highway",
    "subcategory": "unclassified",
    "latitude": 32.73756185714286,
    "longitude": 74.40893578571429,
    "id": 1305912901
  },
  {
    "name": "unclassified",
    "category": "highway",
    "subcategory": "unclassified",
    "latitude": 32.73766512,
    "longitude": 74.40545162,
    "id": 1305912902
  },
  {
    "name": "unclassified",
    "category": "highway",
    "subcategory": "unclassified",
    "latitude": 32.73703366666667,
    "longitude": 74.4031782,
    "id": 1305912903
  },
  {
    "name": "residential",
    "category": "highway",
    "subcategory": "residential",
    "latitude": 32.7353972,
    "longitude": 74.4022231,
    "id": 1305912905
  },
  {
    "name": "residential",
    "category": "highway",
    "subcategory": "residential",
    "latitude": 32.732389863636364,
    "longitude": 74.40331497272727,
    "id": 1305912906
  },
  {
    "name": "unclassified",
    "category": "highway",
    "subcategory": "unclassified",
    "latitude": 32.73200825,
    "longitude": 74.40460945,
    "id": 1305912907
  },
  {
    "name": "unclassified",
    "category": "highway",
    "subcategory": "unclassified",
    "latitude": 32.72875001153846,
    "longitude": 74.40459425384616,
    "id": 1305912908
  },
  {
    "name": "unclassified",
    "category": "highway",
    "subcategory": "unclassified",
    "latitude": 32.730061709615384,
    "longitude": 74.41731999807692,
    "id": 1305912909
  },
  {
    "name": "unclassified",
    "category": "highway",
    "subcategory": "unclassified",
    "latitude": 32.72003763461539,
    "longitude": 74.40471314615385,
    "id": 1305916729
  },
  {
    "name": "unclassified",
    "category": "highway",
    "subcategory": "unclassified",
    "latitude": 32.71515763461538,
    "longitude": 74.40492488653845,
    "id": 1305916732
  },
  {
    "name": "path",
    "category": "highway",
    "subcategory": "path",
    "latitude": 32.721225735714285,
    "longitude": 74.40428227857142,
    "id": 1305916733
  },
  {
    "name": "track",
    "category": "highway",
    "subcategory": "track",
    "latitude": 32.721729683333336,
    "longitude": 74.40251648333333,
    "id": 1305916734
  },
  {
    "name": "track",
    "category": "highway",
    "subcategory": "track",
    "latitude": 32.72010215,
    "longitude": 74.402380025,
    "id": 1305916737
  },
  {
    "name": "unclassified",
    "category": "highway",
    "subcategory": "unclassified",
    "latitude": 32.71471116666666,
    "longitude": 74.40429451111112,
    "id": 1305916739
  },
  {
    "name": "path",
    "category": "highway",
    "subcategory": "path",
    "latitude": 32.7135128,
    "longitude": 74.40416191666667,
    "id": 1305916740
  },
  {
    "name": "track",
    "category": "highway",
    "subcategory": "track",
    "latitude": 32.719787272727274,
    "longitude": 74.40972683636363,
    "id": 1305916750
  },
  {
    "name": "residential",
    "category": "highway",
    "subcategory": "residential",
    "latitude": 32.722391487500005,
    "longitude": 74.399557175,
    "id": 1305918124
  },
  {
    "name": "path",
    "category": "highway",
    "subcategory": "path",
    "latitude": 32.72286675,
    "longitude": 74.39972875000001,
    "id": 1305918125
  },
  {
    "name": "residential",
    "category": "highway",
    "subcategory": "residential",
    "latitude": 32.7212806,
    "longitude": 74.40123023999999,
    "id": 1305918126
  },
  {
    "name": "residential",
    "category": "highway",
    "subcategory": "residential",
    "latitude": 32.714587099999996,
    "longitude": 74.39292193333334,
    "id": 1305918133
  },
  {
    "name": "track",
    "category": "highway",
    "subcategory": "track",
    "latitude": 32.714453715789475,
    "longitude": 74.39016434210527,
    "id": 1305918135
  },
  {
    "name": "residential",
    "category": "highway",
    "subcategory": "residential",
    "latitude": 32.71479358333334,
    "longitude": 74.39409081666666,
    "id": 1305918141
  },
  {
    "name": "track",
    "category": "highway",
    "subcategory": "track",
    "latitude": 32.71947683333334,
    "longitude": 74.39693723333333,
    "id": 1305918143
  },
  {
    "name": "path",
    "category": "highway",
    "subcategory": "path",
    "latitude": 32.718711175,
    "longitude": 74.39465422500001,
    "id": 1305918144
  },
  {
    "name": "path",
    "category": "highway",
    "subcategory": "path",
    "latitude": 32.71897258,
    "longitude": 74.3943408,
    "id": 1305918145
  },
  {
    "name": "track",
    "category": "highway",
    "subcategory": "track",
    "latitude": 32.72413996666667,
    "longitude": 74.39552617777778,
    "id": 1305918147
  },
  {
    "name": "track",
    "category": "highway",
    "subcategory": "track",
    "latitude": 32.72020337,
    "longitude": 74.38711166,
    "id": 1305919096
  },
  {
    "name": "track",
    "category": "highway",
    "subcategory": "track",
    "latitude": 32.72314623076923,
    "longitude": 74.38711184615384,
    "id": 1305919097
  },
  {
    "name": "track",
    "category": "highway",
    "subcategory": "track",
    "latitude": 32.71551932727272,
    "longitude": 74.38598498181818,
    "id": 1305919101
  },
  {
    "name": "track",
    "category": "highway",
    "subcategory": "track",
    "latitude": 32.71329103636364,
    "longitude": 74.38777727272726,
    "id": 1305919102
  },
  {
    "name": "track",
    "category": "highway",
    "subcategory": "track",
    "latitude": 32.71502076666667,
    "longitude": 74.38406686666667,
    "id": 1305919103
  },
  {
    "name": "track",
    "category": "highway",
    "subcategory": "track",
    "latitude": 32.71397124285714,
    "longitude": 74.38341751428571,
    "id": 1305919104
  },
  {
    "name": "path",
    "category": "highway",
    "subcategory": "path",
    "latitude": 32.7143823875,
    "longitude": 74.381605175,
    "id": 1305919105
  },
  {
    "name": "track",
    "category": "highway",
    "subcategory": "track",
    "latitude": 32.718116,
    "longitude": 74.37842597586207,
    "id": 1305919107
  },
  {
    "name": "track",
    "category": "highway",
    "subcategory": "track",
    "latitude": 32.71937491,
    "longitude": 74.37931614,
    "id": 1305919108
  },
  {
    "name": "residential",
    "category": "highway",
    "subcategory": "residential",
    "latitude": 32.71833925,
    "longitude": 74.37740946666666,
    "id": 1305919109
  },
  {
    "name": "track",
    "category": "highway",
    "subcategory": "track",
    "latitude": 32.71869266,
    "longitude": 74.37698900000001,
    "id": 1305919110
  },
  {
    "name": "track",
    "category": "highway",
    "subcategory": "track",
    "latitude": 32.71805883333334,
    "longitude": 74.37855421666667,
    "id": 1305919112
  },
  {
    "name": "residential",
    "category": "highway",
    "subcategory": "residential",
    "latitude": 32.714633199999994,
    "longitude": 74.37797330000001,
    "id": 1305919113
  },
  {
    "name": "track",
    "category": "highway",
    "subcategory": "track",
    "latitude": 32.715919375,
    "longitude": 74.38046905,
    "id": 1305919114
  },
  {
    "name": "track",
    "category": "highway",
    "subcategory": "track",
    "latitude": 32.723072745,
    "longitude": 74.3794985,
    "id": 1305919115
  },
  {
    "name": "track",
    "category": "highway",
    "subcategory": "track",
    "latitude": 32.72427135454546,
    "longitude": 74.37859168181818,
    "id": 1305919118
  },
  {
    "name": "service",
    "category": "highway",
    "subcategory": "service",
    "latitude": 32.740594,
    "longitude": 74.33523019285714,
    "id": 1305937275
  },
  {
    "name": "residential",
    "category": "highway",
    "subcategory": "residential",
    "latitude": 32.7418397,
    "longitude": 74.33670020000001,
    "id": 1305937276
  },
  {
    "name": "track",
    "category": "highway",
    "subcategory": "track",
    "latitude": 32.739107342857146,
    "longitude": 74.33755099999999,
    "id": 1305937277
  },
  {
    "name": "track",
    "category": "highway",
    "subcategory": "track",
    "latitude": 32.73909796,
    "longitude": 74.34035266666666,
    "id": 1305937278
  },
  {
    "name": "service",
    "category": "highway",
    "subcategory": "service",
    "latitude": 32.741658699999995,
    "longitude": 74.34028653333333,
    "id": 1305937279
  },
  {
    "name": "service",
    "category": "highway",
    "subcategory": "service",
    "latitude": 32.738775366666665,
    "longitude": 74.34238493333334,
    "id": 1305937280
  },
  {
    "name": "residential",
    "category": "highway",
    "subcategory": "residential",
    "latitude": 32.7380577,
    "longitude": 74.34429162,
    "id": 1305937281
  },
  {
    "name": "service",
    "category": "highway",
    "subcategory": "service",
    "latitude": 32.740810775,
    "longitude": 74.3445671875,
    "id": 1305937282
  },
  {
    "name": "service",
    "category": "highway",
    "subcategory": "service",
    "latitude": 32.74111805,
    "longitude": 74.3497317,
    "id": 1305937283
  },
  {
    "name": "service",
    "category": "highway",
    "subcategory": "service",
    "latitude": 32.740557725,
    "longitude": 74.349421725,
    "id": 1305937284
  },
  {
    "name": "service",
    "category": "highway",
    "subcategory": "service",
    "latitude": 32.74056,
    "longitude": 74.35020495,
    "id": 1305937285
  },
  {
    "name": "unclassified",
    "category": "highway",
    "subcategory": "unclassified",
    "latitude": 32.739677314285714,
    "longitude": 74.35043618571429,
    "id": 1305937286
  },
  {
    "name": "unclassified",
    "category": "highway",
    "subcategory": "unclassified",
    "latitude": 32.74206373333333,
    "longitude": 74.32996246666667,
    "id": 1305937296
  },
  {
    "name": "path",
    "category": "highway",
    "subcategory": "path",
    "latitude": 32.72786431666667,
    "longitude": 74.40325483333334,
    "id": 1305946456
  },
  {
    "name": "unclassified",
    "category": "highway",
    "subcategory": "unclassified",
    "latitude": 32.7280571,
    "longitude": 74.40254796666666,
    "id": 1305946457
  },
  {
    "name": "track",
    "category": "highway",
    "subcategory": "track",
    "latitude": 32.729461175,
    "longitude": 74.4033654875,
    "id": 1305946458
  },
  {
    "name": "path",
    "category": "highway",
    "subcategory": "path",
    "latitude": 32.72670196,
    "longitude": 74.40393702,
    "id": 1305946460
  },
  {
    "name": "path",
    "category": "highway",
    "subcategory": "path",
    "latitude": 32.728579827272725,
    "longitude": 74.40930105909091,
    "id": 1305946461
  },
  {
    "name": "residential",
    "category": "highway",
    "subcategory": "residential",
    "latitude": 32.72993958333333,
    "longitude": 74.40007191666666,
    "id": 1305947966
  },
  {
    "name": "track",
    "category": "highway",
    "subcategory": "track",
    "latitude": 32.72367416428572,
    "longitude": 74.4012807,
    "id": 1305947967
  },
  {
    "name": "unclassified",
    "category": "highway",
    "subcategory": "unclassified",
    "latitude": 32.72649761666667,
    "longitude": 74.40164175,
    "id": 1305947968
  },
  {
    "name": "path",
    "category": "highway",
    "subcategory": "path",
    "latitude": 32.730377688888886,
    "longitude": 74.40085387777778,
    "id": 1305947969
  },
  {
    "name": "track",
    "category": "highway",
    "subcategory": "track",
    "latitude": 32.7280499962963,
    "longitude": 74.39450267037037,
    "id": 1305947970
  },
  {
    "name": "track",
    "category": "highway",
    "subcategory": "track",
    "latitude": 32.72906223333334,
    "longitude": 74.3986704,
    "id": 1305947973
  },
  {
    "name": "path",
    "category": "highway",
    "subcategory": "path",
    "latitude": 32.72703175714285,
    "longitude": 74.39667600714286,
    "id": 1305947974
  },
  {
    "name": "track",
    "category": "highway",
    "subcategory": "track",
    "latitude": 32.728888624999996,
    "longitude": 74.389449275,
    "id": 1305952568
  },
  {
    "name": "residential",
    "category": "highway",
    "subcategory": "residential",
    "latitude": 32.730464516666665,
    "longitude": 74.39016741666667,
    "id": 1305952571
  },
  {
    "name": "residential",
    "category": "highway",
    "subcategory": "residential",
    "latitude": 32.73142285,
    "longitude": 74.39002133333334,
    "id": 1305952572
  },
  {
    "name": "residential",
    "category": "highway",
    "subcategory": "residential",
    "latitude": 32.73132436666666,
    "longitude": 74.39093985,
    "id": 1305952573
  },
  {
    "name": "residential",
    "category": "highway",
    "subcategory": "residential",
    "latitude": 32.7314828,
    "longitude": 74.39153306666667,
    "id": 1305952574
  },
  {
    "name": "residential",
    "category": "highway",
    "subcategory": "residential",
    "latitude": 32.731209639999996,
    "longitude": 74.39149962,
    "id": 1305952575
  },
  {
    "name": "track",
    "category": "highway",
    "subcategory": "track",
    "latitude": 32.73715924166667,
    "longitude": 74.39094283333333,
    "id": 1305953546
  },
  {
    "name": "track",
    "category": "highway",
    "subcategory": "track",
    "latitude": 32.737952783333334,
    "longitude": 74.38941728333333,
    "id": 1305953547
  },
  {
    "name": "unclassified",
    "category": "highway",
    "subcategory": "unclassified",
    "latitude": 32.73505465,
    "longitude": 74.39102785,
    "id": 1305953548
  },
  {
    "name": "residential",
    "category": "highway",
    "subcategory": "residential",
    "latitude": 32.73232505,
    "longitude": 74.39222845,
    "id": 1305953549
  },
  {
    "name": "residential",
    "category": "highway",
    "subcategory": "residential",
    "latitude": 32.73400066000001,
    "longitude": 74.3937758,
    "id": 1305953550
  },
  {
    "name": "tertiary",
    "category": "highway",
    "subcategory": "tertiary",
    "latitude": 32.73404232,
    "longitude": 74.39549152,
    "id": 1305953551
  },
  {
    "name": "track",
    "category": "highway",
    "subcategory": "track",
    "latitude": 32.73469704285714,
    "longitude": 74.39008415714285,
    "id": 1305953552
  },
  {
    "name": "track",
    "category": "highway",
    "subcategory": "track",
    "latitude": 32.7357615625,
    "longitude": 74.3937595625,
    "id": 1305953553
  },
  {
    "name": "track",
    "category": "highway",
    "subcategory": "track",
    "latitude": 32.73712123333333,
    "longitude": 74.3952662,
    "id": 1305953554
  },
  {
    "name": "track",
    "category": "highway",
    "subcategory": "track",
    "latitude": 32.736143766666665,
    "longitude": 74.39522076666667,
    "id": 1305953555
  },
  {
    "name": "residential",
    "category": "highway",
    "subcategory": "residential",
    "latitude": 32.733358205882354,
    "longitude": 74.39843969411766,
    "id": 1305953906
  },
  {
    "name": "residential",
    "category": "highway",
    "subcategory": "residential",
    "latitude": 32.73324935,
    "longitude": 74.40007324999999,
    "id": 1305953907
  },
  {
    "name": "path",
    "category": "highway",
    "subcategory": "path",
    "latitude": 32.733027166666666,
    "longitude": 74.39964313333333,
    "id": 1305953908
  },
  {
    "name": "residential",
    "category": "highway",
    "subcategory": "residential",
    "latitude": 32.73256028,
    "longitude": 74.3991805,
    "id": 1305953909
  },
  {
    "name": "residential",
    "category": "highway",
    "subcategory": "residential",
    "latitude": 32.73340494285714,
    "longitude": 74.40112218571429,
    "id": 1305955048
  },
  {
    "name": "track",
    "category": "highway",
    "subcategory": "track",
    "latitude": 32.736796575,
    "longitude": 74.396412575,
    "id": 1305955049
  },
  {
    "name": "track",
    "category": "highway",
    "subcategory": "track",
    "latitude": 32.7370673,
    "longitude": 74.396893,
    "id": 1305955050
  },
  {
    "name": "track",
    "category": "highway",
    "subcategory": "track",
    "latitude": 32.736678516666665,
    "longitude": 74.39977093333333,
    "id": 1305955051
  },
  {
    "name": "track",
    "category": "highway",
    "subcategory": "track",
    "latitude": 32.73517811111111,
    "longitude": 74.39985236666666,
    "id": 1305955052
  },
  {
    "name": "track",
    "category": "highway",
    "subcategory": "track",
    "latitude": 32.735193025,
    "longitude": 74.39907405,
    "id": 1305955053
  },
  {
    "name": "unclassified",
    "category": "highway",
    "subcategory": "unclassified",
    "latitude": 32.740469075,
    "longitude": 74.4046901,
    "id": 1305972251
  },
  {
    "name": "unclassified",
    "category": "highway",
    "subcategory": "unclassified",
    "latitude": 32.74101378947368,
    "longitude": 74.40190452105264,
    "id": 1305972252
  },
  {
    "name": "unclassified",
    "category": "highway",
    "subcategory": "unclassified",
    "latitude": 32.7387411,
    "longitude": 74.4020798,
    "id": 1305972253
  },
  {
    "name": "track",
    "category": "highway",
    "subcategory": "track",
    "latitude": 32.739346499999996,
    "longitude": 74.40571844444445,
    "id": 1305972254
  },
  {
    "name": "track",
    "category": "highway",
    "subcategory": "track",
    "latitude": 32.742514396000004,
    "longitude": 74.405613156,
    "id": 1305972255
  },
  {
    "name": "residential",
    "category": "highway",
    "subcategory": "residential",
    "latitude": 32.730597450000005,
    "longitude": 74.3855391,
    "id": 1306065915
  },
  {
    "name": "residential",
    "category": "highway",
    "subcategory": "residential",
    "latitude": 32.73043455,
    "longitude": 74.38550135,
    "id": 1306065916
  },
  {
    "name": "residential",
    "category": "highway",
    "subcategory": "residential",
    "latitude": 32.72971045,
    "longitude": 74.3856031,
    "id": 1306065917
  },
  {
    "name": "residential",
    "category": "highway",
    "subcategory": "residential",
    "latitude": 32.728336150000004,
    "longitude": 74.38559000000001,
    "id": 1306065918
  },
  {
    "name": "residential",
    "category": "highway",
    "subcategory": "residential",
    "latitude": 32.727655725,
    "longitude": 74.3881890375,
    "id": 1306065920
  },
  {
    "name": "track",
    "category": "highway",
    "subcategory": "track",
    "latitude": 32.72994158666667,
    "longitude": 74.38880663333333,
    "id": 1306065921
  },
  {
    "name": "residential",
    "category": "highway",
    "subcategory": "residential",
    "latitude": 32.731018766666665,
    "longitude": 74.3885298,
    "id": 1306065922
  },
  {
    "name": "residential",
    "category": "highway",
    "subcategory": "residential",
    "latitude": 32.73126584285715,
    "longitude": 74.38720287142857,
    "id": 1306065923
  },
  {
    "name": "residential",
    "category": "highway",
    "subcategory": "residential",
    "latitude": 32.730484100000005,
    "longitude": 74.38736543333333,
    "id": 1306065924
  },
  {
    "name": "residential",
    "category": "highway",
    "subcategory": "residential",
    "latitude": 32.7311431,
    "longitude": 74.38637175,
    "id": 1306065925
  },
  {
    "name": "track",
    "category": "highway",
    "subcategory": "track",
    "latitude": 32.72814544761905,
    "longitude": 74.37977190952381,
    "id": 1306065926
  },
  {
    "name": "track",
    "category": "highway",
    "subcategory": "track",
    "latitude": 32.72726754285714,
    "longitude": 74.37717875714286,
    "id": 1306065927
  },
  {
    "name": "track",
    "category": "highway",
    "subcategory": "track",
    "latitude": 32.7326453875,
    "longitude": 74.377887175,
    "id": 1306065929
  },
  {
    "name": "track",
    "category": "highway",
    "subcategory": "track",
    "latitude": 32.732692,
    "longitude": 74.37769743333332,
    "id": 1306065930
  },
  {
    "name": "track",
    "category": "highway",
    "subcategory": "track",
    "latitude": 32.7353785,
    "longitude": 74.37678764,
    "id": 1306065931
  },
  {
    "name": "track",
    "category": "highway",
    "subcategory": "track",
    "latitude": 32.73536045,
    "longitude": 74.37720688333333,
    "id": 1306065932
  },
  {
    "name": "track",
    "category": "highway",
    "subcategory": "track",
    "latitude": 32.73789874,
    "longitude": 74.37743605,
    "id": 1306065933
  },
  {
    "name": "track",
    "category": "highway",
    "subcategory": "track",
    "latitude": 32.737850400000006,
    "longitude": 74.37866136666666,
    "id": 1306065934
  },
  {
    "name": "unclassified",
    "category": "highway",
    "subcategory": "unclassified",
    "latitude": 32.73693118571428,
    "longitude": 74.3889271142857,
    "id": 1306065935
  },
  {
    "name": "track",
    "category": "highway",
    "subcategory": "track",
    "latitude": 32.736088726666665,
    "longitude": 74.38432894666667,
    "id": 1306065936
  },
  {
    "name": "track",
    "category": "highway",
    "subcategory": "track",
    "latitude": 32.73739818461539,
    "longitude": 74.38590004615385,
    "id": 1306065937
  },
  {
    "name": "track",
    "category": "highway",
    "subcategory": "track",
    "latitude": 32.73688941666666,
    "longitude": 74.3880471,
    "id": 1306065938
  },
  {
    "name": "track",
    "category": "highway",
    "subcategory": "track",
    "latitude": 32.72943548333333,
    "longitude": 74.38819744999999,
    "id": 1306066078
  },
  {
    "name": "track",
    "category": "highway",
    "subcategory": "track",
    "latitude": 32.745131372222225,
    "longitude": 74.38591473333332,
    "id": 1306066587
  },
  {
    "name": "track",
    "category": "highway",
    "subcategory": "track",
    "latitude": 32.74099940833333,
    "longitude": 74.38628334166667,
    "id": 1306066588
  },
  {
    "name": "track",
    "category": "highway",
    "subcategory": "track",
    "latitude": 32.7388336375,
    "longitude": 74.3862941125,
    "id": 1306066590
  },
  {
    "name": "track",
    "category": "highway",
    "subcategory": "track",
    "latitude": 32.74042714545454,
    "longitude": 74.38426804545453,
    "id": 1306066591
  },
  {
    "name": "track",
    "category": "highway",
    "subcategory": "track",
    "latitude": 32.74223911666667,
    "longitude": 74.3838052,
    "id": 1306067581
  },
  {
    "name": "track",
    "category": "highway",
    "subcategory": "track",
    "latitude": 32.742265458823525,
    "longitude": 74.37775456470588,
    "id": 1306067583
  },
  {
    "name": "unclassified",
    "category": "highway",
    "subcategory": "unclassified",
    "latitude": 32.74718033714286,
    "longitude": 74.3967393942857,
    "id": 1306073939
  },
  {
    "name": "unclassified",
    "category": "highway",
    "subcategory": "unclassified",
    "latitude": 32.7407086875,
    "longitude": 74.4008451375,
    "id": 1306073940
  },
  {
    "name": "path",
    "category": "highway",
    "subcategory": "path",
    "latitude": 32.7416943,
    "longitude": 74.401421475,
    "id": 1306073950
  },
  {
    "name": "path",
    "category": "highway",
    "subcategory": "path",
    "latitude": 32.739442675,
    "longitude": 74.400644,
    "id": 1306073965
  },
  {
    "name": "path",
    "category": "highway",
    "subcategory": "path",
    "latitude": 32.74316666153846,
    "longitude": 74.39107363076923,
    "id": 1306073968
  },
  {
    "name": "track",
    "category": "highway",
    "subcategory": "track",
    "latitude": 32.738534783333336,
    "longitude": 74.39186125833334,
    "id": 1306073969
  },
  {
    "name": "unclassified",
    "category": "highway",
    "subcategory": "unclassified",
    "latitude": 32.740865873333334,
    "longitude": 74.33007713333333,
    "id": 1306284532
  },
  {
    "name": "unclassified",
    "category": "highway",
    "subcategory": "unclassified",
    "latitude": 32.739890499999994,
    "longitude": 74.33048532857143,
    "id": 1306284533
  },
  {
    "name": "unclassified",
    "category": "highway",
    "subcategory": "unclassified",
    "latitude": 32.73890698333333,
    "longitude": 74.33062868333333,
    "id": 1306284534
  },
  {
    "name": "unclassified",
    "category": "highway",
    "subcategory": "unclassified",
    "latitude": 32.7388468,
    "longitude": 74.33084878,
    "id": 1306284535
  },
  {
    "name": "track",
    "category": "highway",
    "subcategory": "track",
    "latitude": 32.740015979999995,
    "longitude": 74.33010476,
    "id": 1306284536
  },
  {
    "name": "track",
    "category": "highway",
    "subcategory": "track",
    "latitude": 32.739348375,
    "longitude": 74.330235625,
    "id": 1306284539
  },
  {
    "name": "track",
    "category": "highway",
    "subcategory": "track",
    "latitude": 32.739013674999995,
    "longitude": 74.330386775,
    "id": 1306284540
  },
  {
    "name": "track",
    "category": "highway",
    "subcategory": "track",
    "latitude": 32.74110010769231,
    "longitude": 74.33055454615385,
    "id": 1306284546
  },
  {
    "name": "unclassified",
    "category": "highway",
    "subcategory": "unclassified",
    "latitude": 32.740492189473684,
    "longitude": 74.33177376842106,
    "id": 1306284547
  },
  {
    "name": "residential",
    "category": "highway",
    "subcategory": "residential",
    "latitude": 32.74170325,
    "longitude": 74.33704195,
    "id": 1306284548
  },
  {
    "name": "residential",
    "category": "highway",
    "subcategory": "residential",
    "latitude": 32.742168772727275,
    "longitude": 74.3376932,
    "id": 1306284549
  },
  {
    "name": "residential",
    "category": "highway",
    "subcategory": "residential",
    "latitude": 32.74146231428572,
    "longitude": 74.33842095714286,
    "id": 1306284553
  },
  {
    "name": "residential",
    "category": "highway",
    "subcategory": "residential",
    "latitude": 32.7411391,
    "longitude": 74.33925934999999,
    "id": 1306284554
  },
  {
    "name": "residential",
    "category": "highway",
    "subcategory": "residential",
    "latitude": 32.742042633333334,
    "longitude": 74.34533280000001,
    "id": 1306284559
  },
  {
    "name": "residential",
    "category": "highway",
    "subcategory": "residential",
    "latitude": 32.7416728,
    "longitude": 74.34713414999999,
    "id": 1306284564
  },
  {
    "name": "residential",
    "category": "highway",
    "subcategory": "residential",
    "latitude": 32.741509025,
    "longitude": 74.3513343875,
    "id": 1306284565
  },
  {
    "name": "residential",
    "category": "highway",
    "subcategory": "residential",
    "latitude": 32.74107925,
    "longitude": 74.3500832,
    "id": 1306284566
  },
  {
    "name": "residential",
    "category": "highway",
    "subcategory": "residential",
    "latitude": 32.73886055,
    "longitude": 74.34475333750001,
    "id": 1306284567
  },
  {
    "name": "residential",
    "category": "highway",
    "subcategory": "residential",
    "latitude": 32.7383279,
    "longitude": 74.34628645000001,
    "id": 1306284568
  },
  {
    "name": "residential",
    "category": "highway",
    "subcategory": "residential",
    "latitude": 32.73886765,
    "longitude": 74.345812225,
    "id": 1306284569
  },
  {
    "name": "residential",
    "category": "highway",
    "subcategory": "residential",
    "latitude": 32.74092905,
    "longitude": 74.3484427,
    "id": 1306284570
  },
  {
    "name": "residential",
    "category": "highway",
    "subcategory": "residential",
    "latitude": 32.740536533333334,
    "longitude": 74.35124962222223,
    "id": 1306284571
  },
  {
    "name": "residential",
    "category": "highway",
    "subcategory": "residential",
    "latitude": 32.7408686,
    "longitude": 74.35140365000001,
    "id": 1306284572
  },
  {
    "name": "residential",
    "category": "highway",
    "subcategory": "residential",
    "latitude": 32.73966945714286,
    "longitude": 74.34289957142857,
    "id": 1306284573
  },
  {
    "name": "residential",
    "category": "highway",
    "subcategory": "residential",
    "latitude": 32.7397445,
    "longitude": 74.34208945,
    "id": 1306284574
  },
  {
    "name": "track",
    "category": "highway",
    "subcategory": "track",
    "latitude": 32.73995702,
    "longitude": 74.33088984,
    "id": 1306284660
  },
  {
    "name": "track",
    "category": "highway",
    "subcategory": "track",
    "latitude": 32.73945765,
    "longitude": 74.33081575,
    "id": 1306284661
  },
  {
    "name": "residential",
    "category": "highway",
    "subcategory": "residential",
    "latitude": 32.741318174999996,
    "longitude": 74.33170142499999,
    "id": 1306284662
  },
  {
    "name": "track",
    "category": "highway",
    "subcategory": "track",
    "latitude": 32.740212444444445,
    "longitude": 74.33272202222221,
    "id": 1306284663
  },
  {
    "name": "unclassified",
    "category": "highway",
    "subcategory": "unclassified",
    "latitude": 32.739165549999996,
    "longitude": 74.330771,
    "id": 1306503990
  },
  {
    "name": "residential",
    "category": "highway",
    "subcategory": "residential",
    "latitude": 32.7152959,
    "longitude": 74.37733005,
    "id": 1308526494
  },
  {
    "name": "track",
    "category": "highway",
    "subcategory": "track",
    "latitude": 32.71787155,
    "longitude": 74.377541525,
    "id": 1308526495
  },
  {
    "name": "track",
    "category": "highway",
    "subcategory": "track",
    "latitude": 32.71812139285714,
    "longitude": 74.40096080000001,
    "id": 1308527330
  },
  {
    "name": "track",
    "category": "highway",
    "subcategory": "track",
    "latitude": 32.71341528888889,
    "longitude": 74.39079495555556,
    "id": 1308527331
  },
  {
    "name": "track",
    "category": "highway",
    "subcategory": "track",
    "latitude": 32.72546139166667,
    "longitude": 74.40853865,
    "id": 1308540808
  },
  {
    "name": "track",
    "category": "highway",
    "subcategory": "track",
    "latitude": 32.719294075,
    "longitude": 74.410267725,
    "id": 1308952103
  },
  {
    "name": "residential",
    "category": "landuse",
    "subcategory": "residential",
    "latitude": 32.73059044,
    "longitude": 74.3878205,
    "id": 1309167623
  },
  {
    "name": "residential",
    "category": "landuse",
    "subcategory": "residential",
    "latitude": 32.72892344,
    "longitude": 74.38585064,
    "id": 1309167624
  },
  {
    "name": "residential",
    "category": "landuse",
    "subcategory": "residential",
    "latitude": 32.73030138421053,
    "longitude": 74.38587512105263,
    "id": 1309167625
  },
  {
    "name": "track",
    "category": "highway",
    "subcategory": "track",
    "latitude": 32.72766346153846,
    "longitude": 74.39127181538461,
    "id": 1309173650
  },
  {
    "name": "residential",
    "category": "highway",
    "subcategory": "residential",
    "latitude": 32.72966494,
    "longitude": 74.39706824,
    "id": 1309179977
  },
  {
    "name": "residential",
    "category": "highway",
    "subcategory": "residential",
    "latitude": 32.733331892857144,
    "longitude": 74.40183110714285,
    "id": 1309209236
  },
  {
    "name": "residential",
    "category": "highway",
    "subcategory": "residential",
    "latitude": 32.73405258181818,
    "longitude": 74.40214122727274,
    "id": 1309209237
  },
  {
    "name": "residential",
    "category": "highway",
    "subcategory": "residential",
    "latitude": 32.733407955555556,
    "longitude": 74.40373873333334,
    "id": 1309209238
  },
  {
    "name": "residential",
    "category": "highway",
    "subcategory": "residential",
    "latitude": 32.733741591666664,
    "longitude": 74.403204175,
    "id": 1309209239
  },
  {
    "name": "residential",
    "category": "highway",
    "subcategory": "residential",
    "latitude": 32.73357254444445,
    "longitude": 74.40285736666667,
    "id": 1309209240
  },
  {
    "name": "residential",
    "category": "highway",
    "subcategory": "residential",
    "latitude": 32.73336237777778,
    "longitude": 74.40426712222222,
    "id": 1309209241
  },
  {
    "name": "residential",
    "category": "highway",
    "subcategory": "residential",
    "latitude": 32.73379277272728,
    "longitude": 74.4020257090909,
    "id": 1309209242
  },
  {
    "name": "residential",
    "category": "highway",
    "subcategory": "residential",
    "latitude": 32.73358564,
    "longitude": 74.40176596,
    "id": 1309209243
  },
  {
    "name": "residential",
    "category": "highway",
    "subcategory": "residential",
    "latitude": 32.732908099999996,
    "longitude": 74.40323936666668,
    "id": 1309209245
  },
  {
    "name": "residential",
    "category": "highway",
    "subcategory": "residential",
    "latitude": 32.732910175,
    "longitude": 74.403397375,
    "id": 1309209246
  },
  {
    "name": "path",
    "category": "highway",
    "subcategory": "path",
    "latitude": 32.729820360000005,
    "longitude": 74.40257228,
    "id": 1309209247
  },
  {
    "name": "unclassified",
    "category": "highway",
    "subcategory": "unclassified",
    "latitude": 32.72864665,
    "longitude": 74.40297915,
    "id": 1309209248
  },
  {
    "name": "path",
    "category": "highway",
    "subcategory": "path",
    "latitude": 32.72545975714286,
    "longitude": 74.40330638571429,
    "id": 1309209249
  },
  {
    "name": "path",
    "category": "highway",
    "subcategory": "path",
    "latitude": 32.727965857142856,
    "longitude": 74.41047547142857,
    "id": 1309209250
  },
  {
    "name": "path",
    "category": "highway",
    "subcategory": "path",
    "latitude": 32.736068138095234,
    "longitude": 74.40737883333334,
    "id": 1309209251
  },
  {
    "name": "path",
    "category": "highway",
    "subcategory": "path",
    "latitude": 32.73761395555555,
    "longitude": 74.40769244444444,
    "id": 1309209252
  },
  {
    "name": "path",
    "category": "highway",
    "subcategory": "path",
    "latitude": 32.737613575,
    "longitude": 74.4085178375,
    "id": 1309209253
  },
  {
    "name": "residential",
    "category": "highway",
    "subcategory": "residential",
    "latitude": 32.735470488888886,
    "longitude": 74.40310242222222,
    "id": 1309209255
  },
  {
    "name": "residential",
    "category": "highway",
    "subcategory": "residential",
    "latitude": 32.735333966666666,
    "longitude": 74.40298502666666,
    "id": 1309209256
  },
  {
    "name": "residential",
    "category": "highway",
    "subcategory": "residential",
    "latitude": 32.735552174999995,
    "longitude": 74.4021877,
    "id": 1309209257
  },
  {
    "name": "residential",
    "category": "highway",
    "subcategory": "residential",
    "latitude": 32.7359308,
    "longitude": 74.40285985,
    "id": 1309209258
  },
  {
    "name": "residential",
    "category": "highway",
    "subcategory": "residential",
    "latitude": 32.73589036,
    "longitude": 74.40347004,
    "id": 1309209259
  },
  {
    "name": "residential",
    "category": "highway",
    "subcategory": "residential",
    "latitude": 32.735606649999994,
    "longitude": 74.40355215,
    "id": 1309209260
  },
  {
    "name": "residential",
    "category": "highway",
    "subcategory": "residential",
    "latitude": 32.735769125000004,
    "longitude": 74.403315625,
    "id": 1309209261
  },
  {
    "name": "residential",
    "category": "highway",
    "subcategory": "residential",
    "latitude": 32.735726742857146,
    "longitude": 74.40138788571429,
    "id": 1309209262
  },
  {
    "name": "residential",
    "category": "highway",
    "subcategory": "residential",
    "latitude": 32.7346247,
    "longitude": 74.4021776,
    "id": 1309209263
  },
  {
    "name": "residential",
    "category": "highway",
    "subcategory": "residential",
    "latitude": 32.7342481,
    "longitude": 74.40110873333333,
    "id": 1309209264
  },
  {
    "name": "residential",
    "category": "highway",
    "subcategory": "residential",
    "latitude": 32.73427143333333,
    "longitude": 74.40143143333334,
    "id": 1309209265
  },
  {
    "name": "residential",
    "category": "highway",
    "subcategory": "residential",
    "latitude": 32.73391974166667,
    "longitude": 74.4015759,
    "id": 1309209266
  },
  {
    "name": "residential",
    "category": "highway",
    "subcategory": "residential",
    "latitude": 32.734069950000006,
    "longitude": 74.40175105,
    "id": 1309209267
  },
  {
    "name": "residential",
    "category": "highway",
    "subcategory": "residential",
    "latitude": 32.73348906,
    "longitude": 74.40266318,
    "id": 1309209268
  },
  {
    "name": "residential",
    "category": "highway",
    "subcategory": "residential",
    "latitude": 32.73357226666667,
    "longitude": 74.40318023333333,
    "id": 1309209269
  },
  {
    "name": "residential",
    "category": "highway",
    "subcategory": "residential",
    "latitude": 32.73331886666667,
    "longitude": 74.40379403333334,
    "id": 1309209270
  },
  {
    "name": "residential",
    "category": "highway",
    "subcategory": "residential",
    "latitude": 32.732894683333335,
    "longitude": 74.40365085,
    "id": 1309209271
  },
  {
    "name": "residential",
    "category": "highway",
    "subcategory": "residential",
    "latitude": 32.7327,
    "longitude": 74.40434123333334,
    "id": 1309209272
  },
  {
    "name": "residential",
    "category": "highway",
    "subcategory": "residential",
    "latitude": 32.73256693333333,
    "longitude": 74.40439450000001,
    "id": 1309209273
  },
  {
    "name": "residential",
    "category": "highway",
    "subcategory": "residential",
    "latitude": 32.73357798,
    "longitude": 74.40466907999999,
    "id": 1309209275
  },
  {
    "name": "residential",
    "category": "highway",
    "subcategory": "residential",
    "latitude": 32.7331213,
    "longitude": 74.40448726666666,
    "id": 1309209276
  },
  {
    "name": "residential",
    "category": "highway",
    "subcategory": "residential",
    "latitude": 32.73340306666667,
    "longitude": 74.40425723333333,
    "id": 1309209277
  },
  {
    "name": "residential",
    "category": "highway",
    "subcategory": "residential",
    "latitude": 32.7332921,
    "longitude": 74.4040539,
    "id": 1309209278
  },
  {
    "name": "residential",
    "category": "highway",
    "subcategory": "residential",
    "latitude": 32.7357847,
    "longitude": 74.40204763333334,
    "id": 1311264949
  },
  {
    "name": "residential",
    "category": "highway",
    "subcategory": "residential",
    "latitude": 32.7328811,
    "longitude": 74.4042434,
    "id": 1311264950
  },
  {
    "name": "residential",
    "category": "highway",
    "subcategory": "residential",
    "latitude": 32.73292715,
    "longitude": 74.40392019999999,
    "id": 1311264951
  },
  {
    "name": "track",
    "category": "highway",
    "subcategory": "track",
    "latitude": 32.73211143,
    "longitude": 74.41009861,
    "id": 1311264952
  },
  {
    "name": "residential",
    "category": "highway",
    "subcategory": "residential",
    "latitude": 32.73457125,
    "longitude": 74.4030798875,
    "id": 1311264953
  },
  {
    "name": "residential",
    "category": "highway",
    "subcategory": "residential",
    "latitude": 32.73315490769231,
    "longitude": 74.40361438461538,
    "id": 1311264954
  },
  {
    "name": "residential",
    "category": "highway",
    "subcategory": "residential",
    "latitude": 32.7342254875,
    "longitude": 74.4044955625,
    "id": 1311264955
  },
  {
    "name": "track",
    "category": "highway",
    "subcategory": "track",
    "latitude": 32.74265355217391,
    "longitude": 74.38849710434782,
    "id": 1311724422
  },
  {
    "name": "track",
    "category": "highway",
    "subcategory": "track",
    "latitude": 32.742334246153845,
    "longitude": 74.38658586153846,
    "id": 1312155665
  },
  {
    "name": "track",
    "category": "highway",
    "subcategory": "track",
    "latitude": 32.74227404444444,
    "longitude": 74.38674495555556,
    "id": 1312155666
  },
  {
    "name": "residential",
    "category": "highway",
    "subcategory": "residential",
    "latitude": 32.7405188,
    "longitude": 74.38532057500001,
    "id": 1312155668
  },
  {
    "name": "residential",
    "category": "highway",
    "subcategory": "residential",
    "latitude": 32.74033058333333,
    "longitude": 74.38556708333333,
    "id": 1312155669
  },
  {
    "name": "residential",
    "category": "highway",
    "subcategory": "residential",
    "latitude": 32.740542033333334,
    "longitude": 74.38588903333333,
    "id": 1312155670
  },
  {
    "name": "residential",
    "category": "highway",
    "subcategory": "residential",
    "latitude": 32.74015216666667,
    "longitude": 74.38576876666666,
    "id": 1312155671
  },
  {
    "name": "residential",
    "category": "highway",
    "subcategory": "residential",
    "latitude": 32.73928352,
    "longitude": 74.38627546000001,
    "id": 1312155672
  },
  {
    "name": "residential",
    "category": "highway",
    "subcategory": "residential",
    "latitude": 32.739533574999996,
    "longitude": 74.3856287,
    "id": 1312155673
  },
  {
    "name": "residential",
    "category": "highway",
    "subcategory": "residential",
    "latitude": 32.739258050000004,
    "longitude": 74.3860095,
    "id": 1312155674
  },
  {
    "name": "residential",
    "category": "highway",
    "subcategory": "residential",
    "latitude": 32.73839396666667,
    "longitude": 74.3843655,
    "id": 1312155675
  },
  {
    "name": "residential",
    "category": "highway",
    "subcategory": "residential",
    "latitude": 32.73578598125,
    "longitude": 74.38306104375,
    "id": 1312155676
  },
  {
    "name": "path",
    "category": "highway",
    "subcategory": "path",
    "latitude": 32.73724463333333,
    "longitude": 74.38462723333333,
    "id": 1312155677
  },
  {
    "name": "path",
    "category": "highway",
    "subcategory": "path",
    "latitude": 32.73854405,
    "longitude": 74.38338055,
    "id": 1312155678
  },
  {
    "name": "path",
    "category": "highway",
    "subcategory": "path",
    "latitude": 32.7419315,
    "longitude": 74.39252788181818,
    "id": 1312156119
  },
  {
    "name": "residential",
    "category": "highway",
    "subcategory": "residential",
    "latitude": 32.740885,
    "longitude": 74.3941195,
    "id": 1312156121
  },
  {
    "name": "unclassified",
    "category": "highway",
    "subcategory": "unclassified",
    "latitude": 32.740536999999996,
    "longitude": 74.4015017,
    "id": 1312156122
  },
  {
    "name": "residential",
    "category": "highway",
    "subcategory": "residential",
    "latitude": 32.74023835,
    "longitude": 74.3987369,
    "id": 1312156609
  },
  {
    "name": "residential",
    "category": "highway",
    "subcategory": "residential",
    "latitude": 32.74055532,
    "longitude": 74.34342108000001,
    "id": 1335135054
  },
  {
    "name": "residential",
    "category": "highway",
    "subcategory": "residential",
    "latitude": 32.736908,
    "longitude": 74.344194,
    "id": 1335135055
  },
  {
    "name": "residential",
    "category": "highway",
    "subcategory": "residential",
    "latitude": 32.6623932,
    "longitude": 74.37681845,
    "id": 1375658132
  },
  {
    "name": "unclassified",
    "category": "highway",
    "subcategory": "unclassified",
    "latitude": 32.662278900000004,
    "longitude": 74.37702992222222,
    "id": 1375658135
  },
  {
    "name": "residential",
    "category": "highway",
    "subcategory": "residential",
    "latitude": 32.705546088888894,
    "longitude": 74.36587453333333,
    "id": 1412208906
  },
  {
    "name": "residential",
    "category": "highway",
    "subcategory": "residential",
    "latitude": 32.705777,
    "longitude": 74.36739146666666,
    "id": 1412208907
  },
  {
    "name": "residential",
    "category": "highway",
    "subcategory": "residential",
    "latitude": 32.70675390833333,
    "longitude": 74.36703035833334,
    "id": 1412208908
  },
  {
    "name": "residential",
    "category": "highway",
    "subcategory": "residential",
    "latitude": 32.70490214545455,
    "longitude": 74.36813071818182,
    "id": 1412208909
  },
  {
    "name": "residential",
    "category": "highway",
    "subcategory": "residential",
    "latitude": 32.69794255,
    "longitude": 74.36216085000001,
    "id": 1412208910
  },
  {
    "name": "residential",
    "category": "highway",
    "subcategory": "residential",
    "latitude": 32.6981017,
    "longitude": 74.35805575,
    "id": 1412208911
  },
  {
    "name": "residential",
    "category": "highway",
    "subcategory": "residential",
    "latitude": 32.698583514285716,
    "longitude": 74.36091411428572,
    "id": 1412208912
  },
  {
    "name": "residential",
    "category": "highway",
    "subcategory": "residential",
    "latitude": 32.69954,
    "longitude": 74.3630797,
    "id": 1412208913
  },
  {
    "name": "residential",
    "category": "highway",
    "subcategory": "residential",
    "latitude": 32.6987800375,
    "longitude": 74.362149125,
    "id": 1412208914
  },
  {
    "name": "living_street",
    "category": "highway",
    "subcategory": "living_street",
    "latitude": 32.6941160375,
    "longitude": 74.3697754125,
    "id": 1412208915
  },
  {
    "name": "residential",
    "category": "highway",
    "subcategory": "residential",
    "latitude": 32.69885298125,
    "longitude": 74.37238680625,
    "id": 1412208918
  },
  {
    "name": "residential",
    "category": "highway",
    "subcategory": "residential",
    "latitude": 32.700578625,
    "longitude": 74.37577304999999,
    "id": 1412208919
  },
  {
    "name": "residential",
    "category": "highway",
    "subcategory": "residential",
    "latitude": 32.70184111428571,
    "longitude": 74.3753993,
    "id": 1412208920
  },
  {
    "name": "residential",
    "category": "highway",
    "subcategory": "residential",
    "latitude": 32.70506351666666,
    "longitude": 74.37521733333334,
    "id": 1412208921
  },
  {
    "name": "residential",
    "category": "highway",
    "subcategory": "residential",
    "latitude": 32.7097019,
    "longitude": 74.37586732,
    "id": 1412208922
  },
  {
    "name": "residential",
    "category": "highway",
    "subcategory": "residential",
    "latitude": 32.70382525,
    "longitude": 74.3732411875,
    "id": 1412208923
  },
  {
    "name": "residential",
    "category": "highway",
    "subcategory": "residential",
    "latitude": 32.704106,
    "longitude": 74.37092667142858,
    "id": 1412208924
  },
  {
    "name": "residential",
    "category": "highway",
    "subcategory": "residential",
    "latitude": 32.703404075,
    "longitude": 74.369952375,
    "id": 1412208925
  },
  {
    "name": "residential",
    "category": "highway",
    "subcategory": "residential",
    "latitude": 32.702805662500005,
    "longitude": 74.3682287125,
    "id": 1412208926
  },
  {
    "name": "residential",
    "category": "highway",
    "subcategory": "residential",
    "latitude": 32.70127115,
    "longitude": 74.366785,
    "id": 1412208927
  },
  {
    "name": "residential",
    "category": "highway",
    "subcategory": "residential",
    "latitude": 32.70187765,
    "longitude": 74.36801912499999,
    "id": 1412208928
  },
  {
    "name": "residential",
    "category": "highway",
    "subcategory": "residential",
    "latitude": 32.7026453,
    "longitude": 74.3628895,
    "id": 1412208930
  },
  {
    "name": "residential",
    "category": "highway",
    "subcategory": "residential",
    "latitude": 32.70887230833333,
    "longitude": 74.36330801666666,
    "id": 1412208931
  },
  {
    "name": "residential",
    "category": "highway",
    "subcategory": "residential",
    "latitude": 32.70378761111111,
    "longitude": 74.36418218888889,
    "id": 1412208932
  },
  {
    "name": "residential",
    "category": "highway",
    "subcategory": "residential",
    "latitude": 32.70526016363636,
    "longitude": 74.35768328181818,
    "id": 1412208933
  },
  {
    "name": "unclassified",
    "category": "highway",
    "subcategory": "unclassified",
    "latitude": 32.733058740000004,
    "longitude": 74.39472628,
    "id": 1413003444
  },
  {
    "name": "residential",
    "category": "highway",
    "subcategory": "residential",
    "latitude": 32.702681299999995,
    "longitude": 74.35753137500001,
    "id": 1467107033
  },
  {
    "name": "residential",
    "category": "highway",
    "subcategory": "residential",
    "latitude": 32.70122152857142,
    "longitude": 74.35784332857143,
    "id": 1467107034
  },
  {
    "name": "residential",
    "category": "highway",
    "subcategory": "residential",
    "latitude": 32.70155112352941,
    "longitude": 74.35574100588235,
    "id": 1467107035
  },
  {
    "name": "residential",
    "category": "highway",
    "subcategory": "residential",
    "latitude": 32.71087472,
    "longitude": 74.35411898666666,
    "id": 1467107036
  },
  {
    "name": "residential",
    "category": "highway",
    "subcategory": "residential",
    "latitude": 32.7113535,
    "longitude": 74.36275534,
    "id": 1467107037
  },
  {
    "name": "residential",
    "category": "highway",
    "subcategory": "residential",
    "latitude": 32.70639374444445,
    "longitude": 74.34893667222222,
    "id": 1467107038
  },
  {
    "name": "residential",
    "category": "highway",
    "subcategory": "residential",
    "latitude": 32.7001845661017,
    "longitude": 74.35169653050848,
    "id": 1467107039
  },
  {
    "name": "water",
    "category": "natural",
    "subcategory": "water",
    "latitude": 32.67654807272727,
    "longitude": 74.4040025,
    "id": 237922562
  },
  {
    "name": "grass",
    "category": "landuse",
    "subcategory": "grass",
    "latitude": 32.69567074285714,
    "longitude": 74.39805473571428,
    "id": 237922563
  },
  {
    "name": "fuel",
    "category": "amenity",
    "subcategory": "fuel",
    "latitude": 32.667863266666664,
    "longitude": 74.36169961666667,
    "id": 256274388
  },
  {
    "name": "ٹانڈہ",
    "category": "landuse",
    "subcategory": "residential",
    "latitude": 32.70155229444444,
    "longitude": 74.3672372,
    "id": 451674917
  },
  {
    "name": "Mota",
    "category": "landuse",
    "subcategory": "residential",
    "latitude": 32.69365027777778,
    "longitude": 74.36926542222221,
    "id": 451674918
  },
  {
    "name": "residential",
    "category": "landuse",
    "subcategory": "residential",
    "latitude": 32.7420311,
    "longitude": 74.33695026956522,
    "id": 451675043
  },
  {
    "name": "residential",
    "category": "landuse",
    "subcategory": "residential",
    "latitude": 32.6697958875,
    "longitude": 74.406964175,
    "id": 451676241
  },
  {
    "name": "residential",
    "category": "landuse",
    "subcategory": "residential",
    "latitude": 32.67244575,
    "longitude": 74.35407773333334,
    "id": 454462123
  },
  {
    "name": "residential",
    "category": "landuse",
    "subcategory": "residential",
    "latitude": 32.67942689,
    "longitude": 74.35949846,
    "id": 454462124
  },
  {
    "name": "residential",
    "category": "landuse",
    "subcategory": "residential",
    "latitude": 32.73305088,
    "longitude": 74.39236183,
    "id": 454462125
  },
  {
    "name": "residential",
    "category": "landuse",
    "subcategory": "residential",
    "latitude": 32.66535873,
    "longitude": 74.35410549000001,
    "id": 454462127
  },
  {
    "name": "residential",
    "category": "landuse",
    "subcategory": "residential",
    "latitude": 32.725019412500004,
    "longitude": 74.341449375,
    "id": 454606457
  },
  {
    "name": "reservoir",
    "category": "landuse",
    "subcategory": "reservoir",
    "latitude": 32.72333463333334,
    "longitude": 74.34080111666667,
    "id": 454606640
  },
  {
    "name": "residential",
    "category": "landuse",
    "subcategory": "residential",
    "latitude": 32.69668551666667,
    "longitude": 74.37038869166666,
    "id": 454609599
  },
  {
    "name": "residential",
    "category": "landuse",
    "subcategory": "residential",
    "latitude": 32.663485675,
    "longitude": 74.4064954875,
    "id": 891893385
  },
  {
    "name": "scrub",
    "category": "natural",
    "subcategory": "scrub",
    "latitude": 32.688208502040816,
    "longitude": 74.41814466984127,
    "id": 13644443
  },
  {
    "name": "residential",
    "category": "landuse",
    "subcategory": "residential",
    "latitude": 32.730553900000004,
    "longitude": 74.38781836000001,
    "id": 1309167623
  },
  {
    "name": "residential",
    "category": "landuse",
    "subcategory": "residential",
    "latitude": 32.728821919999994,
    "longitude": 74.38570258,
    "id": 1309167624
  },
  {
    "name": "residential",
    "category": "landuse",
    "subcategory": "residential",
    "latitude": 32.73028855789473,
    "longitude": 74.38579888947368,
    "id": 1309167625
  }
]