[
  {
    "name": "Abu Bakar",
    "category": "amenity",
    "subcategory": "place_of_worship",
    "latitude": 34.0230342,
    "longitude": 71.5480637,
    "id": 1224141080
  },
  {
    "name": "Charsadda Bus Terminal",
    "category": "amenity",
    "subcategory": "bus_station",
    "latitude": 34.029792,
    "longitude": 71.5768599,
    "id": 1224175043
  },
  {
    "name": "سعید آباد",
    "category": "place",
    "subcategory": "suburb",
    "latitude": 34.0214158,
    "longitude": 71.569736,
    "id": 1224175049
  },
  {
    "name": "شاہی باغ مسجد",
    "category": "amenity",
    "subcategory": "place_of_worship",
    "latitude": 34.0202953,
    "longitude": 71.5734482,
    "id": 1224175058
  },
  {
    "name": "مسجد",
    "category": "amenity",
    "subcategory": "place_of_worship",
    "latitude": 34.0202251,
    "longitude": 71.5795003,
    "id": 1224175061
  },
  {
    "name": "Mayor's Office",
    "category": "amenity",
    "subcategory": "townhall",
    "latitude": 34.0174853,
    "longitude": 71.5716457,
    "id": 1224175063
  },
  {
    "name": "Peshawar",
    "category": "tourism",
    "subcategory": "zoo",
    "latitude": 34.0883058,
    "longitude": 71.5133811,
    "id": 1350039439
  },
  {
    "name": "Apple",
    "category": "shop",
    "subcategory": "greengrocer",
    "latitude": 34.0864858,
    "longitude": 71.5235225,
    "id": 1350043937
  },
  {
    "name": "Fork restaurant",
    "category": "amenity",
    "subcategory": "restaurant",
    "latitude": 34.0204974,
    "longitude": 71.5594087,
    "id": 1350054380
  },
  {
    "name": "Wapda Hospital",
    "category": "amenity",
    "subcategory": "hospital",
    "latitude": 34.0234601,
    "longitude": 71.5577474,
    "id": 2345384102
  },
  {
    "name": "Wapda Guest House",
    "category": "tourism",
    "subcategory": "guest_house",
    "latitude": 34.025034,
    "longitude": 71.5580231,
    "id": 2345410961
  },
  {
    "name": "Wapda High School",
    "category": "amenity",
    "subcategory": "school",
    "latitude": 34.0231678,
    "longitude": 71.5608377,
    "id": 2345410962
  },
  {
    "name": "Army Stadium",
    "category": "leisure",
    "subcategory": "stadium",
    "latitude": 34.0166898,
    "longitude": 71.5506902,
    "id": 2429988462
  },
  {
    "name": "Chit Chat",
    "category": "amenity",
    "subcategory": "marketplace",
    "latitude": 34.0181019,
    "longitude": 71.5551823,
    "id": 2429988463
  },
  {
    "name": "McDonalds",
    "category": "amenity",
    "subcategory": "restaurant",
    "latitude": 34.0175343,
    "longitude": 71.5479581,
    "id": 2429988465
  },
  {
    "name": "Directorate General of Excise & Taxation",
    "category": "office",
    "subcategory": "government",
    "latitude": 34.0166964,
    "longitude": 71.5538833,
    "id": 2429988468
  },
  {
    "name": "parking",
    "category": "amenity",
    "subcategory": "parking",
    "latitude": 34.0170031,
    "longitude": 71.553634,
    "id": 2429988485
  },
  {
    "name": "motorway_junction",
    "category": "highway",
    "subcategory": "motorway_junction",
    "latitude": 34.0245855,
    "longitude": 71.6202086,
    "id": 2432092145
  },
  {
    "name": "Wapda House, Peshawar",
    "category": "office",
    "subcategory": "government",
    "latitude": 34.0241747,
    "longitude": 71.5583907,
    "id": 2432768428
  },
  {
    "name": "parking_space",
    "category": "amenity",
    "subcategory": "parking_space",
    "latitude": 34.0232912,
    "longitude": 71.5586497,
    "id": 2432768455
  },
  {
    "name": "traffic_signals",
    "category": "highway",
    "subcategory": "traffic_signals",
    "latitude": 34.0142759,
    "longitude": 71.5476438,
    "id": 2432780039
  },
  {
    "name": "افغان کالونی",
    "category": "place",
    "subcategory": "neighbourhood",
    "latitude": 34.0276785,
    "longitude": 71.5808097,
    "id": 3301971427
  },
  {
    "name": "parking",
    "category": "amenity",
    "subcategory": "parking",
    "latitude": 34.0239353,
    "longitude": 71.5776124,
    "id": 3302081823
  },
  {
    "name": "restaurant",
    "category": "amenity",
    "subcategory": "restaurant",
    "latitude": 34.0273968,
    "longitude": 71.5677833,
    "id": 3861801666
  },
  {
    "name": "Police Station Faqirabad",
    "category": "amenity",
    "subcategory": "police",
    "latitude": 34.0280887,
    "longitude": 71.5754206,
    "id": 4456939994
  },
  {
    "name": "Traffic Police Head Quarter",
    "category": "amenity",
    "subcategory": "police",
    "latitude": 34.0168891,
    "longitude": 71.5710666,
    "id": 4481034699
  },
  {
    "name": "fuel",
    "category": "amenity",
    "subcategory": "fuel",
    "latitude": 34.0246189,
    "longitude": 71.577796,
    "id": 4496769992
  },
  {
    "name": "Car Repair Michanic",
    "category": "shop",
    "subcategory": "car_repair",
    "latitude": 34.0430404,
    "longitude": 71.5775705,
    "id": 4496769993
  },
  {
    "name": "Fire Brigade",
    "category": "amenity",
    "subcategory": "fire_station",
    "latitude": 34.0279949,
    "longitude": 71.5753927,
    "id": 4496776893
  },
  {
    "name": "Dr Tahira nasreen gynaecologist",
    "category": "amenity",
    "subcategory": "clinic",
    "latitude": 34.0233043,
    "longitude": 71.5553035,
    "id": 4586526189
  },
  {
    "name": "Jamia Masjid Janas Khan Akakhail",
    "category": "amenity",
    "subcategory": "place_of_worship",
    "latitude": 34.0449661,
    "longitude": 71.576021,
    "id": 4682542590
  },
  {
    "name": "Golden Plaza (Janas Khan Akakhail & Son's)",
    "category": "shop",
    "subcategory": "supermarket",
    "latitude": 34.042951,
    "longitude": 71.5785593,
    "id": 4682550889
  },
  {
    "name": "Cake o'clock",
    "category": "shop",
    "subcategory": "bakery",
    "latitude": 34.0224186,
    "longitude": 71.5374639,
    "id": 5302603123
  },
  {
    "name": "Jinnah Medical College",
    "category": "amenity",
    "subcategory": "college",
    "latitude": 34.0378783,
    "longitude": 71.5296291,
    "id": 5302603124
  },
  {
    "name": "Officers Garden Colony",
    "category": "tourism",
    "subcategory": "apartment",
    "latitude": 34.0415402,
    "longitude": 71.5301972,
    "id": 5304718621
  },
  {
    "name": "Warsak Mall",
    "category": "shop",
    "subcategory": "variety_store",
    "latitude": 34.0223073,
    "longitude": 71.537533,
    "id": 5308034722
  },
  {
    "name": "Northern Villas",
    "category": "tourism",
    "subcategory": "apartment",
    "latitude": 34.0433247,
    "longitude": 71.5256547,
    "id": 5352416121
  },
  {
    "name": "Grandeur Lounge",
    "category": "tourism",
    "subcategory": "motel",
    "latitude": 34.0235128,
    "longitude": 71.5424059,
    "id": 5422392621
  },
  {
    "name": "Fata Secretariat Peshawar",
    "category": "office",
    "subcategory": "government",
    "latitude": 34.0239093,
    "longitude": 71.5339902,
    "id": 5640983021
  },
  {
    "name": "ایم سی بی بینک",
    "category": "amenity",
    "subcategory": "bank",
    "latitude": 34.0254093,
    "longitude": 71.5741785,
    "id": 5676742042
  },
  {
    "name": "ہریانہ پایان",
    "category": "place",
    "subcategory": "village",
    "latitude": 34.0847393,
    "longitude": 71.5708812,
    "id": 6129228826
  },
  {
    "name": "Sanan’s House",
    "category": "tourism",
    "subcategory": "apartment",
    "latitude": 34.0214268,
    "longitude": 71.557341,
    "id": 6172762085
  },
  {
    "name": "Golf Club (Home)",
    "category": "tourism",
    "subcategory": "guest_house",
    "latitude": 34.0197471,
    "longitude": 71.5564629,
    "id": 6174729789
  },
  {
    "name": "Habibi Restaurant",
    "category": "amenity",
    "subcategory": "restaurant",
    "latitude": 34.0179657,
    "longitude": 71.5449112,
    "id": 6206468188
  },
  {
    "name": "Sardar Colony",
    "category": "highway",
    "subcategory": "bus_stop",
    "latitude": 34.0371143,
    "longitude": 71.5776231,
    "id": 6406104885
  },
  {
    "name": "Pakistan Plaza",
    "category": "amenity",
    "subcategory": "doctors",
    "latitude": 34.0357803,
    "longitude": 71.5798332,
    "id": 6406302189
  },
  {
    "name": "Sardar Colony .  سردار کالونی",
    "category": "shop",
    "subcategory": "cosmetics",
    "latitude": 34.0364668,
    "longitude": 71.5803352,
    "id": 6406327485
  },
  {
    "name": "Asim CNG",
    "category": "amenity",
    "subcategory": "fuel",
    "latitude": 34.0370682,
    "longitude": 71.5787964,
    "id": 6406327585
  },
  {
    "name": "Azeem CNG",
    "category": "amenity",
    "subcategory": "fuel",
    "latitude": 34.0341932,
    "longitude": 71.5783873,
    "id": 6406327586
  },
  {
    "name": "Ufone franchise",
    "category": "office",
    "subcategory": "telecommunication",
    "latitude": 34.0319471,
    "longitude": 71.5780276,
    "id": 6408411485
  },
  {
    "name": "Jazz",
    "category": "shop",
    "subcategory": "mobile_phone",
    "latitude": 34.0316693,
    "longitude": 71.5775265,
    "id": 6408440285
  },
  {
    "name": "CNG Pump",
    "category": "amenity",
    "subcategory": "fuel",
    "latitude": 34.0226125,
    "longitude": 71.5643769,
    "id": 7271406385
  },
  {
    "name": "Sabrina Marquee, Shami Road, Peshawar",
    "category": "tourism",
    "subcategory": "viewpoint",
    "latitude": 34.0216199,
    "longitude": 71.5590909,
    "id": 7271406386
  },
  {
    "name": "خراسان مہاجر کیمپ",
    "category": "place",
    "subcategory": "village",
    "latitude": 34.0841857,
    "longitude": 71.5528055,
    "id": 7406263477
  },
  {
    "name": "Jamia Masjid Hanafia",
    "category": "amenity",
    "subcategory": "place_of_worship",
    "latitude": 34.0317284,
    "longitude": 71.5655718,
    "id": 7426815537
  },
  {
    "name": "Shama Cinema",
    "category": "amenity",
    "subcategory": "cinema",
    "latitude": 34.0186037,
    "longitude": 71.5702136,
    "id": 7821509390
  },
  {
    "name": "رشیدیہ",
    "category": "amenity",
    "subcategory": "place_of_worship",
    "latitude": 34.0241824,
    "longitude": 71.5797903,
    "id": 7821509392
  },
  {
    "name": "سعید آباد",
    "category": "place",
    "subcategory": "suburb",
    "latitude": 34.0226477,
    "longitude": 71.567771,
    "id": 7825179037
  },
  {
    "name": "Tableeghi Markaz",
    "category": "amenity",
    "subcategory": "place_of_worship",
    "latitude": 34.023036,
    "longitude": 71.5616021,
    "id": 7825179038
  },
  {
    "name": "ملک آباد",
    "category": "place",
    "subcategory": "neighbourhood",
    "latitude": 34.0253464,
    "longitude": 71.5637504,
    "id": 7825179039
  },
  {
    "name": "ابراہیم ٹاؤن",
    "category": "place",
    "subcategory": "neighbourhood",
    "latitude": 34.0261688,
    "longitude": 71.5659137,
    "id": 7825179040
  },
  {
    "name": "رشید آباد",
    "category": "place",
    "subcategory": "neighbourhood",
    "latitude": 34.0251131,
    "longitude": 71.5721236,
    "id": 7825179041
  },
  {
    "name": "کشور آباد",
    "category": "place",
    "subcategory": "suburb",
    "latitude": 34.0306088,
    "longitude": 71.5746093,
    "id": 7825179042
  },
  {
    "name": "Zintara",
    "category": "place",
    "subcategory": "neighbourhood",
    "latitude": 34.0323295,
    "longitude": 71.5702224,
    "id": 7825179043
  },
  {
    "name": "خواجہ ٹاؤن",
    "category": "place",
    "subcategory": "suburb",
    "latitude": 34.029235,
    "longitude": 71.5628604,
    "id": 7825179044
  },
  {
    "name": "قدیر ٹاؤن",
    "category": "place",
    "subcategory": "neighbourhood",
    "latitude": 34.0285924,
    "longitude": 71.5716962,
    "id": 7825179045
  },
  {
    "name": "حسین آباد",
    "category": "place",
    "subcategory": "suburb",
    "latitude": 34.0273629,
    "longitude": 71.557339,
    "id": 7825179046
  },
  {
    "name": "بشیر آباد",
    "category": "place",
    "subcategory": "suburb",
    "latitude": 34.0270333,
    "longitude": 71.5512451,
    "id": 7825179047
  },
  {
    "name": "Khwaja Town",
    "category": "tourism",
    "subcategory": "viewpoint",
    "latitude": 34.0312847,
    "longitude": 71.5600502,
    "id": 8280575320
  },
  {
    "name": "Bacha Khan Markaz",
    "category": "amenity",
    "subcategory": "community_centre",
    "latitude": 34.0317194,
    "longitude": 71.5575034,
    "id": 8280575321
  },
  {
    "name": "Executive lodges",
    "category": "tourism",
    "subcategory": "apartment",
    "latitude": 34.0390185,
    "longitude": 71.5200634,
    "id": 8334379018
  },
  {
    "name": "govt college chowk",
    "category": "highway",
    "subcategory": "bus_stop",
    "latitude": 34.0190466,
    "longitude": 71.5799997,
    "id": 8420479112
  },
  {
    "name": "فقیر کلے",
    "category": "place",
    "subcategory": "town",
    "latitude": 34.0560779,
    "longitude": 71.5417254,
    "id": 8857985255
  },
  {
    "name": "ارباب سبز علی خان ٹاؤن",
    "category": "place",
    "subcategory": "village",
    "latitude": 34.040333,
    "longitude": 71.5260334,
    "id": 8857985256
  },
  {
    "name": "تیرئ بالا",
    "category": "place",
    "subcategory": "village",
    "latitude": 34.0534621,
    "longitude": 71.5327098,
    "id": 8857985257
  },
  {
    "name": "پجکئ",
    "category": "place",
    "subcategory": "village",
    "latitude": 34.074611,
    "longitude": 71.529781,
    "id": 8857985258
  },
  {
    "name": "چارپریزہ",
    "category": "place",
    "subcategory": "village",
    "latitude": 34.0898964,
    "longitude": 71.528789,
    "id": 8857985259
  },
  {
    "name": "گڑھی امیر خان",
    "category": "place",
    "subcategory": "village",
    "latitude": 34.0682807,
    "longitude": 71.5046126,
    "id": 8857985260
  },
  {
    "name": "قادر آباد",
    "category": "place",
    "subcategory": "village",
    "latitude": 34.0921527,
    "longitude": 71.5733526,
    "id": 8909237996
  },
  {
    "name": "چولی بالا",
    "category": "place",
    "subcategory": "village",
    "latitude": 34.0802636,
    "longitude": 71.5182538,
    "id": 8909319058
  },
  {
    "name": "چولی پایان",
    "category": "place",
    "subcategory": "village",
    "latitude": 34.0837471,
    "longitude": 71.5296782,
    "id": 8909319059
  },
  {
    "name": "مندرہ خیل",
    "category": "place",
    "subcategory": "village",
    "latitude": 34.0641313,
    "longitude": 71.5494021,
    "id": 8909319062
  },
  {
    "name": "مقصود آباد",
    "category": "place",
    "subcategory": "village",
    "latitude": 34.0503564,
    "longitude": 71.5647077,
    "id": 8909329010
  },
  {
    "name": "تیرئ پایان",
    "category": "place",
    "subcategory": "village",
    "latitude": 34.0470265,
    "longitude": 71.5364924,
    "id": 8909329011
  },
  {
    "name": "شیر علی ٹاؤن",
    "category": "place",
    "subcategory": "suburb",
    "latitude": 34.0244427,
    "longitude": 71.5356597,
    "id": 8909364261
  },
  {
    "name": "شیخ کلے",
    "category": "place",
    "subcategory": "village",
    "latitude": 34.0960733,
    "longitude": 71.5031634,
    "id": 8917435166
  },
  {
    "name": "Sabzi Mandi",
    "category": "amenity",
    "subcategory": "marketplace",
    "latitude": 34.017037,
    "longitude": 71.5747785,
    "id": 8941278047
  },
  {
    "name": "سیوان",
    "category": "place",
    "subcategory": "village",
    "latitude": 34.0861944,
    "longitude": 71.5798099,
    "id": 9417558933
  },
  {
    "name": "خدرہ خیل",
    "category": "place",
    "subcategory": "village",
    "latitude": 34.0632027,
    "longitude": 71.5784637,
    "id": 9417558939
  },
  {
    "name": "مسلم آباد",
    "category": "place",
    "subcategory": "village",
    "latitude": 34.0688817,
    "longitude": 71.5768237,
    "id": 9417558940
  },
  {
    "name": "پیر بالا",
    "category": "place",
    "subcategory": "village",
    "latitude": 34.070694,
    "longitude": 71.5080716,
    "id": 9417566841
  },
  {
    "name": "Charsadda adda",
    "category": "amenity",
    "subcategory": "bus_station",
    "latitude": 34.029835,
    "longitude": 71.5775955,
    "id": 9491625911
  },
  {
    "name": "Peshawar car stand",
    "category": "amenity",
    "subcategory": "taxi",
    "latitude": 34.0162846,
    "longitude": 71.5982893,
    "id": 9494408048
  },
  {
    "name": "Oxygen Fitness Club",
    "category": "leisure",
    "subcategory": "fitness_centre",
    "latitude": 34.0229534,
    "longitude": 71.537364,
    "id": 9535295164
  },
  {
    "name": "govt college chowk",
    "category": "highway",
    "subcategory": "bus_stop",
    "latitude": 34.0191712,
    "longitude": 71.5781905,
    "id": 9550106596
  },
  {
    "name": "dalazak road",
    "category": "highway",
    "subcategory": "bus_stop",
    "latitude": 34.017928,
    "longitude": 71.5814374,
    "id": 9550111943
  },
  {
    "name": "charsadda road",
    "category": "highway",
    "subcategory": "bus_stop",
    "latitude": 34.0293734,
    "longitude": 71.5759743,
    "id": 9554573137
  },
  {
    "name": "chargano chowk adda",
    "category": "highway",
    "subcategory": "bus_stop",
    "latitude": 34.020352,
    "longitude": 71.5720608,
    "id": 9554573988
  },
  {
    "name": "jameel chowk",
    "category": "highway",
    "subcategory": "bus_stop",
    "latitude": 33.9965251,
    "longitude": 71.608013,
    "id": 9554624481
  },
  {
    "name": "Government Press",
    "category": "office",
    "subcategory": "government",
    "latitude": 34.0192999,
    "longitude": 71.5674432,
    "id": 9583407982
  },
  {
    "name": "Park View Mall and Apartments Peshawar",
    "category": "shop",
    "subcategory": "mall",
    "latitude": 34.0223083,
    "longitude": 71.5398178,
    "id": 9703607612
  },
  {
    "name": "Maskeen Store",
    "category": "shop",
    "subcategory": "convenience",
    "latitude": 34.0690498,
    "longitude": 71.5585565,
    "id": 9912988218
  },
  {
    "name": "Girl's Community School",
    "category": "amenity",
    "subcategory": "school",
    "latitude": 34.0688991,
    "longitude": 71.5587004,
    "id": 9967345317
  },
  {
    "name": "IIUI SCHOOLS WARSAK ROAD PESHAWAR",
    "category": "amenity",
    "subcategory": "school",
    "latitude": 34.030147,
    "longitude": 71.5329728,
    "id": 10742936802
  },
  {
    "name": "Peshawar Model Girls High School, Irshadabad",
    "category": "amenity",
    "subcategory": "school",
    "latitude": 34.0426598,
    "longitude": 71.5261841,
    "id": 12254135420
  },
  {
    "name": "Marbella Cave Wedding Hall",
    "category": "amenity",
    "subcategory": "events_venue",
    "latitude": 34.0234871,
    "longitude": 71.5414047,
    "id": 12257179195
  },
  {
    "name": "Peshawar Golf Club",
    "category": "leisure",
    "subcategory": "golf_course",
    "latitude": 34.01784048727273,
    "longitude": 71.56254226909091,
    "id": 7925249
  },
  {
    "name": "پشاور رنگ روڈ",
    "category": "highway",
    "subcategory": "trunk",
    "latitude": 34.030462560000004,
    "longitude": 71.55238025999999,
    "id": 27991389
  },
  {
    "name": "ورسک روڈ",
    "category": "highway",
    "subcategory": "primary",
    "latitude": 34.064788,
    "longitude": 71.50749545,
    "id": 28018736
  },
  {
    "name": "ورسک روڈ",
    "category": "highway",
    "subcategory": "primary",
    "latitude": 34.08071424285714,
    "longitude": 71.49429173928571,
    "id": 28018738
  },
  {
    "name": "New Shami Road",
    "category": "highway",
    "subcategory": "tertiary",
    "latitude": 34.0214311,
    "longitude": 71.55111260999999,
    "id": 54633511
  },
  {
    "name": "Shami Road",
    "category": "highway",
    "subcategory": "tertiary",
    "latitude": 34.020776190163936,
    "longitude": 71.55915781639344,
    "id": 54633512
  },
  {
    "name": "پجگی روڈ",
    "category": "highway",
    "subcategory": "secondary",
    "latitude": 34.07206922972973,
    "longitude": 71.53569473378379,
    "id": 54633514
  },
  {
    "name": "ابراہیم ٹاؤن روڈ",
    "category": "highway",
    "subcategory": "unclassified",
    "latitude": 34.0254562875,
    "longitude": 71.56721310416667,
    "id": 54633515
  },
  {
    "name": "Malik Saad Shaheed Road",
    "category": "highway",
    "subcategory": "tertiary",
    "latitude": 34.0153074625,
    "longitude": 71.5725223625,
    "id": 59804257
  },
  {
    "name": "Malik Mahasal Khan Road Shagi Hind Kian",
    "category": "highway",
    "subcategory": "residential",
    "latitude": 34.0264624,
    "longitude": 71.54904805000001,
    "id": 70979388
  },
  {
    "name": "Malik Mahasal Khan Road",
    "category": "highway",
    "subcategory": "residential",
    "latitude": 34.03144639736842,
    "longitude": 71.54227605526316,
    "id": 70979390
  },
  {
    "name": "unclassified",
    "category": "highway",
    "subcategory": "unclassified",
    "latitude": 34.031358778260866,
    "longitude": 71.54693854347826,
    "id": 70979394
  },
  {
    "name": "unclassified",
    "category": "highway",
    "subcategory": "unclassified",
    "latitude": 34.043171128,
    "longitude": 71.541227312,
    "id": 70979397
  },
  {
    "name": "tertiary",
    "category": "highway",
    "subcategory": "tertiary",
    "latitude": 34.04956857142857,
    "longitude": 71.52629092857143,
    "id": 70979611
  },
  {
    "name": "tertiary",
    "category": "highway",
    "subcategory": "tertiary",
    "latitude": 34.0517066,
    "longitude": 71.528211,
    "id": 70979612
  },
  {
    "name": "حضرت جان روڈ",
    "category": "highway",
    "subcategory": "secondary",
    "latitude": 34.05515443773585,
    "longitude": 71.55348594905661,
    "id": 70979613
  },
  {
    "name": "پجگی روڈ",
    "category": "highway",
    "subcategory": "residential",
    "latitude": 34.03090736,
    "longitude": 71.55750084,
    "id": 70979618
  },
  {
    "name": "پجگی روڈ",
    "category": "highway",
    "subcategory": "residential",
    "latitude": 34.0315667,
    "longitude": 71.55701210000001,
    "id": 70979619
  },
  {
    "name": "unclassified",
    "category": "highway",
    "subcategory": "unclassified",
    "latitude": 34.04734616666667,
    "longitude": 71.52300946666666,
    "id": 70979621
  },
  {
    "name": "unclassified",
    "category": "highway",
    "subcategory": "unclassified",
    "latitude": 34.0472338,
    "longitude": 71.52446965,
    "id": 70979623
  },
  {
    "name": "residential",
    "category": "landuse",
    "subcategory": "residential",
    "latitude": 34.035518531818184,
    "longitude": 71.58444577727272,
    "id": 70984088
  },
  {
    "name": "اسٹیڈیم روڈ",
    "category": "highway",
    "subcategory": "secondary",
    "latitude": 34.01769076666667,
    "longitude": 71.580044625,
    "id": 70984090
  },
  {
    "name": "residential",
    "category": "landuse",
    "subcategory": "residential",
    "latitude": 34.038292866666666,
    "longitude": 71.58293581111111,
    "id": 70984408
  },
  {
    "name": "residential",
    "category": "landuse",
    "subcategory": "residential",
    "latitude": 34.0371656,
    "longitude": 71.5804594,
    "id": 70984409
  },
  {
    "name": "residential",
    "category": "highway",
    "subcategory": "residential",
    "latitude": 34.02540512727273,
    "longitude": 71.54870555454545,
    "id": 71076820
  },
  {
    "name": "tertiary",
    "category": "highway",
    "subcategory": "tertiary",
    "latitude": 34.02238442,
    "longitude": 71.5595216,
    "id": 71076821
  },
  {
    "name": "tertiary",
    "category": "highway",
    "subcategory": "tertiary",
    "latitude": 34.02277735,
    "longitude": 71.559648,
    "id": 71076822
  },
  {
    "name": "افغان کالونی روڈ",
    "category": "highway",
    "subcategory": "secondary",
    "latitude": 34.0232257862069,
    "longitude": 71.55467352068965,
    "id": 71076823
  },
  {
    "name": "residential",
    "category": "highway",
    "subcategory": "residential",
    "latitude": 34.02576035,
    "longitude": 71.55162005,
    "id": 71076825
  },
  {
    "name": "ورسک روڈ",
    "category": "highway",
    "subcategory": "primary",
    "latitude": 34.02567822727272,
    "longitude": 71.53536068181819,
    "id": 71076826
  },
  {
    "name": "ورسک روڈ",
    "category": "highway",
    "subcategory": "primary",
    "latitude": 34.02203385,
    "longitude": 71.5374483,
    "id": 71076827
  },
  {
    "name": "secondary",
    "category": "highway",
    "subcategory": "secondary",
    "latitude": 34.02326570192308,
    "longitude": 71.54184276538462,
    "id": 71076828
  },
  {
    "name": "residential",
    "category": "highway",
    "subcategory": "residential",
    "latitude": 34.0232963,
    "longitude": 71.54848390000001,
    "id": 71076829
  },
  {
    "name": "اسٹریٹ 14",
    "category": "highway",
    "subcategory": "residential",
    "latitude": 34.02069490769231,
    "longitude": 71.54857796153846,
    "id": 71076890
  },
  {
    "name": "residential",
    "category": "highway",
    "subcategory": "residential",
    "latitude": 34.02278517142857,
    "longitude": 71.55365773571428,
    "id": 71076891
  },
  {
    "name": "residential",
    "category": "highway",
    "subcategory": "residential",
    "latitude": 34.02327375,
    "longitude": 71.55338165,
    "id": 71076892
  },
  {
    "name": "residential",
    "category": "highway",
    "subcategory": "residential",
    "latitude": 34.024324122222225,
    "longitude": 71.55258887222222,
    "id": 71076893
  },
  {
    "name": "شاہی باغ روڈ",
    "category": "highway",
    "subcategory": "tertiary",
    "latitude": 34.02236645,
    "longitude": 71.57573037,
    "id": 71615664
  },
  {
    "name": "فقیر آباد روڈ",
    "category": "highway",
    "subcategory": "tertiary",
    "latitude": 34.021150992,
    "longitude": 71.583485752,
    "id": 71619768
  },
  {
    "name": "residential",
    "category": "landuse",
    "subcategory": "residential",
    "latitude": 34.08427419545455,
    "longitude": 71.5718277909091,
    "id": 73537194
  },
  {
    "name": "residential",
    "category": "landuse",
    "subcategory": "residential",
    "latitude": 34.08743251538461,
    "longitude": 71.56530873076923,
    "id": 73537195
  },
  {
    "name": "residential",
    "category": "highway",
    "subcategory": "residential",
    "latitude": 34.08229806666667,
    "longitude": 71.56481458333333,
    "id": 73537196
  },
  {
    "name": "residential",
    "category": "highway",
    "subcategory": "residential",
    "latitude": 34.08547385,
    "longitude": 71.56801606249999,
    "id": 73537198
  },
  {
    "name": "unclassified",
    "category": "highway",
    "subcategory": "unclassified",
    "latitude": 34.08096847142857,
    "longitude": 71.5761371,
    "id": 73537205
  },
  {
    "name": "unclassified",
    "category": "highway",
    "subcategory": "unclassified",
    "latitude": 34.08144393333333,
    "longitude": 71.57619253333333,
    "id": 73537206
  },
  {
    "name": "residential",
    "category": "landuse",
    "subcategory": "residential",
    "latitude": 34.0776106125,
    "longitude": 71.5784724,
    "id": 73537207
  },
  {
    "name": "residential",
    "category": "landuse",
    "subcategory": "residential",
    "latitude": 34.09610087142857,
    "longitude": 71.50325024285715,
    "id": 73537246
  },
  {
    "name": "residential",
    "category": "landuse",
    "subcategory": "residential",
    "latitude": 34.093148642857145,
    "longitude": 71.51215362857143,
    "id": 73537247
  },
  {
    "name": "residential",
    "category": "landuse",
    "subcategory": "residential",
    "latitude": 34.09300059375,
    "longitude": 71.53090745,
    "id": 73537248
  },
  {
    "name": "residential",
    "category": "highway",
    "subcategory": "residential",
    "latitude": 34.084674840000005,
    "longitude": 71.55896844,
    "id": 73537256
  },
  {
    "name": "unclassified",
    "category": "highway",
    "subcategory": "unclassified",
    "latitude": 34.08832899090909,
    "longitude": 71.55718848181817,
    "id": 73537258
  },
  {
    "name": "residential",
    "category": "highway",
    "subcategory": "residential",
    "latitude": 34.0830698,
    "longitude": 71.54853543333333,
    "id": 73537261
  },
  {
    "name": "residential",
    "category": "highway",
    "subcategory": "residential",
    "latitude": 34.0833044,
    "longitude": 71.55183395,
    "id": 73537262
  },
  {
    "name": "residential",
    "category": "highway",
    "subcategory": "residential",
    "latitude": 34.08234025,
    "longitude": 71.5515874,
    "id": 73537263
  },
  {
    "name": "unclassified",
    "category": "highway",
    "subcategory": "unclassified",
    "latitude": 34.09453754166667,
    "longitude": 71.55782261527777,
    "id": 73537265
  },
  {
    "name": "residential",
    "category": "highway",
    "subcategory": "residential",
    "latitude": 34.08446515,
    "longitude": 71.55493335,
    "id": 73537267
  },
  {
    "name": "residential",
    "category": "highway",
    "subcategory": "residential",
    "latitude": 34.082814283333335,
    "longitude": 71.55351655,
    "id": 73537268
  },
  {
    "name": "residential",
    "category": "highway",
    "subcategory": "residential",
    "latitude": 34.08293425,
    "longitude": 71.55361825,
    "id": 73537269
  },
  {
    "name": "residential",
    "category": "highway",
    "subcategory": "residential",
    "latitude": 34.0838472,
    "longitude": 71.5488851,
    "id": 73537270
  },
  {
    "name": "residential",
    "category": "highway",
    "subcategory": "residential",
    "latitude": 34.0844668,
    "longitude": 71.54651353333334,
    "id": 73537271
  },
  {
    "name": "residential",
    "category": "highway",
    "subcategory": "residential",
    "latitude": 34.08440868,
    "longitude": 71.55631642,
    "id": 73537272
  },
  {
    "name": "residential",
    "category": "highway",
    "subcategory": "residential",
    "latitude": 34.083916450000004,
    "longitude": 71.55647025,
    "id": 73537273
  },
  {
    "name": "residential",
    "category": "highway",
    "subcategory": "residential",
    "latitude": 34.0850423,
    "longitude": 71.55440768,
    "id": 73537274
  },
  {
    "name": "residential",
    "category": "highway",
    "subcategory": "residential",
    "latitude": 34.084683975000004,
    "longitude": 71.55446409999999,
    "id": 73537275
  },
  {
    "name": "residential",
    "category": "highway",
    "subcategory": "residential",
    "latitude": 34.0830798,
    "longitude": 71.55255715,
    "id": 73537276
  },
  {
    "name": "residential",
    "category": "highway",
    "subcategory": "residential",
    "latitude": 34.082915,
    "longitude": 71.54997979999999,
    "id": 73537277
  },
  {
    "name": "residential",
    "category": "highway",
    "subcategory": "residential",
    "latitude": 34.0834563,
    "longitude": 71.5490182,
    "id": 73537278
  },
  {
    "name": "residential",
    "category": "highway",
    "subcategory": "residential",
    "latitude": 34.084240449999996,
    "longitude": 71.54795089999999,
    "id": 73537279
  },
  {
    "name": "residential",
    "category": "highway",
    "subcategory": "residential",
    "latitude": 34.0843739,
    "longitude": 71.5475311,
    "id": 73537280
  },
  {
    "name": "residential",
    "category": "highway",
    "subcategory": "residential",
    "latitude": 34.082798749999995,
    "longitude": 71.54884684999999,
    "id": 73537281
  },
  {
    "name": "residential",
    "category": "highway",
    "subcategory": "residential",
    "latitude": 34.08335673333334,
    "longitude": 71.55088753333332,
    "id": 73537282
  },
  {
    "name": "residential",
    "category": "highway",
    "subcategory": "residential",
    "latitude": 34.0811761,
    "longitude": 71.55395404999999,
    "id": 73537283
  },
  {
    "name": "residential",
    "category": "highway",
    "subcategory": "residential",
    "latitude": 34.082816975,
    "longitude": 71.55210725,
    "id": 73537284
  },
  {
    "name": "residential",
    "category": "highway",
    "subcategory": "residential",
    "latitude": 34.08302505,
    "longitude": 71.5528947,
    "id": 73537285
  },
  {
    "name": "residential",
    "category": "highway",
    "subcategory": "residential",
    "latitude": 34.083145200000004,
    "longitude": 71.54970258,
    "id": 73537286
  },
  {
    "name": "residential",
    "category": "highway",
    "subcategory": "residential",
    "latitude": 34.083008425,
    "longitude": 71.5513609,
    "id": 73537287
  },
  {
    "name": "residential",
    "category": "highway",
    "subcategory": "residential",
    "latitude": 34.08350147142857,
    "longitude": 71.54826087142857,
    "id": 73537288
  },
  {
    "name": "residential",
    "category": "highway",
    "subcategory": "residential",
    "latitude": 34.083078650000004,
    "longitude": 71.547511,
    "id": 73537289
  },
  {
    "name": "residential",
    "category": "highway",
    "subcategory": "residential",
    "latitude": 34.08387726666667,
    "longitude": 71.54746433333334,
    "id": 73537290
  },
  {
    "name": "خزانہ شوگر مل روڈ",
    "category": "highway",
    "subcategory": "secondary",
    "latitude": 34.08428550638298,
    "longitude": 71.54988802127659,
    "id": 73537299
  },
  {
    "name": "خراسان مہاجر کیمپ",
    "category": "amenity",
    "subcategory": "refugee_site",
    "latitude": 34.08429105882353,
    "longitude": 71.55162223529412,
    "id": 73537300
  },
  {
    "name": "residential",
    "category": "landuse",
    "subcategory": "residential",
    "latitude": 34.06896829375,
    "longitude": 71.506786284375,
    "id": 73537539
  },
  {
    "name": "residential",
    "category": "landuse",
    "subcategory": "residential",
    "latitude": 34.06692194615385,
    "longitude": 71.50874886923077,
    "id": 73537540
  },
  {
    "name": "residential",
    "category": "landuse",
    "subcategory": "residential",
    "latitude": 34.07303906,
    "longitude": 71.54046337,
    "id": 73537543
  },
  {
    "name": "residential",
    "category": "landuse",
    "subcategory": "residential",
    "latitude": 34.07445538571429,
    "longitude": 71.53787831428572,
    "id": 73537544
  },
  {
    "name": "residential",
    "category": "landuse",
    "subcategory": "residential",
    "latitude": 34.077051133333335,
    "longitude": 71.53554815,
    "id": 73537545
  },
  {
    "name": "residential",
    "category": "landuse",
    "subcategory": "residential",
    "latitude": 34.077617520000004,
    "longitude": 71.50463548,
    "id": 73537547
  },
  {
    "name": "residential",
    "category": "landuse",
    "subcategory": "residential",
    "latitude": 34.06382075,
    "longitude": 71.55015331666667,
    "id": 73537549
  },
  {
    "name": "residential",
    "category": "landuse",
    "subcategory": "residential",
    "latitude": 34.05392225,
    "longitude": 71.5339578611111,
    "id": 73537550
  },
  {
    "name": "residential",
    "category": "landuse",
    "subcategory": "residential",
    "latitude": 34.06744212857143,
    "longitude": 71.52286714285715,
    "id": 73537551
  },
  {
    "name": "residential",
    "category": "landuse",
    "subcategory": "residential",
    "latitude": 34.091628031999996,
    "longitude": 71.572589128,
    "id": 74037507
  },
  {
    "name": "residential",
    "category": "landuse",
    "subcategory": "residential",
    "latitude": 34.09458235555556,
    "longitude": 71.57036443333332,
    "id": 74037508
  },
  {
    "name": "residential",
    "category": "landuse",
    "subcategory": "residential",
    "latitude": 34.09644533,
    "longitude": 71.55757519,
    "id": 74037509
  },
  {
    "name": "residential",
    "category": "landuse",
    "subcategory": "residential",
    "latitude": 34.06214485,
    "longitude": 71.5218057125,
    "id": 74171551
  },
  {
    "name": "water",
    "category": "natural",
    "subcategory": "water",
    "latitude": 34.04484879,
    "longitude": 71.52996701,
    "id": 74171566
  },
  {
    "name": "water",
    "category": "natural",
    "subcategory": "water",
    "latitude": 34.04457876,
    "longitude": 71.53253348000001,
    "id": 74171569
  },
  {
    "name": "residential",
    "category": "landuse",
    "subcategory": "residential",
    "latitude": 34.04669580666667,
    "longitude": 71.53661275333334,
    "id": 74187291
  },
  {
    "name": "residential",
    "category": "landuse",
    "subcategory": "residential",
    "latitude": 34.08566591,
    "longitude": 71.58072614,
    "id": 74187304
  },
  {
    "name": "residential",
    "category": "landuse",
    "subcategory": "residential",
    "latitude": 34.06919423,
    "longitude": 71.53877141000001,
    "id": 74276429
  },
  {
    "name": "residential",
    "category": "landuse",
    "subcategory": "residential",
    "latitude": 34.06546825,
    "longitude": 71.54275036666667,
    "id": 74276430
  },
  {
    "name": "residential",
    "category": "landuse",
    "subcategory": "residential",
    "latitude": 34.065038200000004,
    "longitude": 71.54132018888889,
    "id": 74276431
  },
  {
    "name": "residential",
    "category": "highway",
    "subcategory": "residential",
    "latitude": 34.06177954583333,
    "longitude": 71.54489500833334,
    "id": 74276432
  },
  {
    "name": "unclassified",
    "category": "highway",
    "subcategory": "unclassified",
    "latitude": 34.068829457142854,
    "longitude": 71.5424056607143,
    "id": 74276433
  },
  {
    "name": "residential",
    "category": "highway",
    "subcategory": "residential",
    "latitude": 34.09235692631579,
    "longitude": 71.53091052631578,
    "id": 74276434
  },
  {
    "name": "residential",
    "category": "highway",
    "subcategory": "residential",
    "latitude": 34.0701515954023,
    "longitude": 71.52760606321839,
    "id": 74276435
  },
  {
    "name": "residential",
    "category": "landuse",
    "subcategory": "residential",
    "latitude": 34.07481098214286,
    "longitude": 71.52923249642858,
    "id": 74276436
  },
  {
    "name": "residential",
    "category": "landuse",
    "subcategory": "residential",
    "latitude": 34.068498346666665,
    "longitude": 71.5344516,
    "id": 74276437
  },
  {
    "name": "residential",
    "category": "landuse",
    "subcategory": "residential",
    "latitude": 34.070244515384616,
    "longitude": 71.54039812307693,
    "id": 74276438
  },
  {
    "name": "پجگی روڈ",
    "category": "highway",
    "subcategory": "secondary",
    "latitude": 34.116276955357144,
    "longitude": 71.51396203214286,
    "id": 74276439
  },
  {
    "name": "residential",
    "category": "highway",
    "subcategory": "residential",
    "latitude": 34.06010266,
    "longitude": 71.525331665,
    "id": 74395508
  },
  {
    "name": "unclassified",
    "category": "highway",
    "subcategory": "unclassified",
    "latitude": 34.05171655,
    "longitude": 71.53391859166668,
    "id": 74395511
  },
  {
    "name": "residential",
    "category": "highway",
    "subcategory": "residential",
    "latitude": 34.03961396571429,
    "longitude": 71.49174135714286,
    "id": 74395519
  },
  {
    "name": "footway",
    "category": "highway",
    "subcategory": "footway",
    "latitude": 34.019768199999994,
    "longitude": 71.574923,
    "id": 75097244
  },
  {
    "name": "service",
    "category": "highway",
    "subcategory": "service",
    "latitude": 34.019539725,
    "longitude": 71.576957,
    "id": 75097439
  },
  {
    "name": "service",
    "category": "highway",
    "subcategory": "service",
    "latitude": 34.02165675128205,
    "longitude": 71.57824024871795,
    "id": 75097441
  },
  {
    "name": "service",
    "category": "highway",
    "subcategory": "service",
    "latitude": 34.020737133333334,
    "longitude": 71.57698853333333,
    "id": 75097442
  },
  {
    "name": "footway",
    "category": "highway",
    "subcategory": "footway",
    "latitude": 34.01827422,
    "longitude": 71.57420252,
    "id": 75097773
  },
  {
    "name": "footway",
    "category": "highway",
    "subcategory": "footway",
    "latitude": 34.0189015,
    "longitude": 71.57286716,
    "id": 75097774
  },
  {
    "name": "footway",
    "category": "highway",
    "subcategory": "footway",
    "latitude": 34.0191564,
    "longitude": 71.573808375,
    "id": 75097776
  },
  {
    "name": "Tamas Khan Football Pitch",
    "category": "leisure",
    "subcategory": "stadium",
    "latitude": 34.0192118,
    "longitude": 71.57625857999999,
    "id": 75097777
  },
  {
    "name": "footway",
    "category": "highway",
    "subcategory": "footway",
    "latitude": 34.02045996875,
    "longitude": 71.57501504375,
    "id": 75097782
  },
  {
    "name": "residential",
    "category": "highway",
    "subcategory": "residential",
    "latitude": 34.030044354054056,
    "longitude": 71.58175374054053,
    "id": 75100304
  },
  {
    "name": "tertiary",
    "category": "highway",
    "subcategory": "tertiary",
    "latitude": 34.02890078,
    "longitude": 71.58355801111111,
    "id": 75100311
  },
  {
    "name": "tertiary",
    "category": "highway",
    "subcategory": "tertiary",
    "latitude": 34.026777017647056,
    "longitude": 71.5792631117647,
    "id": 75100315
  },
  {
    "name": "افغان کالونی روڈ",
    "category": "highway",
    "subcategory": "secondary",
    "latitude": 34.02486783333333,
    "longitude": 71.58539856222222,
    "id": 75100735
  },
  {
    "name": "residential",
    "category": "highway",
    "subcategory": "residential",
    "latitude": 34.02638988333333,
    "longitude": 71.58174441666667,
    "id": 75104115
  },
  {
    "name": "residential",
    "category": "highway",
    "subcategory": "residential",
    "latitude": 34.02827125555555,
    "longitude": 71.58187707222221,
    "id": 75104263
  },
  {
    "name": "unclassified",
    "category": "highway",
    "subcategory": "unclassified",
    "latitude": 34.09892365294118,
    "longitude": 71.53416367647058,
    "id": 75192920
  },
  {
    "name": "unclassified",
    "category": "highway",
    "subcategory": "unclassified",
    "latitude": 34.09619613333333,
    "longitude": 71.524826325,
    "id": 75192928
  },
  {
    "name": "unclassified",
    "category": "highway",
    "subcategory": "unclassified",
    "latitude": 34.099415085714284,
    "longitude": 71.52884508571428,
    "id": 75192939
  },
  {
    "name": "unclassified",
    "category": "highway",
    "subcategory": "unclassified",
    "latitude": 34.09410896428572,
    "longitude": 71.54736441904763,
    "id": 75192969
  },
  {
    "name": "unclassified",
    "category": "highway",
    "subcategory": "unclassified",
    "latitude": 34.094162245945945,
    "longitude": 71.54120778648648,
    "id": 75193014
  },
  {
    "name": "unclassified",
    "category": "highway",
    "subcategory": "unclassified",
    "latitude": 34.09399838,
    "longitude": 71.55610903333333,
    "id": 75194939
  },
  {
    "name": "unclassified",
    "category": "highway",
    "subcategory": "unclassified",
    "latitude": 34.100604627906975,
    "longitude": 71.54457565581396,
    "id": 75194952
  },
  {
    "name": "residential",
    "category": "highway",
    "subcategory": "residential",
    "latitude": 34.03094052,
    "longitude": 71.58122999,
    "id": 75201686
  },
  {
    "name": "residential",
    "category": "highway",
    "subcategory": "residential",
    "latitude": 34.029031228571434,
    "longitude": 71.57990051428571,
    "id": 75201699
  },
  {
    "name": "unclassified",
    "category": "highway",
    "subcategory": "unclassified",
    "latitude": 34.030286005,
    "longitude": 71.57526064999999,
    "id": 75203003
  },
  {
    "name": "residential",
    "category": "highway",
    "subcategory": "residential",
    "latitude": 34.02956833333334,
    "longitude": 71.57422824999999,
    "id": 75203008
  },
  {
    "name": "residential",
    "category": "highway",
    "subcategory": "residential",
    "latitude": 34.0299448,
    "longitude": 71.58083541111111,
    "id": 75206138
  },
  {
    "name": "residential",
    "category": "highway",
    "subcategory": "residential",
    "latitude": 34.02945106,
    "longitude": 71.58045892,
    "id": 75206139
  },
  {
    "name": "residential",
    "category": "highway",
    "subcategory": "residential",
    "latitude": 34.029156150000006,
    "longitude": 71.5817972,
    "id": 75206165
  },
  {
    "name": "residential",
    "category": "highway",
    "subcategory": "residential",
    "latitude": 34.029434699999996,
    "longitude": 71.58194795,
    "id": 75206166
  },
  {
    "name": "residential",
    "category": "highway",
    "subcategory": "residential",
    "latitude": 34.028195842857144,
    "longitude": 71.58058584285713,
    "id": 75206169
  },
  {
    "name": "residential",
    "category": "highway",
    "subcategory": "residential",
    "latitude": 34.02848125,
    "longitude": 71.58144705,
    "id": 75206170
  },
  {
    "name": "residential",
    "category": "highway",
    "subcategory": "residential",
    "latitude": 34.028717650000004,
    "longitude": 71.58161014999999,
    "id": 75206171
  },
  {
    "name": "residential",
    "category": "highway",
    "subcategory": "residential",
    "latitude": 34.03020646666667,
    "longitude": 71.58128733333332,
    "id": 75206257
  },
  {
    "name": "residential",
    "category": "highway",
    "subcategory": "residential",
    "latitude": 34.03099305,
    "longitude": 71.58201199999999,
    "id": 75206258
  },
  {
    "name": "residential",
    "category": "highway",
    "subcategory": "residential",
    "latitude": 34.0300239,
    "longitude": 71.5815837,
    "id": 75206267
  },
  {
    "name": "residential",
    "category": "highway",
    "subcategory": "residential",
    "latitude": 34.0303742,
    "longitude": 71.58186605,
    "id": 75206268
  },
  {
    "name": "residential",
    "category": "highway",
    "subcategory": "residential",
    "latitude": 34.025672975,
    "longitude": 71.581469325,
    "id": 75206526
  },
  {
    "name": "شاہی باغ",
    "category": "leisure",
    "subcategory": "park",
    "latitude": 34.019134189655176,
    "longitude": 71.57364294827586,
    "id": 75206644
  },
  {
    "name": "unclassified",
    "category": "highway",
    "subcategory": "unclassified",
    "latitude": 34.0315553,
    "longitude": 71.55111975,
    "id": 75207279
  },
  {
    "name": "residential",
    "category": "highway",
    "subcategory": "residential",
    "latitude": 34.028487,
    "longitude": 71.54869740000001,
    "id": 75207283
  },
  {
    "name": "track",
    "category": "leisure",
    "subcategory": "track",
    "latitude": 34.01904072,
    "longitude": 71.54651650000001,
    "id": 75207766
  },
  {
    "name": "track",
    "category": "leisure",
    "subcategory": "track",
    "latitude": 34.01923016666667,
    "longitude": 71.5463168,
    "id": 75207769
  },
  {
    "name": "track",
    "category": "leisure",
    "subcategory": "track",
    "latitude": 34.018843866666664,
    "longitude": 71.54718716666667,
    "id": 75207770
  },
  {
    "name": "track",
    "category": "leisure",
    "subcategory": "track",
    "latitude": 34.019929000000005,
    "longitude": 71.54564845,
    "id": 75207771
  },
  {
    "name": "track",
    "category": "leisure",
    "subcategory": "track",
    "latitude": 34.020441500000004,
    "longitude": 71.5441549,
    "id": 75207772
  },
  {
    "name": "track",
    "category": "leisure",
    "subcategory": "track",
    "latitude": 34.01942061052631,
    "longitude": 71.54518382631579,
    "id": 75207778
  },
  {
    "name": "tertiary",
    "category": "highway",
    "subcategory": "tertiary",
    "latitude": 34.02750096933334,
    "longitude": 71.56872120533333,
    "id": 75207850
  },
  {
    "name": "residential",
    "category": "highway",
    "subcategory": "residential",
    "latitude": 34.0234956875,
    "longitude": 71.5802438375,
    "id": 75225065
  },
  {
    "name": "residential",
    "category": "highway",
    "subcategory": "residential",
    "latitude": 34.028215675,
    "longitude": 71.578581325,
    "id": 75225790
  },
  {
    "name": "residential",
    "category": "highway",
    "subcategory": "residential",
    "latitude": 34.02863707777778,
    "longitude": 71.57912733333333,
    "id": 75225791
  },
  {
    "name": "unclassified",
    "category": "highway",
    "subcategory": "unclassified",
    "latitude": 34.0277759,
    "longitude": 71.57702669999999,
    "id": 75225794
  },
  {
    "name": "residential",
    "category": "highway",
    "subcategory": "residential",
    "latitude": 34.025256975,
    "longitude": 71.5800131,
    "id": 75225805
  },
  {
    "name": "residential",
    "category": "highway",
    "subcategory": "residential",
    "latitude": 34.028286933333334,
    "longitude": 71.5811579,
    "id": 75225808
  },
  {
    "name": "residential",
    "category": "highway",
    "subcategory": "residential",
    "latitude": 34.02720823333333,
    "longitude": 71.5773587,
    "id": 75225809
  },
  {
    "name": "residential",
    "category": "highway",
    "subcategory": "residential",
    "latitude": 34.023814566666665,
    "longitude": 71.58243148333334,
    "id": 75225819
  },
  {
    "name": "residential",
    "category": "highway",
    "subcategory": "residential",
    "latitude": 34.019835674999996,
    "longitude": 71.582970125,
    "id": 75226584
  },
  {
    "name": "residential",
    "category": "highway",
    "subcategory": "residential",
    "latitude": 34.019334685714284,
    "longitude": 71.58278612857143,
    "id": 75226586
  },
  {
    "name": "residential",
    "category": "highway",
    "subcategory": "residential",
    "latitude": 34.019011166666665,
    "longitude": 71.58140946666667,
    "id": 75226588
  },
  {
    "name": "residential",
    "category": "highway",
    "subcategory": "residential",
    "latitude": 34.0206731,
    "longitude": 71.58160529999999,
    "id": 75226592
  },
  {
    "name": "residential",
    "category": "highway",
    "subcategory": "residential",
    "latitude": 34.0207519,
    "longitude": 71.58094362,
    "id": 75226593
  },
  {
    "name": "residential",
    "category": "highway",
    "subcategory": "residential",
    "latitude": 34.02128818571428,
    "longitude": 71.58081371428571,
    "id": 75226595
  },
  {
    "name": "residential",
    "category": "highway",
    "subcategory": "residential",
    "latitude": 34.020781975000006,
    "longitude": 71.58079509999999,
    "id": 75226596
  },
  {
    "name": "farmland",
    "category": "landuse",
    "subcategory": "farmland",
    "latitude": 34.02354804736842,
    "longitude": 71.58150605789474,
    "id": 75501507
  },
  {
    "name": "Serena Hotel Peshawar",
    "category": "tourism",
    "subcategory": "hotel",
    "latitude": 34.01601174615384,
    "longitude": 71.5640658923077,
    "id": 75502511
  },
  {
    "name": "residential",
    "category": "highway",
    "subcategory": "residential",
    "latitude": 34.02616236666666,
    "longitude": 71.57791696666668,
    "id": 75502514
  },
  {
    "name": "residential",
    "category": "highway",
    "subcategory": "residential",
    "latitude": 34.025829099999996,
    "longitude": 71.57771514999999,
    "id": 75502515
  },
  {
    "name": "wood",
    "category": "natural",
    "subcategory": "wood",
    "latitude": 34.02684277142857,
    "longitude": 71.57568552857143,
    "id": 75502516
  },
  {
    "name": "farmland",
    "category": "landuse",
    "subcategory": "farmland",
    "latitude": 34.02133897142857,
    "longitude": 71.57082963571429,
    "id": 75502518
  },
  {
    "name": "unclassified",
    "category": "highway",
    "subcategory": "unclassified",
    "latitude": 34.02331784,
    "longitude": 71.57540695333334,
    "id": 75502519
  },
  {
    "name": "unclassified",
    "category": "highway",
    "subcategory": "unclassified",
    "latitude": 34.023369800000005,
    "longitude": 71.57473306666667,
    "id": 75502520
  },
  {
    "name": "residential",
    "category": "highway",
    "subcategory": "residential",
    "latitude": 34.02507527142857,
    "longitude": 71.5764355857143,
    "id": 75502521
  },
  {
    "name": "residential",
    "category": "highway",
    "subcategory": "residential",
    "latitude": 34.026574749999995,
    "longitude": 71.5784872,
    "id": 75502522
  },
  {
    "name": "residential",
    "category": "highway",
    "subcategory": "residential",
    "latitude": 34.02655945,
    "longitude": 71.57792599999999,
    "id": 75502523
  },
  {
    "name": "residential",
    "category": "highway",
    "subcategory": "residential",
    "latitude": 34.0238524375,
    "longitude": 71.579464575,
    "id": 75502525
  },
  {
    "name": "residential",
    "category": "landuse",
    "subcategory": "residential",
    "latitude": 34.02308629411765,
    "longitude": 71.51074978431373,
    "id": 75504414
  },
  {
    "name": "unclassified",
    "category": "highway",
    "subcategory": "unclassified",
    "latitude": 34.01396703448276,
    "longitude": 71.52270282931035,
    "id": 75590150
  },
  {
    "name": "residential",
    "category": "highway",
    "subcategory": "residential",
    "latitude": 34.01402950666667,
    "longitude": 71.51768666666666,
    "id": 75590151
  },
  {
    "name": "unclassified",
    "category": "highway",
    "subcategory": "unclassified",
    "latitude": 34.0774769,
    "longitude": 71.56271652857143,
    "id": 75610001
  },
  {
    "name": "residential",
    "category": "highway",
    "subcategory": "residential",
    "latitude": 34.07894771666667,
    "longitude": 71.56640171666668,
    "id": 75610002
  },
  {
    "name": "residential",
    "category": "landuse",
    "subcategory": "residential",
    "latitude": 34.077755366666665,
    "longitude": 71.56599898333333,
    "id": 75610003
  },
  {
    "name": "unclassified",
    "category": "highway",
    "subcategory": "unclassified",
    "latitude": 34.064222862499996,
    "longitude": 71.55182782083334,
    "id": 75610004
  },
  {
    "name": "unclassified",
    "category": "highway",
    "subcategory": "unclassified",
    "latitude": 34.05947513939394,
    "longitude": 71.55563742121213,
    "id": 75610005
  },
  {
    "name": "unclassified",
    "category": "highway",
    "subcategory": "unclassified",
    "latitude": 34.07719673333333,
    "longitude": 71.53799159791667,
    "id": 75610006
  },
  {
    "name": "residential",
    "category": "highway",
    "subcategory": "residential",
    "latitude": 34.077367333333335,
    "longitude": 71.54956326666667,
    "id": 75610007
  },
  {
    "name": "residential",
    "category": "landuse",
    "subcategory": "residential",
    "latitude": 34.078355054545455,
    "longitude": 71.55296009090908,
    "id": 75610008
  },
  {
    "name": "unclassified",
    "category": "highway",
    "subcategory": "unclassified",
    "latitude": 34.073326433333335,
    "longitude": 71.55934068888888,
    "id": 75610009
  },
  {
    "name": "unclassified",
    "category": "highway",
    "subcategory": "unclassified",
    "latitude": 34.0741640375,
    "longitude": 71.5584307125,
    "id": 75610010
  },
  {
    "name": "track",
    "category": "highway",
    "subcategory": "track",
    "latitude": 34.069239225,
    "longitude": 71.564357475,
    "id": 75610011
  },
  {
    "name": "residential",
    "category": "landuse",
    "subcategory": "residential",
    "latitude": 34.0784975,
    "longitude": 71.56075951538462,
    "id": 75610012
  },
  {
    "name": "unclassified",
    "category": "highway",
    "subcategory": "unclassified",
    "latitude": 34.078561,
    "longitude": 71.5538763,
    "id": 75610013
  },
  {
    "name": "unclassified",
    "category": "highway",
    "subcategory": "unclassified",
    "latitude": 34.076122172,
    "longitude": 71.549818452,
    "id": 75610014
  },
  {
    "name": "residential",
    "category": "landuse",
    "subcategory": "residential",
    "latitude": 34.07362898,
    "longitude": 71.56715358,
    "id": 75610015
  },
  {
    "name": "residential",
    "category": "landuse",
    "subcategory": "residential",
    "latitude": 34.07506866666667,
    "longitude": 71.56138527777779,
    "id": 75610017
  },
  {
    "name": "unclassified",
    "category": "highway",
    "subcategory": "unclassified",
    "latitude": 34.069430106666665,
    "longitude": 71.55794345333334,
    "id": 75610018
  },
  {
    "name": "unclassified",
    "category": "highway",
    "subcategory": "unclassified",
    "latitude": 34.065805047619044,
    "longitude": 71.56680887619048,
    "id": 75610019
  },
  {
    "name": "residential",
    "category": "highway",
    "subcategory": "residential",
    "latitude": 34.06250546551724,
    "longitude": 71.57354904827586,
    "id": 75610020
  },
  {
    "name": "residential",
    "category": "highway",
    "subcategory": "residential",
    "latitude": 34.06099386470588,
    "longitude": 71.57501847647059,
    "id": 75610021
  },
  {
    "name": "unclassified",
    "category": "highway",
    "subcategory": "unclassified",
    "latitude": 34.062741844444446,
    "longitude": 71.56711091111112,
    "id": 75610022
  },
  {
    "name": "unclassified",
    "category": "highway",
    "subcategory": "unclassified",
    "latitude": 34.069415407407405,
    "longitude": 71.57045379629629,
    "id": 75610023
  },
  {
    "name": "residential",
    "category": "landuse",
    "subcategory": "residential",
    "latitude": 34.06055918571429,
    "longitude": 71.56837604285714,
    "id": 75610025
  },
  {
    "name": "residential",
    "category": "highway",
    "subcategory": "residential",
    "latitude": 34.052226966666666,
    "longitude": 71.56934522222222,
    "id": 75610029
  },
  {
    "name": "residential",
    "category": "highway",
    "subcategory": "residential",
    "latitude": 34.05482666666667,
    "longitude": 71.57117759444445,
    "id": 75610030
  },
  {
    "name": "unclassified",
    "category": "highway",
    "subcategory": "unclassified",
    "latitude": 34.05895029375,
    "longitude": 71.56689706875,
    "id": 75610031
  },
  {
    "name": "unclassified",
    "category": "highway",
    "subcategory": "unclassified",
    "latitude": 34.060188109523814,
    "longitude": 71.56941185238095,
    "id": 75610032
  },
  {
    "name": "unclassified",
    "category": "highway",
    "subcategory": "unclassified",
    "latitude": 34.050000152173915,
    "longitude": 71.56037242898552,
    "id": 75610033
  },
  {
    "name": "unclassified",
    "category": "highway",
    "subcategory": "unclassified",
    "latitude": 34.01620623970588,
    "longitude": 71.52506936617647,
    "id": 75808146
  },
  {
    "name": "track",
    "category": "highway",
    "subcategory": "track",
    "latitude": 34.022632844444445,
    "longitude": 71.52152235,
    "id": 75808902
  },
  {
    "name": "track",
    "category": "highway",
    "subcategory": "track",
    "latitude": 34.020104116666666,
    "longitude": 71.522950975,
    "id": 75808903
  },
  {
    "name": "track",
    "category": "highway",
    "subcategory": "track",
    "latitude": 34.01805311578947,
    "longitude": 71.52329556842105,
    "id": 75808904
  },
  {
    "name": "unclassified",
    "category": "highway",
    "subcategory": "unclassified",
    "latitude": 34.02147766,
    "longitude": 71.52844829,
    "id": 75808912
  },
  {
    "name": "tertiary",
    "category": "highway",
    "subcategory": "tertiary",
    "latitude": 34.02339738235294,
    "longitude": 71.53051994117648,
    "id": 75808916
  },
  {
    "name": "unclassified",
    "category": "highway",
    "subcategory": "unclassified",
    "latitude": 34.019299673333336,
    "longitude": 71.52559231333333,
    "id": 75808923
  },
  {
    "name": "unclassified",
    "category": "highway",
    "subcategory": "unclassified",
    "latitude": 34.02046936,
    "longitude": 71.52708658,
    "id": 75808924
  },
  {
    "name": "unclassified",
    "category": "highway",
    "subcategory": "unclassified",
    "latitude": 34.02555988695652,
    "longitude": 71.52084742173913,
    "id": 75808928
  },
  {
    "name": "living_street",
    "category": "highway",
    "subcategory": "living_street",
    "latitude": 34.02015989259259,
    "longitude": 71.52014358148148,
    "id": 75808931
  },
  {
    "name": "unclassified",
    "category": "highway",
    "subcategory": "unclassified",
    "latitude": 34.03526623636364,
    "longitude": 71.56818142727273,
    "id": 75839355
  },
  {
    "name": "residential",
    "category": "highway",
    "subcategory": "residential",
    "latitude": 34.035306589473684,
    "longitude": 71.57740634736842,
    "id": 75839356
  },
  {
    "name": "unclassified",
    "category": "highway",
    "subcategory": "unclassified",
    "latitude": 34.038851377777775,
    "longitude": 71.5756316111111,
    "id": 75839358
  },
  {
    "name": "unclassified",
    "category": "highway",
    "subcategory": "unclassified",
    "latitude": 34.0400603,
    "longitude": 71.57258253333333,
    "id": 75839359
  },
  {
    "name": "residential",
    "category": "highway",
    "subcategory": "residential",
    "latitude": 34.02527605,
    "longitude": 71.57173745,
    "id": 75839360
  },
  {
    "name": "اسٹریٹ 4",
    "category": "highway",
    "subcategory": "residential",
    "latitude": 34.02715354285714,
    "longitude": 71.57201998571429,
    "id": 75839361
  },
  {
    "name": "residential",
    "category": "highway",
    "subcategory": "residential",
    "latitude": 34.024887516666666,
    "longitude": 71.56990385,
    "id": 75839362
  },
  {
    "name": "residential",
    "category": "highway",
    "subcategory": "residential",
    "latitude": 34.029887492307694,
    "longitude": 71.56882303076924,
    "id": 75839364
  },
  {
    "name": "unclassified",
    "category": "highway",
    "subcategory": "unclassified",
    "latitude": 34.03043727241379,
    "longitude": 71.56704404482758,
    "id": 75839366
  },
  {
    "name": "residential",
    "category": "highway",
    "subcategory": "residential",
    "latitude": 34.0270827125,
    "longitude": 71.5735665,
    "id": 75839367
  },
  {
    "name": "residential",
    "category": "highway",
    "subcategory": "residential",
    "latitude": 34.02524399090909,
    "longitude": 71.5711862,
    "id": 75839368
  },
  {
    "name": "residential",
    "category": "highway",
    "subcategory": "residential",
    "latitude": 34.02581612857143,
    "longitude": 71.5696553952381,
    "id": 75839369
  },
  {
    "name": "residential",
    "category": "highway",
    "subcategory": "residential",
    "latitude": 34.02631101111111,
    "longitude": 71.5684546,
    "id": 75839370
  },
  {
    "name": "residential",
    "category": "highway",
    "subcategory": "residential",
    "latitude": 34.026073625,
    "longitude": 71.5701668375,
    "id": 75839373
  },
  {
    "name": "residential",
    "category": "highway",
    "subcategory": "residential",
    "latitude": 34.02625191818181,
    "longitude": 71.5716489,
    "id": 75839374
  },
  {
    "name": "residential",
    "category": "highway",
    "subcategory": "residential",
    "latitude": 34.025212233333335,
    "longitude": 71.57289152,
    "id": 75839375
  },
  {
    "name": "unclassified",
    "category": "highway",
    "subcategory": "unclassified",
    "latitude": 34.033992203703704,
    "longitude": 71.55876526296296,
    "id": 75839407
  },
  {
    "name": "unclassified",
    "category": "highway",
    "subcategory": "unclassified",
    "latitude": 34.0383182625,
    "longitude": 71.56002485,
    "id": 75839409
  },
  {
    "name": "unclassified",
    "category": "highway",
    "subcategory": "unclassified",
    "latitude": 34.04221152307692,
    "longitude": 71.55419529615384,
    "id": 75839410
  },
  {
    "name": "unclassified",
    "category": "highway",
    "subcategory": "unclassified",
    "latitude": 34.03975368888889,
    "longitude": 71.5553808111111,
    "id": 75839411
  },
  {
    "name": "unclassified",
    "category": "highway",
    "subcategory": "unclassified",
    "latitude": 34.01784432307692,
    "longitude": 71.50946532307692,
    "id": 75873141
  },
  {
    "name": "unclassified",
    "category": "highway",
    "subcategory": "unclassified",
    "latitude": 34.02708885625,
    "longitude": 71.5094413921875,
    "id": 75873142
  },
  {
    "name": "unclassified",
    "category": "highway",
    "subcategory": "unclassified",
    "latitude": 34.04073857727273,
    "longitude": 71.5008607840909,
    "id": 75876729
  },
  {
    "name": "unclassified",
    "category": "highway",
    "subcategory": "unclassified",
    "latitude": 34.05222631666666,
    "longitude": 71.5105555,
    "id": 75876737
  },
  {
    "name": "residential",
    "category": "highway",
    "subcategory": "residential",
    "latitude": 34.034122304347825,
    "longitude": 71.4983806521739,
    "id": 75876776
  },
  {
    "name": "tertiary",
    "category": "highway",
    "subcategory": "tertiary",
    "latitude": 34.03459042222222,
    "longitude": 71.49678918148149,
    "id": 75876785
  },
  {
    "name": "unclassified",
    "category": "highway",
    "subcategory": "unclassified",
    "latitude": 34.035019124,
    "longitude": 71.510688152,
    "id": 75876838
  },
  {
    "name": "track",
    "category": "highway",
    "subcategory": "track",
    "latitude": 34.04034695789474,
    "longitude": 71.49914571578947,
    "id": 75881109
  },
  {
    "name": "unclassified",
    "category": "highway",
    "subcategory": "unclassified",
    "latitude": 34.080416755172415,
    "longitude": 71.57281220344828,
    "id": 76355869
  },
  {
    "name": "unclassified",
    "category": "highway",
    "subcategory": "unclassified",
    "latitude": 34.081727055555554,
    "longitude": 71.57427088888889,
    "id": 76355954
  },
  {
    "name": "unclassified",
    "category": "highway",
    "subcategory": "unclassified",
    "latitude": 34.08483738695652,
    "longitude": 71.57163950434783,
    "id": 76355955
  },
  {
    "name": "unclassified",
    "category": "highway",
    "subcategory": "unclassified",
    "latitude": 34.08243151764706,
    "longitude": 71.56816429411765,
    "id": 76355958
  },
  {
    "name": "unclassified",
    "category": "highway",
    "subcategory": "unclassified",
    "latitude": 34.08961667241379,
    "longitude": 71.56947511034483,
    "id": 76356512
  },
  {
    "name": "track",
    "category": "highway",
    "subcategory": "track",
    "latitude": 34.07265533214286,
    "longitude": 71.58653415,
    "id": 76357659
  },
  {
    "name": "Jinnah Park",
    "category": "leisure",
    "subcategory": "park",
    "latitude": 34.01539328333333,
    "longitude": 71.57088168333333,
    "id": 106270567
  },
  {
    "name": "pitch",
    "category": "leisure",
    "subcategory": "pitch",
    "latitude": 34.0213838,
    "longitude": 71.53930041999999,
    "id": 106371714
  },
  {
    "name": "Garrison Park",
    "category": "leisure",
    "subcategory": "park",
    "latitude": 34.019366489999996,
    "longitude": 71.54571794,
    "id": 106371716
  },
  {
    "name": "PESCO Colony",
    "category": "landuse",
    "subcategory": "residential",
    "latitude": 34.02487131428571,
    "longitude": 71.55968101428572,
    "id": 225784163
  },
  {
    "name": "Sher Khan Stadium",
    "category": "leisure",
    "subcategory": "park",
    "latitude": 34.0166634125,
    "longitude": 71.5504651875,
    "id": 225784165
  },
  {
    "name": "صدر روڈ پل",
    "category": "highway",
    "subcategory": "primary",
    "latitude": 34.0144931,
    "longitude": 71.56782943636364,
    "id": 233395997
  },
  {
    "name": "Shami Road",
    "category": "highway",
    "subcategory": "residential",
    "latitude": 34.018614453333335,
    "longitude": 71.55593256,
    "id": 234874788
  },
  {
    "name": "residential",
    "category": "highway",
    "subcategory": "residential",
    "latitude": 34.021102150000004,
    "longitude": 71.55618249,
    "id": 234874789
  },
  {
    "name": "secondary",
    "category": "highway",
    "subcategory": "secondary",
    "latitude": 34.023441805,
    "longitude": 71.54267813,
    "id": 234874790
  },
  {
    "name": "residential",
    "category": "highway",
    "subcategory": "residential",
    "latitude": 34.02470843571429,
    "longitude": 71.559785,
    "id": 234874791
  },
  {
    "name": "residential",
    "category": "highway",
    "subcategory": "residential",
    "latitude": 34.02220116666667,
    "longitude": 71.55049236666666,
    "id": 234874792
  },
  {
    "name": "residential",
    "category": "highway",
    "subcategory": "residential",
    "latitude": 34.0238136,
    "longitude": 71.55811972000001,
    "id": 234874793
  },
  {
    "name": "residential",
    "category": "highway",
    "subcategory": "residential",
    "latitude": 34.02254395,
    "longitude": 71.5531148,
    "id": 234874794
  },
  {
    "name": "Street 15B",
    "category": "highway",
    "subcategory": "residential",
    "latitude": 34.021616550000005,
    "longitude": 71.54839989999999,
    "id": 234874795
  },
  {
    "name": "residential",
    "category": "highway",
    "subcategory": "residential",
    "latitude": 34.02078950000001,
    "longitude": 71.5557195,
    "id": 234874796
  },
  {
    "name": "residential",
    "category": "highway",
    "subcategory": "residential",
    "latitude": 34.0218074,
    "longitude": 71.55128635,
    "id": 234874797
  },
  {
    "name": "secondary_link",
    "category": "highway",
    "subcategory": "secondary_link",
    "latitude": 34.022672650000004,
    "longitude": 71.56304270000001,
    "id": 234874798
  },
  {
    "name": "residential",
    "category": "highway",
    "subcategory": "residential",
    "latitude": 34.02060065,
    "longitude": 71.5503913,
    "id": 234874799
  },
  {
    "name": "residential",
    "category": "highway",
    "subcategory": "residential",
    "latitude": 34.018709666666666,
    "longitude": 71.55373279999999,
    "id": 234874801
  },
  {
    "name": "residential",
    "category": "highway",
    "subcategory": "residential",
    "latitude": 34.02498505,
    "longitude": 71.5597521,
    "id": 234874802
  },
  {
    "name": "residential",
    "category": "highway",
    "subcategory": "residential",
    "latitude": 34.0212161,
    "longitude": 71.55173593333333,
    "id": 234874803
  },
  {
    "name": "residential",
    "category": "highway",
    "subcategory": "residential",
    "latitude": 34.01997514999999,
    "longitude": 71.55425890000001,
    "id": 234874804
  },
  {
    "name": "residential",
    "category": "highway",
    "subcategory": "residential",
    "latitude": 34.02536005,
    "longitude": 71.56118585,
    "id": 234874805
  },
  {
    "name": "residential",
    "category": "highway",
    "subcategory": "residential",
    "latitude": 34.0196158,
    "longitude": 71.55577670000001,
    "id": 234874806
  },
  {
    "name": "residential",
    "category": "highway",
    "subcategory": "residential",
    "latitude": 34.02607555,
    "longitude": 71.56084035,
    "id": 234874807
  },
  {
    "name": "residential",
    "category": "highway",
    "subcategory": "residential",
    "latitude": 34.01945875,
    "longitude": 71.5522436,
    "id": 234874808
  },
  {
    "name": "residential",
    "category": "highway",
    "subcategory": "residential",
    "latitude": 34.02391725,
    "longitude": 71.56140865,
    "id": 234874809
  },
  {
    "name": "residential",
    "category": "highway",
    "subcategory": "residential",
    "latitude": 34.0222945,
    "longitude": 71.5523398,
    "id": 234874810
  },
  {
    "name": "residential",
    "category": "highway",
    "subcategory": "residential",
    "latitude": 34.0181458,
    "longitude": 71.55506015,
    "id": 234874811
  },
  {
    "name": "residential",
    "category": "highway",
    "subcategory": "residential",
    "latitude": 34.021403175,
    "longitude": 71.552223225,
    "id": 234874812
  },
  {
    "name": "residential",
    "category": "highway",
    "subcategory": "residential",
    "latitude": 34.024893,
    "longitude": 71.56016973333334,
    "id": 234874813
  },
  {
    "name": "Street 15E",
    "category": "highway",
    "subcategory": "residential",
    "latitude": 34.0225,
    "longitude": 71.54654596666667,
    "id": 234874814
  },
  {
    "name": "residential",
    "category": "highway",
    "subcategory": "residential",
    "latitude": 34.0180104,
    "longitude": 71.55425554,
    "id": 234874815
  },
  {
    "name": "residential",
    "category": "highway",
    "subcategory": "residential",
    "latitude": 34.0230818,
    "longitude": 71.5474438,
    "id": 234874816
  },
  {
    "name": "اسٹریٹ 3",
    "category": "highway",
    "subcategory": "residential",
    "latitude": 34.02289893333333,
    "longitude": 71.54983136666667,
    "id": 234874817
  },
  {
    "name": "residential",
    "category": "highway",
    "subcategory": "residential",
    "latitude": 34.02042923333334,
    "longitude": 71.55117623333334,
    "id": 234874818
  },
  {
    "name": "اسٹریٹ 15",
    "category": "highway",
    "subcategory": "residential",
    "latitude": 34.02252776,
    "longitude": 71.54808732000001,
    "id": 234874819
  },
  {
    "name": "residential",
    "category": "highway",
    "subcategory": "residential",
    "latitude": 34.024326725,
    "longitude": 71.561022725,
    "id": 234874820
  },
  {
    "name": "residential",
    "category": "highway",
    "subcategory": "residential",
    "latitude": 34.02447971666667,
    "longitude": 71.5589114,
    "id": 234874821
  },
  {
    "name": "residential",
    "category": "highway",
    "subcategory": "residential",
    "latitude": 34.02560594,
    "longitude": 71.55854712,
    "id": 234874822
  },
  {
    "name": "residential",
    "category": "highway",
    "subcategory": "residential",
    "latitude": 34.01992526,
    "longitude": 71.55597983999999,
    "id": 234874823
  },
  {
    "name": "secondary",
    "category": "highway",
    "subcategory": "secondary",
    "latitude": 34.02263528571429,
    "longitude": 71.56191601428571,
    "id": 234874824
  },
  {
    "name": "اسٹریٹ 11",
    "category": "highway",
    "subcategory": "residential",
    "latitude": 34.0217969875,
    "longitude": 71.549424925,
    "id": 234874825
  },
  {
    "name": "residential",
    "category": "highway",
    "subcategory": "residential",
    "latitude": 34.022494585714284,
    "longitude": 71.55578352857142,
    "id": 234874827
  },
  {
    "name": "residential",
    "category": "highway",
    "subcategory": "residential",
    "latitude": 34.02233529090909,
    "longitude": 71.55251206363636,
    "id": 234874828
  },
  {
    "name": "residential",
    "category": "highway",
    "subcategory": "residential",
    "latitude": 34.02453175714286,
    "longitude": 71.56109837142857,
    "id": 234874829
  },
  {
    "name": "secondary",
    "category": "highway",
    "subcategory": "secondary",
    "latitude": 34.02318155806452,
    "longitude": 71.55256886774194,
    "id": 234874830
  },
  {
    "name": "residential",
    "category": "landuse",
    "subcategory": "residential",
    "latitude": 34.01799621666667,
    "longitude": 71.58163326666666,
    "id": 235113772
  },
  {
    "name": "ورسک روڈ",
    "category": "highway",
    "subcategory": "primary",
    "latitude": 34.044090201587295,
    "longitude": 71.52348486507937,
    "id": 235200488
  },
  {
    "name": "ورسک روڈ",
    "category": "highway",
    "subcategory": "primary",
    "latitude": 34.01780213333333,
    "longitude": 71.539823575,
    "id": 235200489
  },
  {
    "name": "ورسک روڈ",
    "category": "highway",
    "subcategory": "primary",
    "latitude": 34.0220016,
    "longitude": 71.53735853333335,
    "id": 235200490
  },
  {
    "name": "unclassified",
    "category": "highway",
    "subcategory": "unclassified",
    "latitude": 34.015778820689654,
    "longitude": 71.53606938275863,
    "id": 235200491
  },
  {
    "name": "residential",
    "category": "highway",
    "subcategory": "residential",
    "latitude": 34.016523533333334,
    "longitude": 71.53921234444445,
    "id": 235200492
  },
  {
    "name": "tertiary",
    "category": "highway",
    "subcategory": "tertiary",
    "latitude": 34.02210135,
    "longitude": 71.53735125,
    "id": 235200494
  },
  {
    "name": "primary_link",
    "category": "highway",
    "subcategory": "primary_link",
    "latitude": 34.0207305,
    "longitude": 71.53817815,
    "id": 235200495
  },
  {
    "name": "primary",
    "category": "highway",
    "subcategory": "primary",
    "latitude": 34.01844405,
    "longitude": 71.53948919999999,
    "id": 235200496
  },
  {
    "name": "tertiary",
    "category": "highway",
    "subcategory": "tertiary",
    "latitude": 34.02194225,
    "longitude": 71.5374498,
    "id": 235200497
  },
  {
    "name": "ورسک روڈ",
    "category": "highway",
    "subcategory": "primary",
    "latitude": 34.05729526176471,
    "longitude": 71.51341894705882,
    "id": 235200498
  },
  {
    "name": "unclassified",
    "category": "highway",
    "subcategory": "unclassified",
    "latitude": 34.017060345454546,
    "longitude": 71.53291734545455,
    "id": 280412103
  },
  {
    "name": "unclassified",
    "category": "highway",
    "subcategory": "unclassified",
    "latitude": 34.01723765,
    "longitude": 71.531898,
    "id": 280412104
  },
  {
    "name": "residential",
    "category": "highway",
    "subcategory": "residential",
    "latitude": 34.027771,
    "longitude": 71.5720323,
    "id": 280418203
  },
  {
    "name": "residential",
    "category": "highway",
    "subcategory": "residential",
    "latitude": 34.0278187,
    "longitude": 71.5720139,
    "id": 280418204
  },
  {
    "name": "Charsadda Road",
    "category": "highway",
    "subcategory": "primary",
    "latitude": 34.054109797500004,
    "longitude": 71.58525719000001,
    "id": 280419361
  },
  {
    "name": "چارسدہ روڈ",
    "category": "highway",
    "subcategory": "primary",
    "latitude": 34.030410322222224,
    "longitude": 71.57679939444444,
    "id": 280419362
  },
  {
    "name": "چارسدہ روڈ",
    "category": "highway",
    "subcategory": "primary",
    "latitude": 34.036507075,
    "longitude": 71.578990225,
    "id": 280419363
  },
  {
    "name": "چارسدہ روڈ",
    "category": "highway",
    "subcategory": "primary",
    "latitude": 34.0284994,
    "longitude": 71.5754458,
    "id": 280419364
  },
  {
    "name": "چارسدہ روڈ",
    "category": "highway",
    "subcategory": "primary",
    "latitude": 34.0239734,
    "longitude": 71.57368385000001,
    "id": 280419365
  },
  {
    "name": "چارسدہ روڈ",
    "category": "highway",
    "subcategory": "primary",
    "latitude": 34.026233857142856,
    "longitude": 71.57460470714285,
    "id": 280419366
  },
  {
    "name": "سفید سنگ روڈ",
    "category": "highway",
    "subcategory": "secondary",
    "latitude": 34.07285204,
    "longitude": 71.48739719428572,
    "id": 280423821
  },
  {
    "name": "residential",
    "category": "highway",
    "subcategory": "residential",
    "latitude": 34.0246785,
    "longitude": 71.57912909999999,
    "id": 280424505
  },
  {
    "name": "residential",
    "category": "highway",
    "subcategory": "residential",
    "latitude": 34.0247481,
    "longitude": 71.57912909999999,
    "id": 280424506
  },
  {
    "name": "residential",
    "category": "highway",
    "subcategory": "residential",
    "latitude": 34.0247338,
    "longitude": 71.5803344,
    "id": 280424573
  },
  {
    "name": "residential",
    "category": "highway",
    "subcategory": "residential",
    "latitude": 34.02481555,
    "longitude": 71.5803356,
    "id": 280424574
  },
  {
    "name": "tertiary",
    "category": "highway",
    "subcategory": "tertiary",
    "latitude": 34.04893985,
    "longitude": 71.5025106,
    "id": 280425386
  },
  {
    "name": "residential",
    "category": "highway",
    "subcategory": "residential",
    "latitude": 34.05884460465116,
    "longitude": 71.51273228139534,
    "id": 280425388
  },
  {
    "name": "unclassified",
    "category": "highway",
    "subcategory": "unclassified",
    "latitude": 34.04831455,
    "longitude": 71.50626639999999,
    "id": 280939543
  },
  {
    "name": "tertiary",
    "category": "highway",
    "subcategory": "tertiary",
    "latitude": 34.04605021333334,
    "longitude": 71.51357374,
    "id": 280939544
  },
  {
    "name": "residential",
    "category": "highway",
    "subcategory": "residential",
    "latitude": 34.035086070588235,
    "longitude": 71.50198057058823,
    "id": 280939545
  },
  {
    "name": "unclassified",
    "category": "highway",
    "subcategory": "unclassified",
    "latitude": 34.048511014285715,
    "longitude": 71.5063369,
    "id": 280939546
  },
  {
    "name": "unclassified",
    "category": "highway",
    "subcategory": "unclassified",
    "latitude": 34.0496375625,
    "longitude": 71.5067609125,
    "id": 280939547
  },
  {
    "name": "unclassified",
    "category": "highway",
    "subcategory": "unclassified",
    "latitude": 34.029758183333335,
    "longitude": 71.52568351333333,
    "id": 280939588
  },
  {
    "name": "unclassified",
    "category": "highway",
    "subcategory": "unclassified",
    "latitude": 34.0253051,
    "longitude": 71.5245362,
    "id": 280939589
  },
  {
    "name": "سعید آباد روڈ",
    "category": "highway",
    "subcategory": "unclassified",
    "latitude": 34.023263150000005,
    "longitude": 71.56790565,
    "id": 281473773
  },
  {
    "name": "سعید آباد روڈ",
    "category": "highway",
    "subcategory": "unclassified",
    "latitude": 34.02154058666667,
    "longitude": 71.56818620666667,
    "id": 281473774
  },
  {
    "name": "پجگی روڈ",
    "category": "highway",
    "subcategory": "primary",
    "latitude": 34.02288325,
    "longitude": 71.56441335,
    "id": 281473802
  },
  {
    "name": "پجگی روڈ",
    "category": "highway",
    "subcategory": "primary",
    "latitude": 34.0201687,
    "longitude": 71.567956175,
    "id": 281473803
  },
  {
    "name": "پجگی روڈ",
    "category": "highway",
    "subcategory": "primary",
    "latitude": 34.0265299,
    "longitude": 71.56138659999999,
    "id": 281473821
  },
  {
    "name": "Pajaggi Road",
    "category": "highway",
    "subcategory": "primary",
    "latitude": 34.025183725,
    "longitude": 71.562396705,
    "id": 281473822
  },
  {
    "name": "residential",
    "category": "highway",
    "subcategory": "residential",
    "latitude": 34.02750535,
    "longitude": 71.57930555,
    "id": 281474574
  },
  {
    "name": "residential",
    "category": "highway",
    "subcategory": "residential",
    "latitude": 34.0270038875,
    "longitude": 71.5783447125,
    "id": 281474576
  },
  {
    "name": "افغان کالونی روڈ",
    "category": "highway",
    "subcategory": "secondary",
    "latitude": 34.02468066,
    "longitude": 71.57849725999999,
    "id": 281477305
  },
  {
    "name": "افغان کالونی روڈ",
    "category": "highway",
    "subcategory": "secondary",
    "latitude": 34.02476715,
    "longitude": 71.5790422,
    "id": 281477306
  },
  {
    "name": "residential",
    "category": "highway",
    "subcategory": "residential",
    "latitude": 34.027375500000005,
    "longitude": 71.56820995000001,
    "id": 281485512
  },
  {
    "name": "residential",
    "category": "highway",
    "subcategory": "residential",
    "latitude": 34.02755705,
    "longitude": 71.5691347,
    "id": 281485513
  },
  {
    "name": "residential",
    "category": "highway",
    "subcategory": "residential",
    "latitude": 34.02751295,
    "longitude": 71.56914979999999,
    "id": 281485514
  },
  {
    "name": "residential",
    "category": "highway",
    "subcategory": "residential",
    "latitude": 34.02742925,
    "longitude": 71.5682041,
    "id": 281485516
  },
  {
    "name": "unclassified",
    "category": "highway",
    "subcategory": "unclassified",
    "latitude": 34.08253788761905,
    "longitude": 71.50465262761905,
    "id": 281769463
  },
  {
    "name": "unclassified",
    "category": "highway",
    "subcategory": "unclassified",
    "latitude": 34.06379485,
    "longitude": 71.5184098,
    "id": 281769464
  },
  {
    "name": "unclassified",
    "category": "highway",
    "subcategory": "unclassified",
    "latitude": 34.0636984,
    "longitude": 71.51808075,
    "id": 281769465
  },
  {
    "name": "unclassified",
    "category": "highway",
    "subcategory": "unclassified",
    "latitude": 34.063723949999996,
    "longitude": 71.51789195,
    "id": 281769466
  },
  {
    "name": "Shami Road",
    "category": "highway",
    "subcategory": "tertiary",
    "latitude": 34.01669185833333,
    "longitude": 71.55339321666666,
    "id": 283743269
  },
  {
    "name": "Sher Khan Road",
    "category": "highway",
    "subcategory": "tertiary",
    "latitude": 34.0179401,
    "longitude": 71.54876771666666,
    "id": 283743271
  },
  {
    "name": "Sher Khan Road",
    "category": "highway",
    "subcategory": "tertiary",
    "latitude": 34.0160881,
    "longitude": 71.54810735000001,
    "id": 283743272
  },
  {
    "name": "ورسک روڈ",
    "category": "highway",
    "subcategory": "primary",
    "latitude": 34.018908607142855,
    "longitude": 71.53925315000001,
    "id": 284336388
  },
  {
    "name": "residential",
    "category": "highway",
    "subcategory": "residential",
    "latitude": 34.01580149,
    "longitude": 71.57845437,
    "id": 288283765
  },
  {
    "name": "living_street",
    "category": "highway",
    "subcategory": "living_street",
    "latitude": 34.0171139,
    "longitude": 71.577626575,
    "id": 288283768
  },
  {
    "name": "service",
    "category": "highway",
    "subcategory": "service",
    "latitude": 34.016503225,
    "longitude": 71.579629075,
    "id": 288283769
  },
  {
    "name": "residential",
    "category": "highway",
    "subcategory": "residential",
    "latitude": 34.0189072,
    "longitude": 71.58178213333333,
    "id": 288283771
  },
  {
    "name": "living_street",
    "category": "highway",
    "subcategory": "living_street",
    "latitude": 34.0173333,
    "longitude": 71.5788666,
    "id": 288283779
  },
  {
    "name": "residential",
    "category": "highway",
    "subcategory": "residential",
    "latitude": 34.017205546153846,
    "longitude": 71.58169181538462,
    "id": 288283782
  },
  {
    "name": "living_street",
    "category": "highway",
    "subcategory": "living_street",
    "latitude": 34.01689718,
    "longitude": 71.5779541,
    "id": 288283785
  },
  {
    "name": "residential",
    "category": "highway",
    "subcategory": "residential",
    "latitude": 34.0205482,
    "longitude": 71.58298334444444,
    "id": 288283787
  },
  {
    "name": "residential",
    "category": "highway",
    "subcategory": "residential",
    "latitude": 34.0316526,
    "longitude": 71.57397425,
    "id": 288284454
  },
  {
    "name": "residential",
    "category": "highway",
    "subcategory": "residential",
    "latitude": 34.030426514285715,
    "longitude": 71.57464238571428,
    "id": 288284456
  },
  {
    "name": "residential",
    "category": "highway",
    "subcategory": "residential",
    "latitude": 34.030363200000004,
    "longitude": 71.57387391666667,
    "id": 288284457
  },
  {
    "name": "residential",
    "category": "highway",
    "subcategory": "residential",
    "latitude": 34.031432869999996,
    "longitude": 71.57449123,
    "id": 288284459
  },
  {
    "name": "residential",
    "category": "highway",
    "subcategory": "residential",
    "latitude": 34.0309952,
    "longitude": 71.573452125,
    "id": 288284461
  },
  {
    "name": "residential",
    "category": "highway",
    "subcategory": "residential",
    "latitude": 34.029893375,
    "longitude": 71.574609725,
    "id": 288284462
  },
  {
    "name": "residential",
    "category": "highway",
    "subcategory": "residential",
    "latitude": 34.030980542857144,
    "longitude": 71.57934137142857,
    "id": 288284466
  },
  {
    "name": "service",
    "category": "highway",
    "subcategory": "service",
    "latitude": 34.030083136363636,
    "longitude": 71.57704583636364,
    "id": 288284468
  },
  {
    "name": "service",
    "category": "highway",
    "subcategory": "service",
    "latitude": 34.03022035,
    "longitude": 71.5770731,
    "id": 288284469
  },
  {
    "name": "residential",
    "category": "highway",
    "subcategory": "residential",
    "latitude": 34.029932333333335,
    "longitude": 71.573931,
    "id": 288284470
  },
  {
    "name": "residential",
    "category": "highway",
    "subcategory": "residential",
    "latitude": 34.030663700000005,
    "longitude": 71.5736891,
    "id": 288284471
  },
  {
    "name": "ورسک روڈ",
    "category": "highway",
    "subcategory": "primary",
    "latitude": 34.06449845,
    "longitude": 71.50772850000001,
    "id": 303395317
  },
  {
    "name": "residential",
    "category": "highway",
    "subcategory": "residential",
    "latitude": 34.052570464,
    "longitude": 71.53774342,
    "id": 317999049
  },
  {
    "name": "residential",
    "category": "highway",
    "subcategory": "residential",
    "latitude": 34.05196199090909,
    "longitude": 71.53747743636364,
    "id": 317999050
  },
  {
    "name": "residential",
    "category": "highway",
    "subcategory": "residential",
    "latitude": 34.051683974999996,
    "longitude": 71.537902475,
    "id": 317999051
  },
  {
    "name": "residential",
    "category": "highway",
    "subcategory": "residential",
    "latitude": 34.05392381666667,
    "longitude": 71.53524786666667,
    "id": 317999052
  },
  {
    "name": "residential",
    "category": "highway",
    "subcategory": "residential",
    "latitude": 34.057101505,
    "longitude": 71.53370875499999,
    "id": 317999053
  },
  {
    "name": "residential",
    "category": "highway",
    "subcategory": "residential",
    "latitude": 34.0621491625,
    "longitude": 71.5313193375,
    "id": 317999054
  },
  {
    "name": "residential",
    "category": "highway",
    "subcategory": "residential",
    "latitude": 34.06073583333333,
    "longitude": 71.53374233809524,
    "id": 317999685
  },
  {
    "name": "residential",
    "category": "highway",
    "subcategory": "residential",
    "latitude": 34.05602485714286,
    "longitude": 71.53696807142857,
    "id": 317999686
  },
  {
    "name": "residential",
    "category": "highway",
    "subcategory": "residential",
    "latitude": 34.057707,
    "longitude": 71.53776364666666,
    "id": 317999687
  },
  {
    "name": "residential",
    "category": "highway",
    "subcategory": "residential",
    "latitude": 34.058146063636364,
    "longitude": 71.53708817272728,
    "id": 317999688
  },
  {
    "name": "residential",
    "category": "highway",
    "subcategory": "residential",
    "latitude": 34.05772167857143,
    "longitude": 71.5431161642857,
    "id": 317999689
  },
  {
    "name": "residential",
    "category": "highway",
    "subcategory": "residential",
    "latitude": 34.0369081,
    "longitude": 71.54202410645162,
    "id": 318004734
  },
  {
    "name": "residential",
    "category": "highway",
    "subcategory": "residential",
    "latitude": 34.0231466,
    "longitude": 71.53466617777778,
    "id": 318007294
  },
  {
    "name": "residential",
    "category": "highway",
    "subcategory": "residential",
    "latitude": 34.0241341,
    "longitude": 71.53451505000001,
    "id": 318007295
  },
  {
    "name": "residential",
    "category": "highway",
    "subcategory": "residential",
    "latitude": 34.0236581,
    "longitude": 71.53440606666668,
    "id": 318007296
  },
  {
    "name": "residential",
    "category": "highway",
    "subcategory": "residential",
    "latitude": 34.023470280000005,
    "longitude": 71.5340493,
    "id": 318007297
  },
  {
    "name": "residential",
    "category": "highway",
    "subcategory": "residential",
    "latitude": 34.023660185714284,
    "longitude": 71.5329007,
    "id": 318007298
  },
  {
    "name": "residential",
    "category": "highway",
    "subcategory": "residential",
    "latitude": 34.0236333,
    "longitude": 71.53331662000001,
    "id": 318010054
  },
  {
    "name": "residential",
    "category": "highway",
    "subcategory": "residential",
    "latitude": 34.0230605,
    "longitude": 71.5351149,
    "id": 318011770
  },
  {
    "name": "residential",
    "category": "highway",
    "subcategory": "residential",
    "latitude": 34.02252742,
    "longitude": 71.53476090000001,
    "id": 318011771
  },
  {
    "name": "residential",
    "category": "highway",
    "subcategory": "residential",
    "latitude": 34.08187565,
    "longitude": 71.55393375,
    "id": 323050001
  },
  {
    "name": "residential",
    "category": "highway",
    "subcategory": "residential",
    "latitude": 34.082675699999996,
    "longitude": 71.5539565,
    "id": 323050003
  },
  {
    "name": "residential",
    "category": "highway",
    "subcategory": "residential",
    "latitude": 34.02786208333333,
    "longitude": 71.56409282777777,
    "id": 323399152
  },
  {
    "name": "residential",
    "category": "highway",
    "subcategory": "residential",
    "latitude": 34.02874113684211,
    "longitude": 71.56205068947368,
    "id": 323399153
  },
  {
    "name": "residential",
    "category": "highway",
    "subcategory": "residential",
    "latitude": 34.029041407142856,
    "longitude": 71.56129654285714,
    "id": 323399154
  },
  {
    "name": "residential",
    "category": "highway",
    "subcategory": "residential",
    "latitude": 34.02950971,
    "longitude": 71.56481399,
    "id": 323399155
  },
  {
    "name": "residential",
    "category": "highway",
    "subcategory": "residential",
    "latitude": 34.02814305,
    "longitude": 71.566788225,
    "id": 323399156
  },
  {
    "name": "residential",
    "category": "highway",
    "subcategory": "residential",
    "latitude": 34.0161918625,
    "longitude": 71.58142343749999,
    "id": 323399690
  },
  {
    "name": "living_street",
    "category": "highway",
    "subcategory": "living_street",
    "latitude": 34.017319400000005,
    "longitude": 71.5814769,
    "id": 323399696
  },
  {
    "name": "living_street",
    "category": "highway",
    "subcategory": "living_street",
    "latitude": 34.0171326,
    "longitude": 71.5813098,
    "id": 323399697
  },
  {
    "name": "Shahi Bagh Road",
    "category": "highway",
    "subcategory": "residential",
    "latitude": 34.016060478571426,
    "longitude": 71.57361352857143,
    "id": 323399804
  },
  {
    "name": "primary",
    "category": "highway",
    "subcategory": "primary",
    "latitude": 34.01528291666667,
    "longitude": 71.5693232,
    "id": 323405909
  },
  {
    "name": "صدر روڈ پل",
    "category": "highway",
    "subcategory": "primary",
    "latitude": 34.01486529,
    "longitude": 71.56817303,
    "id": 323405910
  },
  {
    "name": "چارسدہ روڈ",
    "category": "highway",
    "subcategory": "primary",
    "latitude": 34.022019766666666,
    "longitude": 71.57288544444445,
    "id": 323405912
  },
  {
    "name": "Charsadda RD Fly-over",
    "category": "highway",
    "subcategory": "primary",
    "latitude": 34.01858226363636,
    "longitude": 71.57160303636364,
    "id": 323406239
  },
  {
    "name": "Charsadda RD Fly-over",
    "category": "highway",
    "subcategory": "primary",
    "latitude": 34.01840314166667,
    "longitude": 71.57165934166666,
    "id": 323406240
  },
  {
    "name": "primary",
    "category": "highway",
    "subcategory": "primary",
    "latitude": 34.01726934444444,
    "longitude": 71.57195133333333,
    "id": 323408222
  },
  {
    "name": "car parking",
    "category": "highway",
    "subcategory": "service",
    "latitude": 34.02386633333334,
    "longitude": 71.5779107,
    "id": 323408226
  },
  {
    "name": "living_street",
    "category": "highway",
    "subcategory": "living_street",
    "latitude": 34.01693505,
    "longitude": 71.579374375,
    "id": 326879649
  },
  {
    "name": "living_street",
    "category": "highway",
    "subcategory": "living_street",
    "latitude": 34.016761325000004,
    "longitude": 71.579160825,
    "id": 326879650
  },
  {
    "name": "living_street",
    "category": "highway",
    "subcategory": "living_street",
    "latitude": 34.0216742,
    "longitude": 71.58035435,
    "id": 326882725
  },
  {
    "name": "residential",
    "category": "highway",
    "subcategory": "residential",
    "latitude": 34.02026213333334,
    "longitude": 71.58068443333333,
    "id": 326882728
  },
  {
    "name": "residential",
    "category": "highway",
    "subcategory": "residential",
    "latitude": 34.024126949999996,
    "longitude": 71.580105175,
    "id": 326882743
  },
  {
    "name": "residential",
    "category": "highway",
    "subcategory": "residential",
    "latitude": 34.025041775,
    "longitude": 71.5769214,
    "id": 326882744
  },
  {
    "name": "residential",
    "category": "highway",
    "subcategory": "residential",
    "latitude": 34.025394,
    "longitude": 71.5768928,
    "id": 326882746
  },
  {
    "name": "افغان کالونی روڈ",
    "category": "highway",
    "subcategory": "secondary",
    "latitude": 34.02428845,
    "longitude": 71.5763066,
    "id": 326882961
  },
  {
    "name": "اسٹیڈیم روڈ",
    "category": "highway",
    "subcategory": "secondary",
    "latitude": 34.02445805,
    "longitude": 71.5780489,
    "id": 326882962
  },
  {
    "name": "residential",
    "category": "highway",
    "subcategory": "residential",
    "latitude": 34.01878625714286,
    "longitude": 71.5775002,
    "id": 388088414
  },
  {
    "name": "residential",
    "category": "highway",
    "subcategory": "residential",
    "latitude": 34.02748419634146,
    "longitude": 71.56946318170732,
    "id": 388089622
  },
  {
    "name": "اسٹیڈیم روڈ",
    "category": "highway",
    "subcategory": "secondary",
    "latitude": 34.02737872,
    "longitude": 71.57622336,
    "id": 388090255
  },
  {
    "name": "Polo",
    "category": "leisure",
    "subcategory": "pitch",
    "latitude": 34.02118469090909,
    "longitude": 71.56249397272727,
    "id": 394224129
  },
  {
    "name": "archaeological_site",
    "category": "historic",
    "subcategory": "archaeological_site",
    "latitude": 34.018947860000004,
    "longitude": 71.5357759,
    "id": 394224130
  },
  {
    "name": "پشاور رنگ روڈ",
    "category": "highway",
    "subcategory": "trunk",
    "latitude": 34.03246772,
    "longitude": 71.57839091999999,
    "id": 398404766
  },
  {
    "name": "اسٹیڈیم روڈ",
    "category": "highway",
    "subcategory": "secondary",
    "latitude": 34.022524966666666,
    "longitude": 71.5790907,
    "id": 406670125
  },
  {
    "name": "residential",
    "category": "highway",
    "subcategory": "residential",
    "latitude": 34.02451535,
    "longitude": 71.54811735,
    "id": 407784490
  },
  {
    "name": "residential",
    "category": "highway",
    "subcategory": "residential",
    "latitude": 34.0240934,
    "longitude": 71.54814623333333,
    "id": 407784492
  },
  {
    "name": "Mandrakhel Road",
    "category": "highway",
    "subcategory": "residential",
    "latitude": 34.06360076129032,
    "longitude": 71.58036952903227,
    "id": 422580339
  },
  {
    "name": "Larama Road",
    "category": "highway",
    "subcategory": "tertiary",
    "latitude": 34.050954184000005,
    "longitude": 71.57582518,
    "id": 422580748
  },
  {
    "name": "industrial",
    "category": "landuse",
    "subcategory": "industrial",
    "latitude": 34.06906437419355,
    "longitude": 71.49753922903226,
    "id": 500715880
  },
  {
    "name": "Jahangir Abad",
    "category": "highway",
    "subcategory": "living_street",
    "latitude": 34.01835536,
    "longitude": 71.50419393,
    "id": 521578117
  },
  {
    "name": "Jahangir Abad",
    "category": "highway",
    "subcategory": "residential",
    "latitude": 34.01531881428571,
    "longitude": 71.50274444285715,
    "id": 521578120
  },
  {
    "name": "residential",
    "category": "highway",
    "subcategory": "residential",
    "latitude": 34.04150116,
    "longitude": 71.52849774,
    "id": 585204801
  },