[
  {
    "id": 2449123020,
    "name": "Chhamb",
    "name_ur": "چھمب",
    "type": "village",
    "lat": 32.8379669,
    "lon": 74.4047953,
    "province": "Azad Kashmir",
    "country": "Pakistan",
    "path": "pakistan/AJK/villages/chhamb"
  },
  {
    "id": 3406365882,
    "name": "Ratta",
    "name_ur": "Ratta",
    "type": "village",
    "lat": 33.3666521,
    "lon": 73.6579208,
    "province": "Azad Kashmir",
    "country": "Pakistan",
    "path": "pakistan/AJK/villages/ratta"
  },
  {
    "id": 9525840877,
    "name": "Jandala",
    "name_ur": "جنڈالہ",
    "type": "village",
    "lat": 33.1428403,
    "lon": 73.9928126,
    "province": "Azad Kashmir",
    "country": "Pakistan",
    "path": "pakistan/AJK/villages/jandala"
  },
  {
    "id": 2674570330,
    "name": "Dhulli",
    "name_ur": "Dhulli",
    "type": "village",
    "lat": 33.9281107,
    "lon": 73.9073585,
    "province": "Azad Kashmir",
    "country": "Pakistan",
    "path": "pakistan/AJK/villages/dhulli"
  },
  {
    "id": 8557711356,
    "name": "Dosut",
    "name_ur": "دوسٹ",
    "type": "village",
    "lat": 34.7586384,
    "lon": 74.1362964,
    "province": "Azad Kashmir",
    "country": "Pakistan",
    "path": "pakistan/AJK/villages/dosut"
  },
  {
    "id": 11637072885,
    "name": "Kotli Gujjran",
    "name_ur": "کوٹلی گُجراں",
    "type": "village",
    "lat": 33.1870353,
    "lon": 74.0497013,
    "province": "Azad Kashmir",
    "country": "Pakistan",
    "path": "pakistan/AJK/villages/kotli_gujjran"
  },
  {
    "id": 5200603623,
    "name": "Balouch",
    "name_ur": "بلوچ",
    "type": "village",
    "lat": 33.6459226,
    "lon": 73.8158273,
    "province": "Azad Kashmir",
    "country": "Pakistan",
    "path": "pakistan/AJK/villages/balouch"
  },
  {
    "id": 2509051563,
    "name": "Sudhan Gali Azad Kashmir",
    "name_ur": "سدھن گالی",
    "type": "village",
    "lat": 34.0771712,
    "lon": 73.7412999,
    "province": "Azad Kashmir",
    "country": "Pakistan",
    "path": "pakistan/AJK/villages/sudhan_gali_azad_kashmir"
  },
  {
    "id": 3037221596,
    "name": "Kundal Shahi",
    "name_ur": "کنڈل شاہی",
    "type": "village",
    "lat": 34.555137,
    "lon": 73.8444974,
    "province": "Azad Kashmir",
    "country": "Pakistan",
    "path": "pakistan/AJK/villages/kundal_shahi"
  },
  {
    "id": 6790186646,
    "name": "Bratla",
    "name_ur": "Bratla",
    "type": "village",
    "lat": 33.3441078,
    "lon": 73.9082801,
    "province": "Azad Kashmir",
    "country": "Pakistan",
    "path": "pakistan/AJK/villages/bratla"
  },
  {
    "id": 2463768908,
    "name": "Arja",
    "name_ur": "ارجہ",
    "type": "village",
    "lat": 33.9724848,
    "lon": 73.6561798,
    "province": "Azad Kashmir",
    "country": "Pakistan",
    "path": "pakistan/AJK/villages/arja"
  },
  {
    "id": 2401517864,
    "name": "Chinari",
    "name_ur": "چناری",
    "type": "village",
    "lat": 34.1590396,
    "lon": 73.827006,
    "province": "Azad Kashmir",
    "country": "Pakistan",
    "path": "pakistan/AJK/villages/chinari"
  },
  {
    "id": 11199106504,
    "name": "Mang",
    "name_ur": "منگ",
    "type": "village",
    "lat": 33.7973657,
    "lon": 73.6311154,
    "province": "Azad Kashmir",
    "country": "Pakistan",
    "path": "pakistan/AJK/villages/mang"
  },
  {
    "id": 3127054397,
    "name": "Reshian",
    "name_ur": "Reshian",
    "type": "village",
    "lat": 34.2562183,
    "lon": 73.8221939,
    "province": "Azad Kashmir",
    "country": "Pakistan",
    "path": "pakistan/AJK/villages/reshian"
  },
  {
    "id": 2509049376,
    "name": "Birpani",
    "name_ur": "بیرپانی",
    "type": "village",
    "lat": 34.0479408,
    "lon": 73.7554663,
    "province": "Azad Kashmir",
    "country": "Pakistan",
    "path": "pakistan/AJK/villages/birpani"
  },
  {
    "id": 3561512352,
    "name": "Ghori",
    "name_ur": "Ghori",
    "type": "village",
    "lat": 34.4447673,
    "lon": 73.5033354,
    "province": "Azad Kashmir",
    "country": "Pakistan",
    "path": "pakistan/AJK/villages/ghori"
  },
  {
    "id": 9408414302,
    "name": "Mummaz Pur",
    "name_ur": "مماز پور",
    "type": "village",
    "lat": 32.9477847,
    "lon": 73.819324,
    "province": "Azad Kashmir",
    "country": "Pakistan",
    "path": "pakistan/AJK/villages/mummaz_pur"
  },
  {
    "id": 3633562082,
    "name": "Holar",
    "name_ur": "Holar",
    "type": "village",
    "lat": 33.5925696,
    "lon": 73.6146695,
    "province": "Azad Kashmir",
    "country": "Pakistan",
    "path": "pakistan/AJK/villages/holar"
  },
  {
    "id": 9408414315,
    "name": "Mandi Bhalwal",
    "name_ur": "منڈی بھلوال",
    "type": "village",
    "lat": 32.9769928,
    "lon": 73.8972905,
    "province": "Azad Kashmir",
    "country": "Pakistan",
    "path": "pakistan/AJK/villages/mandi_bhalwal"
  },
  {
    "id": 2622059745,
    "name": "Sharda",
    "name_ur": "شاردہ",
    "type": "village",
    "lat": 34.7932448,
    "lon": 74.1932533,
    "province": "Azad Kashmir",
    "country": "Pakistan",
    "path": "pakistan/AJK/villages/sharda"
  },
  {
    "id": 3575480193,
    "name": "Munasa",
    "name_ur": "مونسہ",
    "type": "village",
    "lat": 34.0769177,
    "lon": 73.5106575,
    "province": "Azad Kashmir",
    "country": "Pakistan",
    "path": "pakistan/AJK/villages/munasa"
  },
  {
    "id": 9408414309,
    "name": "Saadat Pur",
    "name_ur": "سعادت پور",
    "type": "village",
    "lat": 32.978351,
    "lon": 73.8416609,
    "province": "Azad Kashmir",
    "country": "Pakistan",
    "path": "pakistan/AJK/villages/saadat_pur"
  },
  {
    "id": 2673185541,
    "name": "Chhota gala",
    "name_ur": "Chhota gala",
    "type": "village",
    "lat": 33.8150776,
    "lon": 73.8068613,
    "province": "Azad Kashmir",
    "country": "Pakistan",
    "path": "pakistan/AJK/villages/chhota_gala"
  },
  {
    "id": 2622226850,
    "name": "Taobat",
    "name_ur": "تاؤبٹ",
    "type": "village",
    "lat": 34.726412,
    "lon": 74.7104006,
    "province": "Azad Kashmir",
    "country": "Pakistan",
    "path": "pakistan/AJK/villages/taobat"
  },
  {
    "id": 2622275830,
    "name": "Hilmat",
    "name_ur": "ہلمت",
    "type": "village",
    "lat": 34.7544672,
    "lon": 74.6608681,
    "province": "Azad Kashmir",
    "country": "Pakistan",
    "path": "pakistan/AJK/villages/hilmat"
  },
  {
    "id": 11199303737,
    "name": "Hari Ghel",
    "name_ur": "ہاڑی گہل",
    "type": "village",
    "lat": 33.9443816,
    "lon": 73.6996637,
    "province": "Azad Kashmir",
    "country": "Pakistan",
    "path": "pakistan/AJK/villages/hari_ghel"
  },
  {
    "id": 3562436531,
    "name": "Arang Kel",
    "name_ur": "اڑنگ کیل",
    "type": "village",
    "lat": 34.8098403,
    "lon": 74.3497787,
    "province": "Azad Kashmir",
    "country": "Pakistan",
    "path": "pakistan/AJK/villages/arang_kel"
  },
  {
    "id": 7505634638,
    "name": "Keran",
    "name_ur": "کیرن",
    "type": "village",
    "lat": 34.6577576,
    "lon": 73.9393198,
    "province": "Azad Kashmir",
    "country": "Pakistan",
    "path": "pakistan/AJK/villages/keran"
  },
  {
    "id": 2811544031,
    "name": "Tatrinote",
    "name_ur": "تیتری نوٹ",
    "type": "village",
    "lat": 33.7547639,
    "lon": 74.0046625,
    "province": "Azad Kashmir",
    "country": "Pakistan",
    "path": "pakistan/AJK/villages/tatrinote"
  },
  {
    "id": 3561681814,
    "name": "Chilhana",
    "name_ur": "چلہانہ",
    "type": "city",
    "lat": 34.3918709,
    "lon": 73.770048,
    "province": "Azad Kashmir",
    "country": "Pakistan",
    "path": "pakistan/AJK/cities/chilhana"
  },
  {
    "id": 2466220830,
    "name": "Tatta Pani",
    "name_ur": "تتہ پانی",
    "type": "city",
    "lat": 33.6055693,
    "lon": 73.9481382,
    "province": "Azad Kashmir",
    "country": "Pakistan",
    "path": "pakistan/AJK/cities/tatta_pani"
  },
  {
    "id": 2464902148,
    "name": "Dhirkot",
    "name_ur": "دھیر کوٹ",
    "type": "city",
    "lat": 34.0356985,
    "lon": 73.5797927,
    "province": "Azad Kashmir",
    "country": "Pakistan",
    "path": "pakistan/AJK/cities/dhirkot"
  },
  {
    "id": 2622101785,
    "name": "Athmuqam",
    "name_ur": "آٹھمقام",
    "type": "city",
    "lat": 34.586458,
    "lon": 73.9119618,
    "province": "Azad Kashmir",
    "country": "Pakistan",
    "path": "pakistan/AJK/cities/athmuqam"
  },
  {
    "id": 3412033617,
    "name": "Islamgarh",
    "name_ur": "اسلام گڑھ",
    "type": "city",
    "lat": 33.1917711,
    "lon": 73.8336051,
    "province": "Azad Kashmir",
    "country": "Pakistan",
    "path": "pakistan/AJK/cities/islamgarh"
  },
  {
    "id": 9500007281,
    "name": "Garhi Dupatta",
    "name_ur": "گڑھی دوپٹہ",
    "type": "city",
    "lat": 34.2303103,
    "lon": 73.6141846,
    "province": "Azad Kashmir",
    "country": "Pakistan",
    "path": "pakistan/AJK/cities/garhi_dupatta"
  },
  {
    "id": 2466218181,
    "name": "Palandri",
    "name_ur": "پلندری",
    "type": "city",
    "lat": 33.7181112,
    "lon": 73.6882861,
    "province": "Azad Kashmir",
    "country": "Pakistan",
    "path": "pakistan/AJK/cities/palandri"
  },
  {
    "id": 2466220579,
    "name": "Hajira",
    "name_ur": "ہجیرہ",
    "type": "city",
    "lat": 33.7715514,
    "lon": 73.8967864,
    "province": "Azad Kashmir",
    "country": "Pakistan",
    "path": "pakistan/AJK/cities/hajira"
  },
  {
    "id": 212677583,
    "name": "Muzaffarabad",
    "name_ur": "مظفر آباد",
    "type": "city",
    "lat": 34.3734751,
    "lon": 73.4702407,
    "province": "Azad Kashmir",
    "country": "Pakistan",
    "path": "pakistan/AJK/cities/muzaffarabad"
  },
  {
    "id": 2499406203,
    "name": "Samahni",
    "name_ur": "سماہنی",
    "type": "city",
    "lat": 33.0906236,
    "lon": 74.1351956,
    "province": "Azad Kashmir",
    "country": "Pakistan",
    "path": "pakistan/AJK/cities/samahni"
  },
  {
    "id": 2508615502,
    "name": "Jatlan",
    "name_ur": "جاتلاں",
    "type": "city",
    "lat": 33.0351788,
    "lon": 73.8425626,
    "province": "Azad Kashmir",
    "country": "Pakistan",
    "path": "pakistan/AJK/cities/jatlan"
  },
  {
    "id": 2457145202,
    "name": "Mirpur",
    "name_ur": "میرپور",
    "type": "city",
    "lat": 33.1486351,
    "lon": 73.7482102,
    "province": "Azad Kashmir",
    "country": "Pakistan",
    "path": "pakistan/AJK/cities/mirpur"
  },
  {
    "id": 2466167311,
    "name": "Tarar Khel",
    "name_ur": "تراڑکھل‎",
    "type": "city",
    "lat": 33.7619741,
    "lon": 73.7874464,
    "province": "Azad Kashmir",
    "country": "Pakistan",
    "path": "pakistan/AJK/cities/tarar_khel"
  },
  {
    "id": 5532307540,
    "name": "Khui Ratta",
    "name_ur": "کھوئی رٹہ‬",
    "type": "city",
    "lat": 33.3534145,
    "lon": 74.0263276,
    "province": "Azad Kashmir",
    "country": "Pakistan",
    "path": "pakistan/AJK/cities/khui_ratta"
  },
  {
    "id": 5531917208,
    "name": "Bhimber",
    "name_ur": "بھمبر",
    "type": "city",
    "lat": 32.9740589,
    "lon": 74.0738531,
    "province": "Azad Kashmir",
    "country": "Pakistan",
    "path": "pakistan/AJK/cities/bhimber"
  },
  {
    "id": 3412033618,
    "name": "Chakswari",
    "name_ur": "چکسواری",
    "type": "city",
    "lat": 33.2658712,
    "lon": 73.7840143,
    "province": "Azad Kashmir",
    "country": "Pakistan",
    "path": "pakistan/AJK/cities/chakswari"
  },
  {
    "id": 2016137778,
    "name": "Kotli",
    "name_ur": "کوٹلی",
    "type": "city",
    "lat": 33.5216412,
    "lon": 73.9076096,
    "province": "Azad Kashmir",
    "country": "Pakistan",
    "path": "pakistan/AJK/cities/kotli"
  },
  {
    "id": 2676932805,
    "name": "Dadyal",
    "name_ur": "ڈڈیال",
    "type": "city",
    "lat": 33.3434555,
    "lon": 73.6926437,
    "province": "Azad Kashmir",
    "country": "Pakistan",
    "path": "pakistan/AJK/cities/dadyal"
  },
  {
    "id": 2622463475,
    "name": "Kel",
    "name_ur": "کیل",
    "type": "city",
    "lat": 34.8242518,
    "lon": 74.352284,
    "province": "Azad Kashmir",
    "country": "Pakistan",
    "path": "pakistan/AJK/cities/kel"
  },
  {
    "id": 12805109499,
    "name": "Chattar Kalas",
    "name_ur": "چھتر کلاس",
    "type": "city",
    "lat": 34.2067606,
    "lon": 73.4997033,
    "province": "Azad Kashmir",
    "country": "Pakistan",
    "path": "pakistan/AJK/cities/chattar_kalas"
  },
  {
    "id": 13097228789,
    "name": "Goharabad",
    "name_ur": "گوہر آباد",
    "type": "city",
    "lat": 34.1794631,
    "lon": 73.7720581,
    "province": "Azad Kashmir",
    "country": "Pakistan",
    "path": "pakistan/AJK/cities/goharabad"
  },
  {
    "id": 2016139765,
    "name": "Rawalakot",
    "name_ur": "راولا کوٹ",
    "type": "city",
    "lat": 33.8572284,
    "lon": 73.7605747,
    "province": "Azad Kashmir",
    "country": "Pakistan",
    "path": "pakistan/AJK/cities/rawalakot"
  },
  {
    "id": 3407939992,
    "name": "Charhoi",
    "name_ur": "چڑہوئی",
    "type": "city",
    "lat": 33.3029173,
    "lon": 73.9565793,
    "province": "Azad Kashmir",
    "country": "Pakistan",
    "path": "pakistan/AJK/cities/charhoi"
  },
  {
    "id": 2401517863,
    "name": "Hattian Bala",
    "name_ur": "ہٹیاں بالا",
    "type": "city",
    "lat": 34.170579,
    "lon": 73.7428353,
    "province": "Azad Kashmir",
    "country": "Pakistan",
    "path": "pakistan/AJK/cities/hattian_bala"
  },
  {
    "id": 2674695324,
    "name": "Abbaspur",
    "name_ur": "عباس پور",
    "type": "city",
    "lat": 33.813778,
    "lon": 73.9765042,
    "province": "Azad Kashmir",
    "country": "Pakistan",
    "path": "pakistan/AJK/cities/abbaspur"
  },
  {
    "id": 2509048715,
    "name": "Chikkar",
    "name_ur": "چکار",
    "type": "city",
    "lat": 34.1492438,
    "lon": 73.6765,
    "province": "Azad Kashmir",
    "country": "Pakistan",
    "path": "pakistan/AJK/cities/chikkar"
  },
  {
    "id": 2450426721,
    "name": "Barnala",
    "name_ur": "برنالہ",
    "type": "city",
    "lat": 32.8701702,
    "lon": 74.2473048,
    "province": "Azad Kashmir",
    "country": "Pakistan",
    "path": "pakistan/AJK/cities/barnala"
  },
  {
    "id": 9110869957,
    "name": "Sehnsa",
    "name_ur": "سہنسہ",
    "type": "city",
    "lat": 33.5134367,
    "lon": 73.7555661,
    "province": "Azad Kashmir",
    "country": "Pakistan",
    "path": "pakistan/AJK/cities/sehnsa"
  },
  {
    "id": 3561581428,
    "name": "Patikka",
    "name_ur": "پٹیکا",
    "type": "city",
    "lat": 34.4527101,
    "lon": 73.5536229,
    "province": "Azad Kashmir",
    "country": "Pakistan",
    "path": "pakistan/AJK/cities/patikka"
  },
  {
    "id": 2637926468,
    "name": "Fatehpur Thakiala",
    "name_ur": "فتح پور تھکیالہ",
    "type": "city",
    "lat": 33.4873553,
    "lon": 74.1045181,
    "province": "Azad Kashmir",
    "country": "Pakistan",
    "path": "pakistan/AJK/cities/fatehpur_thakiala"
  },
  {
    "id": 2463768909,
    "name": "Bagh",
    "name_ur": "باغ",
    "type": "city",
    "lat": 33.9800085,
    "lon": 73.7737878,
    "province": "Azad Kashmir",
    "country": "Pakistan",
    "path": "pakistan/AJK/cities/bagh"
  },
  {
    "id": 2674313017,
    "name": "Forward Kahuta",
    "name_ur": "فارورڈ کہوٹہ",
    "type": "city",
    "lat": 33.88374,
    "lon": 74.1046671,
    "province": "Azad Kashmir",
    "country": "Pakistan",
    "path": "pakistan/AJK/cities/forward_kahuta"
  },
  {
    "id": 2466216418,
    "name": "Khai Gala",
    "name_ur": "کھائیگلا",
    "type": "city",
    "lat": 33.8468505,
    "lon": 73.8293698,
    "province": "Azad Kashmir",
    "country": "Pakistan",
    "path": "pakistan/AJK/cities/khai_gala"
  },
  {
    "id": 2401413659,
    "name": "Chakothi",
    "name_ur": "چکوٹھی",
    "type": "city",
    "lat": 34.115536,
    "lon": 73.8820364,
    "province": "Azad Kashmir",
    "country": "Pakistan",
    "path": "pakistan/AJK/cities/chakothi"
  },
  {
    "id": 2816160080,
    "name": "Gulpur",
    "name_ur": "گل پور",
    "type": "city",
    "lat": 33.4371072,
    "lon": 73.857041,
    "province": "Azad Kashmir",
    "country": "Pakistan",
    "path": "pakistan/AJK/cities/gulpur"
  },
  {
    "id": 9461684301,
    "name": "Shahab Khel",
    "name_ur": "شہاب خیل",
    "type": "village",
    "lat": 33.9318452,
    "lon": 72.0506793,
    "province": "Khyber Pakhtunkhwa",
    "country": "Pakistan",
    "path": "pakistan/KPK/villages/shahab_khel"
  },
  {
    "id": 866466041,
    "name": "Ziarat Kaka Sahib",
    "name_ur": "زیارت کاکا صاحب",
    "type": "village",
    "lat": 33.9270307,
    "lon": 72.0357403,
    "province": "Khyber Pakhtunkhwa",
    "country": "Pakistan",
    "path": "pakistan/KPK/villages/ziarat_kaka_sahib"
  },
  {
    "id": 857596453,
    "name": "Mandani",
    "name_ur": "مندنی",
    "type": "village",
    "lat": 34.3448078,
    "lon": 71.7864319,
    "province": "Khyber Pakhtunkhwa",
    "country": "Pakistan",
    "path": "pakistan/KPK/villages/mandani"
  },
  {
    "id": 9552510682,
    "name": "Garyala",
    "name_ur": "گریالا",
    "type": "village",
    "lat": 34.2683601,
    "lon": 72.2189995,
    "province": "Khyber Pakhtunkhwa",
    "country": "Pakistan",
    "path": "pakistan/KPK/villages/garyala"
  },
  {
    "id": 745466067,
    "name": "Gandaf",
    "name_ur": "گندف",
    "type": "village",
    "lat": 34.1204895,
    "lon": 72.6875607,
    "province": "Khyber Pakhtunkhwa",
    "country": "Pakistan",
    "path": "pakistan/KPK/villages/gandaf"
  },
  {
    "id": 3522698255,
    "name": "Bumburait",
    "name_ur": "بمبوریت",
    "type": "village",
    "lat": 35.693087,
    "lon": 71.6750459,
    "province": "Khyber Pakhtunkhwa",
    "country": "Pakistan",
    "path": "pakistan/KPK/villages/bumburait"
  },
  {
    "id": 8883981511,
    "name": "Ghazikot",
    "name_ur": "غازی کوٹ",
    "type": "village",
    "lat": 34.152633,
    "lon": 72.2893396,
    "province": "Khyber Pakhtunkhwa",
    "country": "Pakistan",
    "path": "pakistan/KPK/villages/ghazikot"
  },
  {
    "id": 2644624211,
    "name": "Shingli Payeen",
    "name_ur": "شنگلی پائیں",
    "type": "village",
    "lat": 34.6851705,
    "lon": 72.9812087,
    "province": "Khyber Pakhtunkhwa",
    "country": "Pakistan",
    "path": "pakistan/KPK/villages/shingli_payeen"
  },
  {
    "id": 4557951820,
    "name": "Sangota",
    "name_ur": "Sangota",
    "type": "village",
    "lat": 34.7938373,
    "lon": 72.4155191,
    "province": "Khyber Pakhtunkhwa",
    "country": "Pakistan",
    "path": "pakistan/KPK/villages/sangota"
  },
  {
    "id": 857267316,
    "name": "Dhakki",
    "name_ur": "ڈھکی",
    "type": "village",
    "lat": 34.3043699,
    "lon": 71.7740166,
    "province": "Khyber Pakhtunkhwa",
    "country": "Pakistan",
    "path": "pakistan/KPK/villages/dhakki"
  },
  {
    "id": 871955593,
    "name": "Takhti Khel",
    "name_ur": "تختی خیل",
    "type": "village",
    "lat": 32.8056913,
    "lon": 70.6478991,
    "province": "Khyber Pakhtunkhwa",
    "country": "Pakistan",
    "path": "pakistan/KPK/villages/takhti_khel"
  },
  {
    "id": 13592722097,
    "name": "Panjigram",
    "name_ur": "Panjigram",
    "type": "village",
    "lat": 34.7337523,
    "lon": 72.2767563,
    "province": "Khyber Pakhtunkhwa",
    "country": "Pakistan",
    "path": "pakistan/KPK/villages/panjigram"
  },
  {
    "id": 4991892598,
    "name": "Dewana Baba",
    "name_ur": "ديوانه بابا",
    "type": "village",
    "lat": 34.4743611,
    "lon": 72.5875561,
    "province": "Khyber Pakhtunkhwa",
    "country": "Pakistan",
    "path": "pakistan/KPK/villages/dewana_baba"
  },
  {
    "id": 4404041560,
    "name": "Tarakai",
    "name_ur": "ترکئی",
    "type": "village",
    "lat": 34.188611,
    "lon": 72.325556,
    "province": "Khyber Pakhtunkhwa",
    "country": "Pakistan",
    "path": "pakistan/KPK/villages/tarakai"
  },
  {
    "id": 11267308751,
    "name": "Kalaya",
    "name_ur": "کلایہ",
    "type": "village",
    "lat": 33.7474754,
    "lon": 70.9621031,
    "province": "Khyber Pakhtunkhwa",
    "country": "Pakistan",
    "path": "pakistan/KPK/villages/kalaya"
  },
  {
    "id": 872477785,
    "name": "Kot Kashmir",
    "name_ur": "کوٹ کشمیر",
    "type": "village",
    "lat": 32.7413176,
    "lon": 70.7127871,
    "province": "Khyber Pakhtunkhwa",
    "country": "Pakistan",
    "path": "pakistan/KPK/villages/kot_kashmir"
  },
  {
    "id": 1741010860,
    "name": "Mullazai",
    "name_ur": "ملازئی",
    "type": "village",
    "lat": 32.4140943,
    "lon": 70.4655639,
    "province": "Khyber Pakhtunkhwa",
    "country": "Pakistan",
    "path": "pakistan/KPK/villages/mullazai"
  },
  {
    "id": 866558697,
    "name": "Adezai",
    "name_ur": "آدیزئی",
    "type": "village",
    "lat": 33.7871153,
    "lon": 71.5746579,
    "province": "Khyber Pakhtunkhwa",
    "country": "Pakistan",
    "path": "pakistan/KPK/villages/adezai"
  },
  {
    "id": 8909408240,
    "name": "Nasir Kandi",
    "name_ur": "نصير کندی",
    "type": "village",
    "lat": 34.0129187,
    "lon": 71.7567177,
    "province": "Khyber Pakhtunkhwa",
    "country": "Pakistan",
    "path": "pakistan/KPK/villages/nasir_kandi"
  },
  {
    "id": 9546677779,
    "name": "Jhanda",
    "name_ur": "جھنڈا",
    "type": "village",
    "lat": 34.1505924,
    "lon": 72.5763725,
    "province": "Khyber Pakhtunkhwa",
    "country": "Pakistan",
    "path": "pakistan/KPK/villages/jhanda"
  },
  {
    "id": 8856369124,
    "name": "Khanmahi",
    "name_ur": "خان ماہی",
    "type": "village",
    "lat": 34.2257348,
    "lon": 71.8744914,
    "province": "Khyber Pakhtunkhwa",
    "country": "Pakistan",
    "path": "pakistan/KPK/villages/khanmahi"
  },
  {
    "id": 861237710,
    "name": "پیر پیائی",
    "name_ur": "پیر پیائی",
    "type": "village",
    "lat": 33.9950499,
    "lon": 71.9031043,
    "province": "Khyber Pakhtunkhwa",
    "country": "Pakistan",
    "path": "pakistan/KPK/villages/_"
  },
  {
    "id": 12014000466,
    "name": "Jano",
    "name_ur": "جانو",
    "type": "village",
    "lat": 34.9397097,
    "lon": 72.4890145,
    "province": "Khyber Pakhtunkhwa",
    "country": "Pakistan",
    "path": "pakistan/KPK/villages/jano"
  },
  {
    "id": 2644624263,
    "name": "Shingli Bala",
    "name_ur": "شنگلی بالا",
    "type": "village",
    "lat": 34.6781817,
    "lon": 72.9848327,
    "province": "Khyber Pakhtunkhwa",
    "country": "Pakistan",
    "path": "pakistan/KPK/villages/shingli_bala"
  },
  {
    "id": 867054008,
    "name": "Torawari",
    "name_ur": "طوراوڑی",
    "type": "village",
    "lat": 33.4847576,
    "lon": 70.7036174,
    "province": "Khyber Pakhtunkhwa",
    "country": "Pakistan",
    "path": "pakistan/KPK/villages/torawari"
  },
  {
    "id": 4989304091,
    "name": "Qadar Nagar",
    "name_ur": "قادر نگر",
    "type": "village",
    "lat": 34.6391014,
    "lon": 72.469993,
    "province": "Khyber Pakhtunkhwa",
    "country": "Pakistan",
    "path": "pakistan/KPK/villages/qadar_nagar"
  },
  {
    "id": 2622025432,
    "name": "Jalkhad",
    "name_ur": "جل کھنڈ",
    "type": "village",
    "lat": 34.9997757,
    "lon": 73.9372105,
    "province": "Khyber Pakhtunkhwa",
    "country": "Pakistan",
    "path": "pakistan/KPK/villages/jalkhad"
  },
  {
    "id": 12511042606,
    "name": "Shalfalam",
    "name_ur": "شلفلام",
    "type": "village",
    "lat": 34.9142758,
    "lon": 71.9936745,
    "province": "Khyber Pakhtunkhwa",
    "country": "Pakistan",
    "path": "pakistan/KPK/villages/shalfalam"
  },
  {
    "id": 867053975,
    "name": "Nariab",
    "name_ur": "نریاب",
    "type": "village",
    "lat": 33.4827647,
    "lon": 70.7821959,
    "province": "Khyber Pakhtunkhwa",
    "country": "Pakistan",
    "path": "pakistan/KPK/villages/nariab"
  },
  {
    "id": 859241821,
    "name": "Akbarpura",
    "name_ur": "اکبر پورہ",
    "type": "village",
    "lat": 34.0582499,
    "lon": 71.7207451,
    "province": "Khyber Pakhtunkhwa",
    "country": "Pakistan",
    "path": "pakistan/KPK/villages/akbarpura"
  },
  {
    "id": 11253351997,
    "name": "Spinkai",
    "name_ur": "سپینکائی",
    "type": "village",
    "lat": 32.3700816,
    "lon": 70.0915026,
    "province": "Khyber Pakhtunkhwa",
    "country": "Pakistan",
    "path": "pakistan/KPK/villages/spinkai"
  },
  {
    "id": 7721781563,
    "name": "Bandi Shungli",
    "name_ur": "بانڈی شنگلی",
    "type": "village",
    "lat": 34.4812519,
    "lon": 72.9351064,
    "province": "Khyber Pakhtunkhwa",
    "country": "Pakistan",
    "path": "pakistan/KPK/villages/bandi_shungli"
  },
  {
    "id": 11267308750,
    "name": "Ghiljo Bazar",
    "name_ur": "غلجو بازار",
    "type": "village",
    "lat": 33.6357821,
    "lon": 70.851764,
    "province": "Khyber Pakhtunkhwa",
    "country": "Pakistan",
    "path": "pakistan/KPK/villages/ghiljo_bazar"
  },
  {
    "id": 9550324627,
    "name": "Charbagh",
    "name_ur": "چارباغ",
    "type": "village",
    "lat": 34.1765767,
    "lon": 72.4004026,
    "province": "Khyber Pakhtunkhwa",
    "country": "Pakistan",
    "path": "pakistan/KPK/villages/charbagh"
  },
  {
    "id": 9546262436,
    "name": "Kandar",
    "name_ur": "کنڈرے",
    "type": "village",
    "lat": 34.1596367,
    "lon": 72.1556798,
    "province": "Khyber Pakhtunkhwa",
    "country": "Pakistan",
    "path": "pakistan/KPK/villages/kandar"
  },
  {
    "id": 12123213367,
    "name": "Kaka Khel",
    "name_ur": "کاکا خیل",
    "type": "village",
    "lat": 32.5482253,
    "lon": 70.7951971,
    "province": "Khyber Pakhtunkhwa",
    "country": "Pakistan",
    "path": "pakistan/KPK/villages/kaka_khel"
  },
  {
    "id": 860121035,
    "name": "Musa Zai",
    "name_ur": "موسیٰ زئی",
    "type": "village",
    "lat": 33.9718,
    "lon": 71.607906,
    "province": "Khyber Pakhtunkhwa",
    "country": "Pakistan",
    "path": "pakistan/KPK/villages/musa_zai"
  },
  {
    "id": 5431328281,
    "name": "Hamsherian",
    "name_ur": "ہمشیریاں",
    "type": "village",
    "lat": 34.3873646,
    "lon": 73.1693164,
    "province": "Khyber Pakhtunkhwa",
    "country": "Pakistan",
    "path": "pakistan/KPK/villages/hamsherian"
  },
  {
    "id": 8883567984,
    "name": "Qazi Pur",
    "name_ur": "قاضی پور",
    "type": "village",
    "lat": 33.9913557,
    "lon": 72.6032136,
    "province": "Khyber Pakhtunkhwa",
    "country": "Pakistan",
    "path": "pakistan/KPK/villages/qazi_pur"
  },
  {
    "id": 2468677383,
    "name": "Khanaspur",
    "name_ur": "خانسپور‎",
    "type": "village",
    "lat": 34.0211224,
    "lon": 73.4220542,
    "province": "Khyber Pakhtunkhwa",
    "country": "Pakistan",
    "path": "pakistan/KPK/villages/khanaspur"
  },
  {
    "id": 8883567967,
    "name": "Sheikh Chor",
    "name_ur": "شیخ چوڑ",
    "type": "village",
    "lat": 33.9708219,
    "lon": 72.555192,
    "province": "Khyber Pakhtunkhwa",
    "country": "Pakistan",
    "path": "pakistan/KPK/villages/sheikh_chor"
  },
  {
    "id": 872477788,
    "name": "Gandi Khān Khel",
    "name_ur": "Gandi Khān Khel",
    "type": "village",
    "lat": 32.7466598,
    "lon": 70.7670321,
    "province": "Khyber Pakhtunkhwa",
    "country": "Pakistan",
    "path": "pakistan/KPK/villages/gandi_khn_khel"
  },
  {
    "id": 1740990742,
    "name": "Jandola",
    "name_ur": "جنڈولہ",
    "type": "village",
    "lat": 32.3339941,
    "lon": 70.1219562,
    "province": "Khyber Pakhtunkhwa",
    "country": "Pakistan",
    "path": "pakistan/KPK/villages/jandola"
  },
  {
    "id": 8884062704,
    "name": "Seri Bahlol",
    "name_ur": "سھری بالول",
    "type": "village",
    "lat": 34.2559044,
    "lon": 71.9509505,
    "province": "Khyber Pakhtunkhwa",
    "country": "Pakistan",
    "path": "pakistan/KPK/villages/seri_bahlol"
  },
  {
    "id": 871965181,
    "name": "Landiwah",
    "name_ur": "Landiwah",
    "type": "village",
    "lat": 32.752146,
    "lon": 70.9649576,
    "province": "Khyber Pakhtunkhwa",
    "country": "Pakistan",
    "path": "pakistan/KPK/villages/landiwah"
  },
  {
    "id": 5186595359,
    "name": "Zarobi",
    "name_ur": "زروبی",
    "type": "village",
    "lat": 34.0313544,
    "lon": 72.5642712,
    "province": "Khyber Pakhtunkhwa",
    "country": "Pakistan",
    "path": "pakistan/KPK/villages/zarobi"
  },
  {
    "id": 866502572,
    "name": "Spin Khak",
    "name_ur": "سپین خاک",
    "type": "village",
    "lat": 33.8652507,
    "lon": 71.7668009,
    "province": "Khyber Pakhtunkhwa",
    "country": "Pakistan",
    "path": "pakistan/KPK/villages/spin_khak"
  },
  {
    "id": 10669404138,
    "name": "Ghoriwala",
    "name_ur": "غوریوالہ",
    "type": "village",
    "lat": 32.9034175,
    "lon": 70.7236359,
    "province": "Khyber Pakhtunkhwa",
    "country": "Pakistan",
    "path": "pakistan/KPK/villages/ghoriwala"
  },
  {
    "id": 872359406,
    "name": "Shahāb Khel",
    "name_ur": "Shahāb Khel",
    "type": "village",
    "lat": 32.7333759,
    "lon": 71.0176577,
    "province": "Khyber Pakhtunkhwa",
    "country": "Pakistan",
    "path": "pakistan/KPK/villages/shahb_khel"
  },
  {
    "id": 3122120514,
    "name": "Pulrah",
    "name_ur": "پھلرا",
    "type": "village",
    "lat": 34.3350627,
    "lon": 73.0562755,
    "province": "Khyber Pakhtunkhwa",
    "country": "Pakistan",
    "path": "pakistan/KPK/villages/pulrah"
  },
  {
    "id": 866502516,
    "name": "Cherat",
    "name_ur": "چیرات",
    "type": "village",
    "lat": 33.8241769,
    "lon": 71.8965727,
    "province": "Khyber Pakhtunkhwa",
    "country": "Pakistan",
    "path": "pakistan/KPK/villages/cherat"
  },
  {
    "id": 2794738410,
    "name": "Wartair",
    "name_ur": "وارتایر",
    "type": "village",
    "lat": 34.5180215,
    "lon": 71.9520796,
    "province": "Khyber Pakhtunkhwa",
    "country": "Pakistan",
    "path": "pakistan/KPK/villages/wartair"
  },
  {
    "id": 9416315824,
    "name": "Chapri",
    "name_ur": "چھپری",
    "type": "village",
    "lat": 33.8231743,
    "lon": 71.8566885,
    "province": "Khyber Pakhtunkhwa",
    "country": "Pakistan",
    "path": "pakistan/KPK/villages/chapri"
  },
  {
    "id": 7819496891,
    "name": "Peshawar Cantonment",
    "name_ur": "پشاور چھاؤنی",
    "type": "city",
    "lat": 33.998598,
    "lon": 71.533832,
    "province": "Khyber Pakhtunkhwa",
    "country": "Pakistan",
    "path": "pakistan/KPK/cities/peshawar_cantonment"
  },
  {
    "id": 366079598,
    "name": "Nathia Gali",
    "name_ur": "نتھیا گلی‎",
    "type": "city",
    "lat": 34.0683118,
    "lon": 73.3927263,
    "province": "Khyber Pakhtunkhwa",
    "country": "Pakistan",
    "path": "pakistan/KPK/cities/nathia_gali"
  },
  {
    "id": 114141293,
    "name": "Abbottabad",
    "name_ur": "ایبٹ آباد",
    "type": "city",
    "lat": 34.1436136,
    "lon": 73.2132747,
    "province": "Khyber Pakhtunkhwa",
    "country": "Pakistan",
    "path": "pakistan/KPK/cities/abbottabad"
  },
  {
    "id": 294107164,
    "name": "Peshawar",
    "name_ur": "پشاور‎",
    "type": "city",
    "lat": 34.0123846,
    "lon": 71.5787458,
    "province": "Khyber Pakhtunkhwa",
    "country": "Pakistan",
    "path": "pakistan/KPK/cities/peshawar"
  },
  {
    "id": 11524177163,
    "name": "Bilkanai",
    "name_ur": "بلکانی",
    "type": "city",
    "lat": 35.0297393,
    "lon": 72.7520577,
    "province": "Khyber Pakhtunkhwa",
    "country": "Pakistan",
    "path": "pakistan/KPK/cities/bilkanai"
  },
  {
    "id": 11524066282,
    "name": "Rahat Kot",
    "name_ur": "راحت کوٹ",
    "type": "city",
    "lat": 35.0760665,
    "lon": 72.478279,
    "province": "Khyber Pakhtunkhwa",
    "country": "Pakistan",
    "path": "pakistan/KPK/cities/rahat_kot"
  },
  {
    "id": 3069084384,
    "name": "Mayar",
    "name_ur": "معیار",
    "type": "city",
    "lat": 34.8869192,
    "lon": 71.6618644,
    "province": "Khyber Pakhtunkhwa",
    "country": "Pakistan",
    "path": "pakistan/KPK/cities/mayar"
  },
  {
    "id": 279827441,
    "name": "Parachinar",
    "name_ur": "پاڑہ چنار",
    "type": "city",
    "lat": 33.8967938,
    "lon": 70.1000564,
    "province": "Khyber Pakhtunkhwa",
    "country": "Pakistan",
    "path": "pakistan/KPK/cities/parachinar"
  },
  {
    "id": 299050028,
    "name": "Dir",
    "name_ur": "دیر",
    "type": "city",
    "lat": 35.2080144,
    "lon": 71.8779773,
    "province": "Khyber Pakhtunkhwa",
    "country": "Pakistan",
    "path": "pakistan/KPK/cities/dir"
  },
  {
    "id": 11244164435,
    "name": "Barawal Bandi",
    "name_ur": "براول بانڈی",
    "type": "city",
    "lat": 35.0899148,
    "lon": 71.7639907,
    "province": "Khyber Pakhtunkhwa",
    "country": "Pakistan",
    "path": "pakistan/KPK/cities/barawal_bandi"
  },
  {
    "id": 12011397570,
    "name": "Qandil",
    "name_ur": "قندیل",
    "type": "city",
    "lat": 35.1021652,
    "lon": 72.5007212,
    "province": "Khyber Pakhtunkhwa",
    "country": "Pakistan",
    "path": "pakistan/KPK/cities/qandil"
  },
  {
    "id": 866873573,
    "name": "Doaba",
    "name_ur": "دو آبہ",
    "type": "city",
    "lat": 33.4250135,
    "lon": 70.7362943,
    "province": "Khyber Pakhtunkhwa",
    "country": "Pakistan",
    "path": "pakistan/KPK/cities/doaba"
  },
  {
    "id": 11258128395,
    "name": "Paniala",
    "name_ur": "پنیالہ",
    "type": "city",
    "lat": 32.2435746,
    "lon": 70.8828678,
    "province": "Khyber Pakhtunkhwa",
    "country": "Pakistan",
    "path": "pakistan/KPK/cities/paniala"
  },
  {
    "id": 868379829,
    "name": "Shaidu",
    "name_ur": "شیدو",
    "type": "city",
    "lat": 33.9781381,
    "lon": 72.1829527,
    "province": "Khyber Pakhtunkhwa",
    "country": "Pakistan",
    "path": "pakistan/KPK/cities/shaidu"
  },
  {
    "id": 868363810,
    "name": "Kahi",
    "name_ur": "کـآ ھی",
    "type": "city",
    "lat": 33.8187919,
    "lon": 72.0849038,
    "province": "Khyber Pakhtunkhwa",
    "country": "Pakistan",
    "path": "pakistan/KPK/cities/kahi"
  },
  {
    "id": 8884062667,
    "name": "Sawal Dher",
    "name_ur": "ساولڈھیر",
    "type": "city",
    "lat": 34.310127,
    "lon": 72.1025395,
    "province": "Khyber Pakhtunkhwa",
    "country": "Pakistan",
    "path": "pakistan/KPK/cities/sawal_dher"
  },
  {
    "id": 3122425129,
    "name": "Oghi",
    "name_ur": "اوگئی",
    "type": "city",
    "lat": 34.4973045,
    "lon": 73.0160443,
    "province": "Khyber Pakhtunkhwa",
    "country": "Pakistan",
    "path": "pakistan/KPK/cities/oghi"
  },
  {
    "id": 8459363178,
    "name": "Yar Hussain",
    "name_ur": "یار حسین",
    "type": "city",
    "lat": 34.1718652,
    "lon": 72.2725207,
    "province": "Khyber Pakhtunkhwa",
    "country": "Pakistan",
    "path": "pakistan/KPK/cities/yar_hussain"
  },
  {
    "id": 2825197632,
    "name": "Puran",
    "name_ur": "پورَن",
    "type": "city",
    "lat": 34.7388512,
    "lon": 72.6839191,
    "province": "Khyber Pakhtunkhwa",
    "country": "Pakistan",
    "path": "pakistan/KPK/cities/puran"
  },
  {
    "id": 4557925242,
    "name": "Matta",
    "name_ur": "مٹہ",
    "type": "city",
    "lat": 34.925581,
    "lon": 72.4144319,
    "province": "Khyber Pakhtunkhwa",
    "country": "Pakistan",
    "path": "pakistan/KPK/cities/matta"
  },
  {
    "id": 8883991774,
    "name": "Shahbaz Garhi",
    "name_ur": "شھباز گڑھی",
    "type": "city",
    "lat": 34.2261033,
    "lon": 72.158866,
    "province": "Khyber Pakhtunkhwa",
    "country": "Pakistan",
    "path": "pakistan/KPK/cities/shahbaz_garhi"
  },
  {
    "id": 11244467639,
    "name": "Adenzai",
    "name_ur": "آدنزئی",
    "type": "city",
    "lat": 34.7315348,
    "lon": 72.0246147,
    "province": "Khyber Pakhtunkhwa",
    "country": "Pakistan",
    "path": "pakistan/KPK/cities/adenzai"
  },
  {
    "id": 881438409,
    "name": "Rahim Abad",
    "name_ur": "رحیم آباد",
    "type": "city",
    "lat": 34.7697953,
    "lon": 72.3380463,
    "province": "Khyber Pakhtunkhwa",
    "country": "Pakistan",
    "path": "pakistan/KPK/cities/rahim_abad"
  },
  {
    "id": 8488590709,
    "name": "Karak",
    "name_ur": "کرک",
    "type": "city",
    "lat": 33.1160464,
    "lon": 71.0950863,
    "province": "Khyber Pakhtunkhwa",
    "country": "Pakistan",
    "path": "pakistan/KPK/cities/karak"
  },
  {
    "id": 4306301781,
    "name": "Shorkot",
    "name_ur": "شورکوٹ",
    "type": "city",
    "lat": 31.9098181,
    "lon": 70.8788263,
    "province": "Khyber Pakhtunkhwa",
    "country": "Pakistan",
    "path": "pakistan/KPK/cities/shorkot"
  },
  {
    "id": 868965693,
    "name": "Ghazi",
    "name_ur": "غازی",
    "type": "city",
    "lat": 34.0179029,
    "lon": 72.6555982,
    "province": "Khyber Pakhtunkhwa",
    "country": "Pakistan",
    "path": "pakistan/KPK/cities/ghazi"
  },
  {
    "id": 8883747127,
    "name": "Bam Khel",
    "name_ur": "بام خیل",
    "type": "city",
    "lat": 34.099342,
    "lon": 72.5306324,
    "province": "Khyber Pakhtunkhwa",
    "country": "Pakistan",
    "path": "pakistan/KPK/cities/bam_khel"
  },
  {
    "id": 2621926505,
    "name": "Garhi Habibullah",
    "name_ur": "گڑھی حبیب اللہ",
    "type": "city",
    "lat": 34.4006901,
    "lon": 73.378452,
    "province": "Khyber Pakhtunkhwa",
    "country": "Pakistan",
    "path": "pakistan/KPK/cities/garhi_habibullah"
  },
  {
    "id": 2375476376,
    "name": "Chattar Plain",
    "name_ur": "چھتر پلین",
    "type": "city",
    "lat": 34.6151864,
    "lon": 73.1183728,
    "province": "Khyber Pakhtunkhwa",
    "country": "Pakistan",
    "path": "pakistan/KPK/cities/chattar_plain"
  },
  {
    "id": 3068642614,
    "name": "Thana",
    "name_ur": "تھانہ",
    "type": "city",
    "lat": 34.636881,
    "lon": 72.0738791,
    "province": "Khyber Pakhtunkhwa",
    "country": "Pakistan",
    "path": "pakistan/KPK/cities/thana"
  },
  {
    "id": 8574278149,
    "name": "Rashakai",
    "name_ur": "رشکئ",
    "type": "city",
    "lat": 34.1174494,
    "lon": 72.0226562,
    "province": "Khyber Pakhtunkhwa",
    "country": "Pakistan",
    "path": "pakistan/KPK/cities/rashakai"
  },
  {
    "id": 4989734669,
    "name": "Daggar",
    "name_ur": "ڈگر",
    "type": "city",
    "lat": 34.5105814,
    "lon": 72.484907,
    "province": "Khyber Pakhtunkhwa",
    "country": "Pakistan",
    "path": "pakistan/KPK/cities/daggar"
  },
  {
    "id": 90542617,
    "name": "Pabbi",
    "name_ur": "پبی",
    "type": "city",
    "lat": 34.0091192,
    "lon": 71.7972028,
    "province": "Khyber Pakhtunkhwa",
    "country": "Pakistan",
    "path": "pakistan/KPK/cities/pabbi"
  },
  {
    "id": 740166697,
    "name": "Pattan",
    "name_ur": "پٹن",
    "type": "city",
    "lat": 35.1102154,
    "lon": 73.0052151,
    "province": "Khyber Pakhtunkhwa",
    "country": "Pakistan",
    "path": "pakistan/KPK/cities/pattan"
  },
  {
    "id": 3053679143,
    "name": "Pezu",
    "name_ur": "پیزو",
    "type": "city",
    "lat": 32.3177221,
    "lon": 70.7362643,
    "province": "Khyber Pakhtunkhwa",
    "country": "Pakistan",
    "path": "pakistan/KPK/cities/pezu"
  },
  {
    "id": 9546262429,
    "name": "Toru",
    "name_ur": "طورو",
    "type": "city",
    "lat": 34.1440955,
    "lon": 72.0950136,
    "province": "Khyber Pakhtunkhwa",
    "country": "Pakistan",
    "path": "pakistan/KPK/cities/toru"
  },
  {
    "id": 848389519,
    "name": "Nisatta",
    "name_ur": "نیساٹا",
    "type": "city",
    "lat": 34.1018673,
    "lon": 71.7964229,
    "province": "Khyber Pakhtunkhwa",
    "country": "Pakistan",
    "path": "pakistan/KPK/cities/nisatta"
  },
  {
    "id": 3070502506,
    "name": "Barikot",
    "name_ur": "بریکوٹ",
    "type": "city",
    "lat": 34.6780028,
    "lon": 72.2237662,
    "province": "Khyber Pakhtunkhwa",
    "country": "Pakistan",
    "path": "pakistan/KPK/cities/barikot"
  },
  {
    "id": 895232435,
    "name": "Shahpur",
    "name_ur": "شاہ پور",
    "type": "city",
    "lat": 34.9486284,
    "lon": 72.748834,
    "province": "Khyber Pakhtunkhwa",
    "country": "Pakistan",
    "path": "pakistan/KPK/cities/shahpur"
  },
  {
    "id": 6218047985,
    "name": "Shergarh",
    "name_ur": "شيرگڑھ‎",
    "type": "city",
    "lat": 34.3934889,
    "lon": 71.8996024,
    "province": "Khyber Pakhtunkhwa",
    "country": "Pakistan",
    "path": "pakistan/KPK/cities/shergarh"
  },
  {
    "id": 1888087904,
    "name": "Wana",
    "name_ur": "وانا",
    "type": "city",
    "lat": 32.3073624,
    "lon": 69.5907178,
    "province": "Khyber Pakhtunkhwa",
    "country": "Pakistan",
    "path": "pakistan/KPK/cities/wana"
  },
  {
    "id": 8883747128,
    "name": "Baja",
    "name_ur": "باجا",
    "type": "city",
    "lat": 34.1013517,
    "lon": 72.541625,
    "province": "Khyber Pakhtunkhwa",
    "country": "Pakistan",
    "path": "pakistan/KPK/cities/baja"
  },
  {
    "id": 3049064973,
    "name": "Serai Naurang",
    "name_ur": "سرائی نورنگ",
    "type": "city",
    "lat": 32.8270541,
    "lon": 70.7824962,
    "province": "Khyber Pakhtunkhwa",
    "country": "Pakistan",
    "path": "pakistan/KPK/cities/serai_naurang"
  },
  {
    "id": 4316865212,
    "name": "Yarik",
    "name_ur": "یارِک",
    "type": "city",
    "lat": 32.1053956,
    "lon": 70.7909023,
    "province": "Khyber Pakhtunkhwa",
    "country": "Pakistan",
    "path": "pakistan/KPK/cities/yarik"
  },
  {
    "id": 4869554289,
    "name": "Saidu Sharif",
    "name_ur": "سيدو شريف",
    "type": "city",
    "lat": 34.7447334,
    "lon": 72.3562789,
    "province": "Khyber Pakhtunkhwa",
    "country": "Pakistan",
    "path": "pakistan/KPK/cities/saidu_sharif"
  },
  {
    "id": 7819502796,
    "name": "University Town",
    "name_ur": "یونیورسٹی ٹاؤن",
    "type": "city",
    "lat": 33.9941425,
    "lon": 71.4967131,
    "province": "Khyber Pakhtunkhwa",
    "country": "Pakistan",
    "path": "pakistan/KPK/cities/university_town"
  },
  {
    "id": 90551000,
    "name": "Risalpur",
    "name_ur": "رسالپور‎",
    "type": "city",
    "lat": 34.0643513,
    "lon": 71.9852312,
    "province": "Khyber Pakhtunkhwa",
    "country": "Pakistan",
    "path": "pakistan/KPK/cities/risalpur"
  },
  {
    "id": 279649847,
    "name": "Mardan",
    "name_ur": "مردان",
    "type": "city",
    "lat": 34.1937969,
    "lon": 72.0451467,
    "province": "Khyber Pakhtunkhwa",
    "country": "Pakistan",
    "path": "pakistan/KPK/cities/mardan"
  },
  {
    "id": 835518866,
    "name": "Madyan",
    "name_ur": "مدین",
    "type": "city",
    "lat": 35.1412913,
    "lon": 72.5374404,
    "province": "Khyber Pakhtunkhwa",
    "country": "Pakistan",
    "path": "pakistan/KPK/cities/madyan"
  },
  {
    "id": 895232351,
    "name": "Kuzkana",
    "name_ur": "کوز کانا",
    "type": "city",
    "lat": 34.9186886,
    "lon": 72.7559575,
    "province": "Khyber Pakhtunkhwa",
    "country": "Pakistan",
    "path": "pakistan/KPK/cities/kuzkana"
  },
  {
    "id": 4989760277,
    "name": "Pacha Kalay",
    "name_ur": "پاچا کلے",
    "type": "city",
    "lat": 34.595011,
    "lon": 72.4517545,
    "province": "Khyber Pakhtunkhwa",
    "country": "Pakistan",
    "path": "pakistan/KPK/cities/pacha_kalay"
  },
  {
    "id": 8887539786,
    "name": "Hattar",
    "name_ur": "حطار‎",
    "type": "city",
    "lat": 33.8506989,
    "lon": 72.8500447,
    "province": "Khyber Pakhtunkhwa",
    "country": "Pakistan",
    "path": "pakistan/KPK/cities/hattar"
  },
  {
    "id": 2685922775,
    "name": "Icherrian",
    "name_ur": "اچھڑیاں",
    "type": "city",
    "lat": 34.495655,
    "lon": 73.2515205,
    "province": "Khyber Pakhtunkhwa",
    "country": "Pakistan",
    "path": "pakistan/KPK/cities/icherrian"
  },
  {
    "id": 8884042090,
    "name": "Colonel Sher Kalay",
    "name_ur": "کرنل شیر کلے",
    "type": "city",
    "lat": 34.2112866,
    "lon": 72.3411616,
    "province": "Khyber Pakhtunkhwa",
    "country": "Pakistan",
    "path": "pakistan/KPK/cities/colonel_sher_kalay"
  },
  {
    "id": 8884042092,
    "name": "Shewa",
    "name_ur": "شیوہ",
    "type": "city",
    "lat": 34.2486514,
    "lon": 72.3499684,
    "province": "Khyber Pakhtunkhwa",
    "country": "Pakistan",
    "path": "pakistan/KPK/cities/shewa"
  },
  {
    "id": 4832577118,
    "name": "Mingora",
    "name_ur": "مینگورہ‎",
    "type": "city",
    "lat": 34.7725375,
    "lon": 72.3607712,
    "province": "Khyber Pakhtunkhwa",
    "country": "Pakistan",
    "path": "pakistan/KPK/cities/mingora"
  },
  {
    "id": 300499155,
    "name": "Shinkiari",
    "name_ur": "شنکیاری",
    "type": "city",
    "lat": 34.4713994,
    "lon": 73.2703589,
    "province": "Khyber Pakhtunkhwa",
    "country": "Pakistan",
    "path": "pakistan/KPK/cities/shinkiari"
  },
  {
    "id": 279814314,
    "name": "Bannu",
    "name_ur": "بنوں",
    "type": "city",
    "lat": 32.9857007,
    "lon": 70.6036017,
    "province": "Khyber Pakhtunkhwa",
    "country": "Pakistan",
    "path": "pakistan/KPK/cities/bannu"
  },
  {
    "id": 3100986040,
    "name": "Salhad",
    "name_ur": "سلہڈ",
    "type": "city",
    "lat": 34.1298254,
    "lon": 73.1975592,
    "province": "Khyber Pakhtunkhwa",
    "country": "Pakistan",
    "path": "pakistan/KPK/cities/salhad"
  },
  {
    "id": 256824759,
    "name": "Topi",
    "name_ur": "ٹوپی",
    "type": "city",
    "lat": 34.067924,
    "lon": 72.6220803,
    "province": "Khyber Pakhtunkhwa",
    "country": "Pakistan",
    "path": "pakistan/KPK/cities/topi"
  },
  {
    "id": 8883691317,
    "name": "Panjpir",
    "name_ur": "پنج پیر",
    "type": "city",
    "lat": 34.0878383,
    "lon": 72.4782826,
    "province": "Khyber Pakhtunkhwa",
    "country": "Pakistan",
    "path": "pakistan/KPK/cities/panjpir"
  },
  {
    "id": 2468627260,
    "name": "Kalabagh",
    "name_ur": "کالا باغ",
    "type": "city",
    "lat": 34.0741433,
    "lon": 73.3708487,
    "province": "Khyber Pakhtunkhwa",
    "country": "Pakistan",
    "path": "pakistan/KPK/cities/kalabagh"
  },
  {
    "id": 867053934,
    "name": "Hangu",
    "name_ur": "ہنگو",
    "type": "city",
    "lat": 33.527996,
    "lon": 71.0575407,
    "province": "Khyber Pakhtunkhwa",
    "country": "Pakistan",
    "path": "pakistan/KPK/cities/hangu"
  },
  {
    "id": 8559410884,
    "name": "Phandu",
    "name_ur": "پندو",
    "type": "city",
    "lat": 33.9831069,
    "lon": 71.6350211,
    "province": "Khyber Pakhtunkhwa",
    "country": "Pakistan",
    "path": "pakistan/KPK/cities/phandu"
  },
  {
    "id": 895265388,
    "name": "Shin",
    "name_ur": "شین",
    "type": "city",
    "lat": 35.0231188,
    "lon": 72.472592,
    "province": "Khyber Pakhtunkhwa",
    "country": "Pakistan",
    "path": "pakistan/KPK/cities/shin"
  },
  {
    "id": 8490766869,
    "name": "Manglawar",
    "name_ur": "منگلور‎",
    "type": "city",
    "lat": 34.8085435,
    "lon": 72.4304037,
    "province": "Khyber Pakhtunkhwa",
    "country": "Pakistan",
    "path": "pakistan/KPK/cities/manglawar"
  },
  {
    "id": 2562506697,
    "name": "ھنگو پہاٹک",
    "name_ur": "ھنگو پہاٹک",
    "type": "city",
    "lat": 33.5928464,
    "lon": 71.418299,
    "province": "Khyber Pakhtunkhwa",
    "country": "Pakistan",
    "path": "pakistan/KPK/cities/_"
  },
  {
    "id": 9241718343,
    "name": "Chitta Batta",
    "name_ur": "چتہ بٹہ",
    "type": "city",
    "lat": 34.3650701,
    "lon": 73.2628787,
    "province": "Khyber Pakhtunkhwa",
    "country": "Pakistan",
    "path": "pakistan/KPK/cities/chitta_batta"
  },
  {
    "id": 745365492,
    "name": "Darband",
    "name_ur": "دربند",
    "type": "city",
    "lat": 34.3654635,
    "lon": 72.8601862,
    "province": "Khyber Pakhtunkhwa",
    "country": "Pakistan",
    "path": "pakistan/KPK/cities/darband"
  },
  {
    "id": 3122901802,
    "name": "Nawanshehr",
    "name_ur": "نواں شہر",
    "type": "city",
    "lat": 34.1653662,
    "lon": 73.26604,
    "province": "Khyber Pakhtunkhwa",
    "country": "Pakistan",
    "path": "pakistan/KPK/cities/nawanshehr"
  },
  {
    "id": 11244467376,
    "name": "Kumber Maidan",
    "name_ur": "کمبڑ میدان",
    "type": "city",
    "lat": 34.9593018,
    "lon": 71.8145685,
    "province": "Khyber Pakhtunkhwa",
    "country": "Pakistan",
    "path": "pakistan/KPK/cities/kumber_maidan"
  },
  {
    "id": 11258128394,
    "name": "Malana",
    "name_ur": "مالانا",
    "type": "city",
    "lat": 31.7832195,
    "lon": 70.8705342,
    "province": "Khyber Pakhtunkhwa",
    "country": "Pakistan",
    "path": "pakistan/KPK/cities/malana"
  },
  {
    "id": 303171949,
    "name": "Khanpur",
    "name_ur": "خانپور",
    "type": "city",
    "lat": 33.8026803,
    "lon": 72.9125888,
    "province": "Khyber Pakhtunkhwa",
    "country": "Pakistan",
    "path": "pakistan/KPK/cities/khanpur"
  },
  {
    "id": 8488590713,
    "name": "Shah Mansoor",
    "name_ur": "شاه منصور",
    "type": "city",
    "lat": 34.0717071,
    "lon": 72.4503571,
    "province": "Khyber Pakhtunkhwa",
    "country": "Pakistan",
    "path": "pakistan/KPK/cities/shah_mansoor"
  },
  {
    "id": 3443877644,
    "name": "Khar Bajaur",
    "name_ur": "خار",
    "type": "city",
    "lat": 34.7350048,
    "lon": 71.5250619,
    "province": "Khyber Pakhtunkhwa",
    "country": "Pakistan",
    "path": "pakistan/KPK/cities/khar_bajaur"
  },
  {
    "id": 11244467605,
    "name": "Khall",
    "name_ur": "خال",
    "type": "city",
    "lat": 34.8935908,
    "lon": 71.9823302,
    "province": "Khyber Pakhtunkhwa",
    "country": "Pakistan",
    "path": "pakistan/KPK/cities/khall"
  },
  {
    "id": 9546235395,
    "name": "Ismaila",
    "name_ur": "اسماعیلہ",
    "type": "city",
    "lat": 34.2212851,
    "lon": 72.2417623,
    "province": "Khyber Pakhtunkhwa",
    "country": "Pakistan",
    "path": "pakistan/KPK/cities/ismaila"
  },
  {
    "id": 299277405,
    "name": "Haripur",
    "name_ur": "ہری پور",
    "type": "city",
    "lat": 33.9944889,
    "lon": 72.9331737,
    "province": "Khyber Pakhtunkhwa",
    "country": "Pakistan",
    "path": "pakistan/KPK/cities/haripur"
  },
  {
    "id": 2553891185,
    "name": "Dara Adam Khel",
    "name_ur": "درہ آدم خیل",
    "type": "city",
    "lat": 33.6850114,
    "lon": 71.5166239,
    "province": "Khyber Pakhtunkhwa",
    "country": "Pakistan",
    "path": "pakistan/KPK/cities/dara_adam_khel"
  },
  {
    "id": 2934895760,
    "name": "Chakdara",
    "name_ur": "چکدره",
    "type": "city",
    "lat": 34.6557106,
    "lon": 72.0308093,
    "province": "Khyber Pakhtunkhwa",
    "country": "Pakistan",
    "path": "pakistan/KPK/cities/chakdara"
  },
  {
    "id": 2533180037,
    "name": "Alpuri",
    "name_ur": "الپوری",
    "type": "city",
    "lat": 34.9204318,
    "lon": 72.6325567,
    "province": "Khyber Pakhtunkhwa",
    "country": "Pakistan",
    "path": "pakistan/KPK/cities/alpuri"
  },
  {
    "id": 2653605558,
    "name": "Jehangira",
    "name_ur": "جہانگیرا",
    "type": "city",
    "lat": 33.9648191,
    "lon": 72.2090293,
    "province": "Khyber Pakhtunkhwa",
    "country": "Pakistan",
    "path": "pakistan/KPK/cities/jehangira"
  },
  {
    "id": 3068881220,
    "name": "Timergara",
    "name_ur": "تیمرگرہ",
    "type": "city",
    "lat": 34.8290809,
    "lon": 71.8426867,
    "province": "Khyber Pakhtunkhwa",
    "country": "Pakistan",
    "path": "pakistan/KPK/cities/timergara"
  },
  {
    "id": 1740973429,
    "name": "Tank",
    "name_ur": "ٹانک",
    "type": "city",
    "lat": 32.2096916,
    "lon": 70.3881146,
    "province": "Khyber Pakhtunkhwa",
    "country": "Pakistan",
    "path": "pakistan/KPK/cities/tank"
  },
  {
    "id": 8573287840,
    "name": "Bara",
    "name_ur": "باڑہ",
    "type": "city",
    "lat": 33.9175272,
    "lon": 71.4618737,
    "province": "Khyber Pakhtunkhwa",
    "country": "Pakistan",
    "path": "pakistan/KPK/cities/bara"
  },
  {
    "id": 279783374,
    "name": "Kohat",
    "name_ur": "کوہاٹ",
    "type": "city",
    "lat": 33.5967144,
    "lon": 71.4399944,
    "province": "Khyber Pakhtunkhwa",
    "country": "Pakistan",
    "path": "pakistan/KPK/cities/kohat"
  },
  {
    "id": 868356914,
    "name": "Akora Khattak",
    "name_ur": "اکوڑا خٹک",
    "type": "city",
    "lat": 33.999666,
    "lon": 72.1249601,
    "province": "Khyber Pakhtunkhwa",
    "country": "Pakistan",
    "path": "pakistan/KPK/cities/akora_khattak"
  },
  {
    "id": 13457166426,
    "name": "Totakan",
    "name_ur": "طوطاکان",
    "type": "city",
    "lat": 34.6165318,
    "lon": 71.8248398,
    "province": "Khyber Pakhtunkhwa",
    "country": "Pakistan",
    "path": "pakistan/KPK/cities/totakan"
  },
  {
    "id": 3388677947,
    "name": "Razmak",
    "name_ur": "رزمک",
    "type": "city",
    "lat": 32.6873366,
    "lon": 69.8339608,
    "province": "Khyber Pakhtunkhwa",
    "country": "Pakistan",
    "path": "pakistan/KPK/cities/razmak"
  },
  {
    "id": 4003644279,
    "name": "Zargirandeh",
    "name_ur": "Zargirandeh",
    "type": "city",
    "lat": 35.8532375,
    "lon": 71.7866649,
    "province": "Khyber Pakhtunkhwa",
    "country": "Pakistan",
    "path": "pakistan/KPK/cities/zargirandeh"
  },
  {
    "id": 279654090,
    "name": "Takht Bhai",
    "name_ur": "تخت بھائی",
    "type": "city",
    "lat": 34.2822021,
    "lon": 71.9270436,
    "province": "Khyber Pakhtunkhwa",
    "country": "Pakistan",
    "path": "pakistan/KPK/cities/takht_bhai"
  },
  {
    "id": 4306301785,
    "name": "Azam Warsak",
    "name_ur": "اعظم ورسک",
    "type": "city",
    "lat": 32.2898405,
    "lon": 69.4291833,
    "province": "Khyber Pakhtunkhwa",
    "country": "Pakistan",
    "path": "pakistan/KPK/cities/azam_warsak"
  },
  {
    "id": 5280401745,
    "name": "Angoor Ada",
    "name_ur": "انگور اڈہ",
    "type": "city",
    "lat": 32.5193291,
    "lon": 69.2699522,
    "province": "Khyber Pakhtunkhwa",
    "country": "Pakistan",
    "path": "pakistan/KPK/cities/angoor_ada"
  },
  {
    "id": 6473274253,
    "name": "Zaida",
    "name_ur": "زیدہ",
    "type": "city",
    "lat": 34.0606768,
    "lon": 72.4670261,
    "province": "Khyber Pakhtunkhwa",
    "country": "Pakistan",
    "path": "pakistan/KPK/cities/zaida"
  },
  {
    "id": 2835172792,
    "name": "Toi Khullah",
    "name_ur": "توئی خلہ",
    "type": "city",
    "lat": 32.0522802,
    "lon": 69.6398003,
    "province": "Khyber Pakhtunkhwa",
    "country": "Pakistan",
    "path": "pakistan/KPK/cities/toi_khullah"
  },
  {
    "id": 252157723,
    "name": "Havelian",
    "name_ur": "حویلیاں",
    "type": "city",
    "lat": 34.0519127,
    "lon": 73.153453,
    "province": "Khyber Pakhtunkhwa",
    "country": "Pakistan",
    "path": "pakistan/KPK/cities/havelian"
  },
  {
    "id": 297460837,
    "name": "Sarai Saleh",
    "name_ur": "سرائے صالح",
    "type": "city",
    "lat": 33.9868329,
    "lon": 72.983359,
    "province": "Khyber Pakhtunkhwa",
    "country": "Pakistan",
    "path": "pakistan/KPK/cities/sarai_saleh"
  },
  {
    "id": 11244467319,
    "name": "Samarbagh",
    "name_ur": "ثمرباغ",
    "type": "city",
    "lat": 34.954755,
    "lon": 71.6863793,
    "province": "Khyber Pakhtunkhwa",
    "country": "Pakistan",
    "path": "pakistan/KPK/cities/samarbagh"
  },
  {
    "id": 12511042468,
    "name": "Rabat",
    "name_ur": "رباط",
    "type": "city",
    "lat": 34.8620409,
    "lon": 71.9531673,
    "province": "Khyber Pakhtunkhwa",
    "country": "Pakistan",
    "path": "pakistan/KPK/cities/rabat"
  },
  {
    "id": 9546262430,
    "name": "Mayar",
    "name_ur": "مایار",
    "type": "city",
    "lat": 34.1633285,
    "lon": 72.0841269,
    "province": "Khyber Pakhtunkhwa",
    "country": "Pakistan",
    "path": "pakistan/KPK/cities/mayar_9546262430"
  },
  {
    "id": 2663049757,
    "name": "Korai",
    "name_ur": "کورائی",
    "type": "city",
    "lat": 35.3287456,
    "lon": 71.6006536,
    "province": "Khyber Pakhtunkhwa",
    "country": "Pakistan",
    "path": "pakistan/KPK/cities/korai"
  },
  {
    "id": 299007032,
    "name": "Bisham",
    "name_ur": "بشام",
    "type": "city",
    "lat": 34.9292487,
    "lon": 72.8790291,
    "province": "Khyber Pakhtunkhwa",
    "country": "Pakistan",
    "path": "pakistan/KPK/cities/bisham"
  },
  {
    "id": 8574301862,
    "name": "Marghuz",
    "name_ur": "مرغز",
    "type": "city",
    "lat": 34.070288,
    "lon": 72.531734,
    "province": "Khyber Pakhtunkhwa",
    "country": "Pakistan",
    "path": "pakistan/KPK/cities/marghuz"
  },
  {
    "id": 11244926503,
    "name": "Inayat Killi",
    "name_ur": "عنایت کلی",
    "type": "city",
    "lat": 34.751997,
    "lon": 71.4562879,
    "province": "Khyber Pakhtunkhwa",
    "country": "Pakistan",
    "path": "pakistan/KPK/cities/inayat_killi"
  },
  {
    "id": 300500169,
    "name": "Dhodial",
    "name_ur": "ڈھوڈیال",
    "type": "city",
    "lat": 34.4344499,
    "lon": 73.2561766,
    "province": "Khyber Pakhtunkhwa",
    "country": "Pakistan",
    "path": "pakistan/KPK/cities/dhodial"
  },
  {
    "id": 3076052890,
    "name": "Torkham",
    "name_ur": "طورخم",
    "type": "city",
    "lat": 34.120723,
    "lon": 71.1016176,
    "province": "Khyber Pakhtunkhwa",
    "country": "Pakistan",
    "path": "pakistan/KPK/cities/torkham"
  },
  {
    "id": 11524066281,
    "name": "Kalakot",
    "name_ur": "کالاکوٹ",
    "type": "city",
    "lat": 35.0702855,
    "lon": 72.4753236,
    "province": "Khyber Pakhtunkhwa",
    "country": "Pakistan",
    "path": "pakistan/KPK/cities/kalakot"
  },
  {
    "id": 299075890,
    "name": "Thakot",
    "name_ur": "تھاکوٹ‎",
    "type": "city",
    "lat": 34.7863563,
    "lon": 72.928611,
    "province": "Khyber Pakhtunkhwa",
    "country": "Pakistan",
    "path": "pakistan/KPK/cities/thakot"
  },
  {
    "id": 4510945726,
    "name": "Battagram",
    "name_ur": "بٹگرام",
    "type": "city",
    "lat": 34.6785555,
    "lon": 73.0281188,
    "province": "Khyber Pakhtunkhwa",
    "country": "Pakistan",
    "path": "pakistan/KPK/cities/battagram_4510945726"
  },
  {
    "id": 3388677946,
    "name": "Makin",
    "name_ur": "ماکین‎",
    "type": "city",
    "lat": 32.6216526,
    "lon": 69.8386515,
    "province": "Khyber Pakhtunkhwa",
    "country": "Pakistan",
    "path": "pakistan/KPK/cities/makin"
  },
  {
    "id": 4029082053,
    "name": "Daraban",
    "name_ur": "دارابان",
    "type": "city",
    "lat": 31.7336676,
    "lon": 70.3353109,
    "province": "Khyber Pakhtunkhwa",
    "country": "Pakistan",
    "path": "pakistan/KPK/cities/daraban"
  },
  {
    "id": 3659265188,
    "name": "Balambat",
    "name_ur": "بلامبٹ",
    "type": "city",
    "lat": 34.8328613,
    "lon": 71.8288144,
    "province": "Khyber Pakhtunkhwa",
    "country": "Pakistan",
    "path": "pakistan/KPK/cities/balambat"
  },
  {
    "id": 4008934454,
    "name": "Garam Chasma",
    "name_ur": "گرم چشمہ",
    "type": "city",
    "lat": 35.9935183,
    "lon": 71.5597728,
    "province": "Khyber Pakhtunkhwa",
    "country": "Pakistan",
    "path": "pakistan/KPK/cities/garam_chasma"
  },
  {
    "id": 279645187,
    "name": "Chitral",
    "name_ur": "چترال",
    "type": "city",
    "lat": 35.850889,
    "lon": 71.7901897,
    "province": "Khyber Pakhtunkhwa",
    "country": "Pakistan",
    "path": "pakistan/KPK/cities/chitral"
  },
  {
    "id": 299020590,
    "name": "Bathkela",
    "name_ur": "بٹ خیلہ",
    "type": "city",
    "lat": 34.6159603,
    "lon": 71.9722472,
    "province": "Khyber Pakhtunkhwa",
    "country": "Pakistan",
    "path": "pakistan/KPK/cities/bathkela"
  },
  {
    "id": 951543931,
    "name": "Sheringal",
    "name_ur": "شیرنگل",
    "type": "city",
    "lat": 35.2764167,
    "lon": 72.0023267,
    "province": "Khyber Pakhtunkhwa",
    "country": "Pakistan",
    "path": "pakistan/KPK/cities/sheringal"
  },
  {
    "id": 3875277589,
    "name": "Shalozan",
    "name_ur": "شلوزان",
    "type": "city",
    "lat": 33.9410641,
    "lon": 70.0210924,
    "province": "Khyber Pakhtunkhwa",
    "country": "Pakistan",
    "path": "pakistan/KPK/cities/shalozan"
  },
  {
    "id": 2934910612,
    "name": "Khwazakhela",
    "name_ur": "خوازہ خیلہ",
    "type": "city",
    "lat": 34.9363193,
    "lon": 72.4692872,
    "province": "Khyber Pakhtunkhwa",
    "country": "Pakistan",
    "path": "pakistan/KPK/cities/khwazakhela"
  },
  {
    "id": 869861674,
    "name": "Charbagh",
    "name_ur": "چار باغ",
    "type": "city",
    "lat": 34.834378,
    "lon": 72.44048,
    "province": "Khyber Pakhtunkhwa",
    "country": "Pakistan",
    "path": "pakistan/KPK/cities/charbagh"
  },
  {
    "id": 3072628647,
    "name": "Turlandi",
    "name_ur": "ترلاندی",
    "type": "city",
    "lat": 34.2135756,
    "lon": 72.320967,
    "province": "Khyber Pakhtunkhwa",
    "country": "Pakistan",
    "path": "pakistan/KPK/cities/turlandi"
  },
  {
    "id": 3388677948,
    "name": "Kaniguram",
    "name_ur": "کانیگورم",
    "type": "city",
    "lat": 32.5202155,
    "lon": 69.7897633,
    "province": "Khyber Pakhtunkhwa",
    "country": "Pakistan",
    "path": "pakistan/KPK/cities/kaniguram"
  },
  {
    "id": 8459363176,
    "name": "Adina",
    "name_ur": "ادینا",
    "type": "city",
    "lat": 34.2227351,
    "lon": 72.2692909,
    "province": "Khyber Pakhtunkhwa",
    "country": "Pakistan",
    "path": "pakistan/KPK/cities/adina"
  },
  {
    "id": 866873562,
    "name": "Thall",
    "name_ur": "ٹل",
    "type": "city",
    "lat": 33.366133,
    "lon": 70.5498662,
    "province": "Khyber Pakhtunkhwa",
    "country": "Pakistan",
    "path": "pakistan/KPK/cities/thall"
  },
  {
    "id": 835518355,
    "name": "Behrain",
    "name_ur": "بحرین",
    "type": "city",
    "lat": 35.2078012,
    "lon": 72.5473968,
    "province": "Khyber Pakhtunkhwa",
    "country": "Pakistan",
    "path": "pakistan/KPK/cities/behrain"
  },
  {
    "id": 3072615069,
    "name": "Swabi",
    "name_ur": "صوابی",
    "type": "city",
    "lat": 34.1262144,
    "lon": 72.4743164,
    "province": "Khyber Pakhtunkhwa",
    "country": "Pakistan",
    "path": "pakistan/KPK/cities/swabi"
  },
  {
    "id": 857242027,
    "name": "Battagram",
    "name_ur": "بٹگرام",
    "type": "city",
    "lat": 34.2193996,
    "lon": 71.6260552,
    "province": "Khyber Pakhtunkhwa",
    "country": "Pakistan",
    "path": "pakistan/KPK/cities/battagram"
  },
  {
    "id": 3017992562,
    "name": "Karbogha Sharif",
    "name_ur": "کربوغہ شریف",
    "type": "city",
    "lat": 33.3553645,
    "lon": 70.771662,
    "province": "Khyber Pakhtunkhwa",
    "country": "Pakistan",
    "path": "pakistan/KPK/cities/karbogha_sharif"
  },
  {
    "id": 8857985255,
    "name": "Faqeer Kalay",
    "name_ur": "فقیر کلے",
    "type": "city",
    "lat": 34.0560779,
    "lon": 71.5417254,
    "province": "Khyber Pakhtunkhwa",
    "country": "Pakistan",
    "path": "pakistan/KPK/cities/faqeer_kalay"
  },
  {
    "id": 4201206989,
    "name": "Paroa",
    "name_ur": "پاروا",
    "type": "city",
    "lat": 31.5556858,
    "lon": 70.7608671,
    "province": "Khyber Pakhtunkhwa",
    "country": "Pakistan",
    "path": "pakistan/KPK/cities/paroa"
  },
  {
    "id": 850069267,
    "name": "Baghdada",
    "name_ur": "بغدادہ‎",
    "type": "city",
    "lat": 34.2293375,
    "lon": 72.0159365,
    "province": "Khyber Pakhtunkhwa",
    "country": "Pakistan",
    "path": "pakistan/KPK/cities/baghdada"
  },
  {
    "id": 5999669097,
    "name": "Judba",
    "name_ur": "جدبا",
    "type": "city",
    "lat": 34.6124081,
    "lon": 72.7889895,
    "province": "Khyber Pakhtunkhwa",
    "country": "Pakistan",
    "path": "pakistan/KPK/cities/judba"
  },
  {
    "id": 2860885546,
    "name": "Lilownai",
    "name_ur": "لیلونئی",
    "type": "city",
    "lat": 34.954605,
    "lon": 72.6435803,
    "province": "Khyber Pakhtunkhwa",
    "country": "Pakistan",
    "path": "pakistan/KPK/cities/lilownai"
  },
  {
    "id": 3442157091,
    "name": "Sadda",
    "name_ur": "صدہ",
    "type": "city",
    "lat": 33.7062424,
    "lon": 70.3267526,
    "province": "Khyber Pakhtunkhwa",
    "country": "Pakistan",
    "path": "pakistan/KPK/cities/sadda"
  },
  {
    "id": 1956220730,
    "name": "Mir Ali",
    "name_ur": "میر علی",
    "type": "city",
    "lat": 32.9693856,
    "lon": 70.2771024,
    "province": "Khyber Pakhtunkhwa",
    "country": "Pakistan",
    "path": "pakistan/KPK/cities/mir_ali"
  },
  {
    "id": 848389490,
    "name": "Utmanzai",
    "name_ur": "اتمانزئی",
    "type": "city",
    "lat": 34.187678,
    "lon": 71.7648372,
    "province": "Khyber Pakhtunkhwa",
    "country": "Pakistan",
    "path": "pakistan/KPK/cities/utmanzai"
  },
  {
    "id": 11244918882,
    "name": "Nawagai",
    "name_ur": "ناواگئ",
    "type": "city",
    "lat": 34.6673574,
    "lon": 71.2938053,
    "province": "Khyber Pakhtunkhwa",
    "country": "Pakistan",
    "path": "pakistan/KPK/cities/nawagai"
  },
  {
    "id": 13438947484,
    "name": "Bagan Mela",
    "name_ur": "بگن میلہ",
    "type": "city",
    "lat": 33.4955762,
    "lon": 70.3795401,
    "province": "Khyber Pakhtunkhwa",
    "country": "Pakistan",
    "path": "pakistan/KPK/cities/bagan_mela"
  },
  {
    "id": 11254699613,
    "name": "Shewa",
    "name_ur": "شیوہ",
    "type": "city",
    "lat": 33.2413192,
    "lon": 70.4959391,
    "province": "Khyber Pakhtunkhwa",
    "country": "Pakistan",
    "path": "pakistan/KPK/cities/shewa_11254699613"
  },
  {
    "id": 4732802223,
    "name": "Katlang",
    "name_ur": "کاٹلنگ",
    "type": "city",
    "lat": 34.3597379,
    "lon": 72.0759036,
    "province": "Khyber Pakhtunkhwa",
    "country": "Pakistan",
    "path": "pakistan/KPK/cities/katlang"
  },
  {
    "id": 747012666,
    "name": "Buni",
    "name_ur": "بونی",
    "type": "city",
    "lat": 36.2700603,
    "lon": 72.2625054,
    "province": "Khyber Pakhtunkhwa",
    "country": "Pakistan",
    "path": "pakistan/KPK/cities/buni"
  },
  {
    "id": 90536341,
    "name": "Nowshera",
    "name_ur": "نوشہرہ‎",
    "type": "city",
    "lat": 34.0155606,
    "lon": 71.981283,
    "province": "Khyber Pakhtunkhwa",
    "country": "Pakistan",
    "path": "pakistan/KPK/cities/nowshera"
  },
  {
    "id": 8911006183,
    "name": "Lund Khwar",
    "name_ur": "لوندخوڑ",
    "type": "city",
    "lat": 34.3913304,
    "lon": 71.9808061,
    "province": "Khyber Pakhtunkhwa",
    "country": "Pakistan",
    "path": "pakistan/KPK/cities/lund_khwar"
  },
  {
    "id": 870033275,
    "name": "Lachi",
    "name_ur": "لاچی",
    "type": "city",
    "lat": 33.3822964,
    "lon": 71.3381655,
    "province": "Khyber Pakhtunkhwa",
    "country": "Pakistan",
    "path": "pakistan/KPK/cities/lachi"
  },
  {
    "id": 114143790,
    "name": "Mansehra",
    "name_ur": "مانسہرہ",
    "type": "city",
    "lat": 34.3286855,
    "lon": 73.1993125,
    "province": "Khyber Pakhtunkhwa",
    "country": "Pakistan",
    "path": "pakistan/KPK/cities/mansehra"
  },
  {
    "id": 582988362,
    "name": "Balakot",
    "name_ur": "بالاکوٹ",
    "type": "city",
    "lat": 34.5506738,
    "lon": 73.3525734,
    "province": "Khyber Pakhtunkhwa",
    "country": "Pakistan",
    "path": "pakistan/KPK/cities/balakot"
  },
  {
    "id": 2771687204,
    "name": "Paharpur",
    "name_ur": "پہاڑ پور",
    "type": "city",
    "lat": 32.1044327,
    "lon": 70.9706664,
    "province": "Khyber Pakhtunkhwa",
    "country": "Pakistan",
    "path": "pakistan/KPK/cities/paharpur"
  },
  {
    "id": 2141100067,
    "name": "Lakki Marwat",
    "name_ur": "لکی مروت",
    "type": "city",
    "lat": 32.6056744,
    "lon": 70.9113526,
    "province": "Khyber Pakhtunkhwa",
    "country": "Pakistan",
    "path": "pakistan/KPK/cities/lakki_marwat"
  },
  {
    "id": 4732802224,
    "name": "Jamal Garhi",
    "name_ur": "جمال گڑھی",
    "type": "city",
    "lat": 34.3141372,
    "lon": 72.0661417,
    "province": "Khyber Pakhtunkhwa",
    "country": "Pakistan",
    "path": "pakistan/KPK/cities/jamal_garhi"
  },
  {
    "id": 8573260805,
    "name": "Badaber",
    "name_ur": "بڈھ بیر",
    "type": "city",
    "lat": 33.92234,
    "lon": 71.5575613,
    "province": "Khyber Pakhtunkhwa",
    "country": "Pakistan",
    "path": "pakistan/KPK/cities/badaber"
  },
  {
    "id": 1741002367,
    "name": "Chagmalai",
    "name_ur": "چگملائی",
    "type": "city",
    "lat": 32.3223367,
    "lon": 70.0604008,
    "province": "Khyber Pakhtunkhwa",
    "country": "Pakistan",
    "path": "pakistan/KPK/cities/chagmalai"
  },
  {
    "id": 11524066280,
    "name": "Fatehpur",
    "name_ur": "فاتح پور",
    "type": "city",
    "lat": 35.0690674,
    "lon": 72.4869549,
    "province": "Khyber Pakhtunkhwa",
    "country": "Pakistan",
    "path": "pakistan/KPK/cities/fatehpur"
  },
  {
    "id": 12511042643,
    "name": "Akhagram",
    "name_ur": "اخگرام",
    "type": "city",
    "lat": 34.935352,
    "lon": 72.0210122,
    "province": "Khyber Pakhtunkhwa",
    "country": "Pakistan",
    "path": "pakistan/KPK/cities/akhagram"
  },
  {
    "id": 8241790120,
    "name": "Batakundi",
    "name_ur": "بٹہ کنڈی",
    "type": "city",
    "lat": 34.9305834,
    "lon": 73.7774603,
    "province": "Khyber Pakhtunkhwa",
    "country": "Pakistan",
    "path": "pakistan/KPK/cities/batakundi"
  },
  {
    "id": 3122099017,
    "name": "Lassan Nawab Sahib",
    "name_ur": "لساں نواب صاحب",
    "type": "city",
    "lat": 34.2756445,
    "lon": 72.974169,
    "province": "Khyber Pakhtunkhwa",
    "country": "Pakistan",
    "path": "pakistan/KPK/cities/lassan_nawab_sahib"
  },
  {
    "id": 11524066286,
    "name": "Miandam",
    "name_ur": "میاندام",
    "type": "city",
    "lat": 35.0533952,
    "lon": 72.5605987,
    "province": "Khyber Pakhtunkhwa",
    "country": "Pakistan",
    "path": "pakistan/KPK/cities/miandam"
  },
  {
    "id": 2663035649,
    "name": "Arandu",
    "name_ur": "ارندو",
    "type": "city",
    "lat": 35.3101106,
    "lon": 71.5510558,
    "province": "Khyber Pakhtunkhwa",
    "country": "Pakistan",
    "path": "pakistan/KPK/cities/arandu"
  },
  {
    "id": 6186571085,
    "name": "Jalala",
    "name_ur": "جلالہ",
    "type": "city",
    "lat": 34.3333087,
    "lon": 71.9081698,
    "province": "Khyber Pakhtunkhwa",
    "country": "Pakistan",
    "path": "pakistan/KPK/cities/jalala"
  },
  {
    "id": 4553214748,
    "name": "Rustam",
    "name_ur": "رستم",
    "type": "city",
    "lat": 34.3424015,
    "lon": 72.2802692,
    "province": "Khyber Pakhtunkhwa",
    "country": "Pakistan",
    "path": "pakistan/KPK/cities/rustam"
  },
  {
    "id": 2052597083,
    "name": "Miran Shah",
    "name_ur": "میران شاہ",
    "type": "city",
    "lat": 33.0018133,
    "lon": 70.0670776,
    "province": "Khyber Pakhtunkhwa",
    "country": "Pakistan",
    "path": "pakistan/KPK/cities/miran_shah"
  },
  {
    "id": 844575689,
    "name": "Kalam",
    "name_ur": "کالام",
    "type": "city",
    "lat": 35.4861081,
    "lon": 72.5845788,
    "province": "Khyber Pakhtunkhwa",
    "country": "Pakistan",
    "path": "pakistan/KPK/cities/kalam"
  },
  {
    "id": 2794728414,
    "name": "Sakhakot",
    "name_ur": "سخاکوٹ",
    "type": "city",
    "lat": 34.4573906,
    "lon": 71.9083828,
    "province": "Khyber Pakhtunkhwa",
    "country": "Pakistan",
    "path": "pakistan/KPK/cities/sakhakot"
  },
  {
    "id": 5736891371,
    "name": "Manki Sharif",
    "name_ur": "مانکی",
    "type": "city",
    "lat": 33.9417338,
    "lon": 71.9729879,
    "province": "Khyber Pakhtunkhwa",
    "country": "Pakistan",
    "path": "pakistan/KPK/cities/manki_sharif"
  },
  {
    "id": 848390462,
    "name": "Malakand",
    "name_ur": "ملاکنڈ‎",
    "type": "city",
    "lat": 34.5730269,
    "lon": 71.9318872,
    "province": "Khyber Pakhtunkhwa",
    "country": "Pakistan",
    "path": "pakistan/KPK/cities/malakand"
  },
  {
    "id": 857338082,
    "name": "Harichand",
    "name_ur": "ہری چند",
    "type": "city",
    "lat": 34.3846736,
    "lon": 71.8048498,
    "province": "Khyber Pakhtunkhwa",
    "country": "Pakistan",
    "path": "pakistan/KPK/cities/harichand"
  },
  {
    "id": 895231883,
    "name": "Baffa",
    "name_ur": "بفہ",
    "type": "city",
    "lat": 34.4365258,
    "lon": 73.2190526,
    "province": "Khyber Pakhtunkhwa",
    "country": "Pakistan",
    "path": "pakistan/KPK/cities/baffa"
  },
  {
    "id": 4888699065,
    "name": "Ghalanai",
    "name_ur": "غلنئی",
    "type": "city",
    "lat": 34.3230293,
    "lon": 71.3996165,
    "province": "Khyber Pakhtunkhwa",
    "country": "Pakistan",
    "path": "pakistan/KPK/cities/ghalanai"
  },
  {
    "id": 2591136786,
    "name": "Seni Gumbat",
    "name_ur": "سینی گمبٹ",
    "type": "city",
    "lat": 33.496441,
    "lon": 71.6747973,
    "province": "Khyber Pakhtunkhwa",
    "country": "Pakistan",
    "path": "pakistan/KPK/cities/seni_gumbat"
  },
  {
    "id": 3334994693,
    "name": "Totalai",
    "name_ur": "طوطالئ",
    "type": "city",
    "lat": 34.1947009,
    "lon": 72.4999736,
    "province": "Khyber Pakhtunkhwa",
    "country": "Pakistan",
    "path": "pakistan/KPK/cities/totalai"
  },
  {
    "id": 3069084383,
    "name": "Munda Qala",
    "name_ur": "منڈا قلعه",
    "type": "city",
    "lat": 34.8240274,
    "lon": 71.6835694,
    "province": "Khyber Pakhtunkhwa",
    "country": "Pakistan",
    "path": "pakistan/KPK/cities/munda_qala"
  },
  {
    "id": 8909328978,
    "name": "Wadpagga",
    "name_ur": "وڈپگہ",
    "type": "city",
    "lat": 34.0374557,
    "lon": 71.6458398,
    "province": "Khyber Pakhtunkhwa",
    "country": "Pakistan",
    "path": "pakistan/KPK/cities/wadpagga"
  },
  {
    "id": 8488590714,
    "name": "Chhota Lahor",
    "name_ur": "چھوٹا لاہور",
    "type": "city",
    "lat": 34.0493802,
    "lon": 72.3646955,
    "province": "Khyber Pakhtunkhwa",
    "country": "Pakistan",
    "path": "pakistan/KPK/cities/chhota_lahor"
  },
  {
    "id": 58876734,
    "name": "Landi Kotal",
    "name_ur": "لنڈی کوتل",
    "type": "city",
    "lat": 34.1005274,
    "lon": 71.1468496,
    "province": "Khyber Pakhtunkhwa",
    "country": "Pakistan",
    "path": "pakistan/KPK/cities/landi_kotal"
  },
  {
    "id": 9582838715,
    "name": "Batkhela",
    "name_ur": "بٹ خیلہ",
    "type": "city",
    "lat": 34.6134314,
    "lon": 71.9677447,
    "province": "Khyber Pakhtunkhwa",
    "country": "Pakistan",
    "path": "pakistan/KPK/cities/batkhela"
  },
  {
    "id": 90553405,
    "name": "Charsadda",
    "name_ur": "چار سدہ",
    "type": "city",
    "lat": 34.1461506,
    "lon": 71.7337464,
    "province": "Khyber Pakhtunkhwa",
    "country": "Pakistan",
    "path": "pakistan/KPK/cities/charsadda"
  },
  {
    "id": 13653686928,
    "name": "Spin",
    "name_ur": "سپین",
    "type": "city",
    "lat": 32.1480158,
    "lon": 69.6817879,
    "province": "Khyber Pakhtunkhwa",
    "country": "Pakistan",
    "path": "pakistan/KPK/cities/spin"
  },
  {
    "id": 6453095507,
    "name": "Allai",
    "name_ur": "آلائی",
    "type": "city",
    "lat": 34.8298599,
    "lon": 73.0613989,
    "province": "Khyber Pakhtunkhwa",
    "country": "Pakistan",
    "path": "pakistan/KPK/cities/allai"
  },
  {
    "id": 740162446,
    "name": "Dassu",
    "name_ur": "داسو",
    "type": "city",
    "lat": 35.2686424,
    "lon": 73.2240114,
    "province": "Khyber Pakhtunkhwa",
    "country": "Pakistan",
    "path": "pakistan/KPK/cities/dassu"
  },
  {
    "id": 5221900024,
    "name": "Garhi Kapoora",
    "name_ur": "گڑھی کپورہ",
    "type": "city",
    "lat": 34.1959134,
    "lon": 72.1630307,
    "province": "Khyber Pakhtunkhwa",
    "country": "Pakistan",
    "path": "pakistan/KPK/cities/garhi_kapoora"
  },
  {
    "id": 867102026,
    "name": "Jamrud",
    "name_ur": "جمرود",
    "type": "city",
    "lat": 34.0020094,
    "lon": 71.3808343,
    "province": "Khyber Pakhtunkhwa",
    "country": "Pakistan",
    "path": "pakistan/KPK/cities/jamrud"
  },
  {
    "id": 848389502,
    "name": "Tangi",
    "name_ur": "تنگی",
    "type": "city",
    "lat": 34.301484,
    "lon": 71.6518839,
    "province": "Khyber Pakhtunkhwa",
    "country": "Pakistan",
    "path": "pakistan/KPK/cities/tangi"
  },
  {
    "id": 5430995026,
    "name": "Bher Kund",
    "name_ur": "بھیر کنڈ",
    "type": "city",
    "lat": 34.3936795,
    "lon": 73.1571551,
    "province": "Khyber Pakhtunkhwa",
    "country": "Pakistan",
    "path": "pakistan/KPK/cities/bher_kund"
  },
  {
    "id": 13657040847,
    "name": "Khan Kot",
    "name_ur": "Khan Kot",
    "type": "city",
    "lat": 32.0577324,
    "lon": 69.3312139,
    "province": "Khyber Pakhtunkhwa",
    "country": "Pakistan",
    "path": "pakistan/KPK/cities/khan_kot"
  },
  {
    "id": 11244164370,
    "name": "Wari",
    "name_ur": "واڑی",
    "type": "city",
    "lat": 34.9896408,
    "lon": 72.0363891,
    "province": "Khyber Pakhtunkhwa",
    "country": "Pakistan",
    "path": "pakistan/KPK/cities/wari"
  },
  {
    "id": 2622049415,
    "name": "Kulachi",
    "name_ur": "کلاچی",
    "type": "city",
    "lat": 31.9299926,
    "lon": 70.4592265,
    "province": "Khyber Pakhtunkhwa",
    "country": "Pakistan",
    "path": "pakistan/KPK/cities/kulachi"
  },
  {
    "id": 279821922,
    "name": "Dera Ismail Khan",
    "name_ur": "ڈیره اسماعیل خان",
    "type": "city",
    "lat": 31.827527,
    "lon": 70.9090919,
    "province": "Khyber Pakhtunkhwa",
    "country": "Pakistan",
    "path": "pakistan/KPK/cities/dera_ismail_khan"
  },
  {
    "id": 279776192,
    "name": "Drosh",
    "name_ur": "دروش",
    "type": "city",
    "lat": 35.5616271,
    "lon": 71.797564,
    "province": "Khyber Pakhtunkhwa",
    "country": "Pakistan",
    "path": "pakistan/KPK/cities/drosh"
  },
  {
    "id": 279777458,
    "name": "Mastuj",
    "name_ur": "مستوج",
    "type": "city",
    "lat": 36.2769677,
    "lon": 72.5152762,
    "province": "Khyber Pakhtunkhwa",
    "country": "Pakistan",
    "path": "pakistan/KPK/cities/mastuj"
  },
  {
    "id": 4029130082,
    "name": "Drazanda",
    "name_ur": "درازنده",
    "type": "city",
    "lat": 31.7077607,
    "lon": 70.1370192,
    "province": "Khyber Pakhtunkhwa",
    "country": "Pakistan",
    "path": "pakistan/KPK/cities/drazanda"
  },
  {
    "id": 868379815,
    "name": "Tordher",
    "name_ur": "توردھر",
    "type": "city",
    "lat": 33.9909477,
    "lon": 72.2878566,
    "province": "Khyber Pakhtunkhwa",
    "country": "Pakistan",
    "path": "pakistan/KPK/cities/tordher"
  },
  {
    "id": 2701921583,
    "name": "New Balakot",
    "name_ur": "نیا بالاکوٹ",
    "type": "city",
    "lat": 34.4152907,
    "lon": 73.2930019,
    "province": "Khyber Pakhtunkhwa",
    "country": "Pakistan",
    "path": "pakistan/KPK/cities/new_balakot"
  },
  {
    "id": 11290138216,
    "name": "Havelian Cantonment",
    "name_ur": "حویلیاں چھاؤنی",
    "type": "city",
    "lat": 34.0483331,
    "lon": 73.1336457,
    "province": "Khyber Pakhtunkhwa",
    "country": "Pakistan",
    "path": "pakistan/KPK/cities/havelian_cantonment"
  },
  {
    "id": 848389510,
    "name": "Shabqadar",
    "name_ur": "شب قدر",
    "type": "city",
    "lat": 34.2146534,
    "lon": 71.5559253,
    "province": "Khyber Pakhtunkhwa",
    "country": "Pakistan",
    "path": "pakistan/KPK/cities/shabqadar"
  },
  {
    "id": 5110741280,
    "name": "Bakhshali",
    "name_ur": "بخشالی",
    "type": "city",
    "lat": 34.284722,
    "lon": 72.15,
    "province": "Khyber Pakhtunkhwa",
    "country": "Pakistan",
    "path": "pakistan/KPK/cities/bakhshali"
  },
  {
    "id": 848389512,
    "name": "Warsak",
    "name_ur": "ورسک",
    "type": "city",
    "lat": 34.1658457,
    "lon": 71.4172982,
    "province": "Khyber Pakhtunkhwa",
    "country": "Pakistan",
    "path": "pakistan/KPK/cities/warsak"
  },
  {
    "id": 848389506,
    "name": "Mera Umarzai",
    "name_ur": "مائرہ امدرزئی",
    "type": "city",
    "lat": 34.2367952,
    "lon": 71.7269,
    "province": "Khyber Pakhtunkhwa",
    "country": "Pakistan",
    "path": "pakistan/KPK/cities/mera_umarzai"
  },
  {
    "id": 931683263,
    "name": "Mubarakpur",
    "name_ur": "مبارک پور",
    "type": "village",
    "lat": 28.1689566,
    "lon": 68.6384417,
    "province": "Sindh",
    "country": "Pakistan",
    "path": "pakistan/sindh/villages/mubarakpur"
  },
  {
    "id": 10069783959,
    "name": "Lakha Road",
    "name_ur": "لاکھا روڈ",
    "type": "village",
    "lat": 26.9894222,
    "lon": 68.3423806,
    "province": "Sindh",
    "country": "Pakistan",
    "path": "pakistan/sindh/villages/lakha_road"
  },
  {
    "id": 10299268138,
    "name": "Saeedpur",
    "name_ur": "سیدپور",
    "type": "village",
    "lat": 25.1322182,
    "lon": 68.4543954,
    "province": "Sindh",
    "country": "Pakistan",
    "path": "pakistan/sindh/villages/saeedpur"
  },
  {
    "id": 10067989676,
    "name": "Mithri",
    "name_ur": "Mithri",
    "type": "village",
    "lat": 27.4074444,
    "lon": 68.7371449,
    "province": "Sindh",
    "country": "Pakistan",
    "path": "pakistan/sindh/villages/mithri"
  },
  {
    "id": 871797984,
    "name": "Shaikh Bhirkio",
    "name_ur": "شيخ بھرکيو",
    "type": "village",
    "lat": 25.2600762,
    "lon": 68.660281,
    "province": "Sindh",
    "country": "Pakistan",
    "path": "pakistan/sindh/villages/shaikh_bhirkio"
  },
  {
    "id": 9960537322,
    "name": "Bakhsho Leghari",
    "name_ur": "بخشو لغاری",
    "type": "village",
    "lat": 25.2940068,
    "lon": 68.5553898,
    "province": "Sindh",
    "country": "Pakistan",
    "path": "pakistan/sindh/villages/bakhsho_leghari"
  },
  {
    "id": 12064177987,
    "name": "Bago Daho",
    "name_ur": "Bago Daho",
    "type": "village",
    "lat": 28.1133258,
    "lon": 69.5304722,
    "province": "Sindh",
    "country": "Pakistan",
    "path": "pakistan/sindh/villages/bago_daho"
  },
  {
    "id": 10316529028,
    "name": "Khudabad",
    "name_ur": "خدا آباد",
    "type": "village",
    "lat": 26.647027,
    "lon": 67.7386855,
    "province": "Sindh",
    "country": "Pakistan",
    "path": "pakistan/sindh/villages/khudabad"
  },
  {
    "id": 931716714,
    "name": "Jaggan",
    "name_ur": "جاگن",
    "type": "village",
    "lat": 28.0837917,
    "lon": 68.4941562,
    "province": "Sindh",
    "country": "Pakistan",
    "path": "pakistan/sindh/villages/jaggan"
  },
  {
    "id": 7036303865,
    "name": "Village Haji Ali Muhammad Rahu",
    "name_ur": "گوڻھ حاجي علي محمد راہو",
    "type": "village",
    "lat": 25.3645271,
    "lon": 69.3747898,
    "province": "Sindh",
    "country": "Pakistan",
    "path": "pakistan/sindh/villages/village_haji_ali_muhammad_rahu"
  },
  {
    "id": 9991962372,
    "name": "Piryaloi",
    "name_ur": "پریالوئی",
    "type": "village",
    "lat": 27.6471503,
    "lon": 68.7172952,
    "province": "Sindh",
    "country": "Pakistan",
    "path": "pakistan/sindh/villages/piryaloi"
  },
  {
    "id": 13656687283,
    "name": "Dil Sher Brohi",
    "name_ur": "دل شیر بروہی",
    "type": "village",
    "lat": 28.0455868,
    "lon": 68.071525,
    "province": "Sindh",
    "country": "Pakistan",
    "path": "pakistan/sindh/villages/dil_sher_brohi"
  },
  {
    "id": 5491432135,
    "name": "Husri",
    "name_ur": "ہوسڑی",
    "type": "village",
    "lat": 25.3139401,
    "lon": 68.4243614,
    "province": "Sindh",
    "country": "Pakistan",
    "path": "pakistan/sindh/villages/husri"
  },
  {
    "id": 928413147,
    "name": "Bubak",
    "name_ur": "بوبک",
    "type": "village",
    "lat": 26.4455412,
    "lon": 67.7213624,
    "province": "Sindh",
    "country": "Pakistan",
    "path": "pakistan/sindh/villages/bubak"
  },
  {
    "id": 929267518,
    "name": "Mehrabpur",
    "name_ur": "محراب پور",
    "type": "village",
    "lat": 26.0975492,
    "lon": 68.1495024,
    "province": "Sindh",
    "country": "Pakistan",
    "path": "pakistan/sindh/villages/mehrabpur"
  },
  {
    "id": 931665735,
    "name": "Sultan Kot",
    "name_ur": "سلطان کوٹ",
    "type": "village",
    "lat": 28.0703145,
    "lon": 68.5932606,
    "province": "Sindh",
    "country": "Pakistan",
    "path": "pakistan/sindh/villages/sultan_kot"
  },
  {
    "id": 9960537318,
    "name": "Chukhi",
    "name_ur": "Chukhi",
    "type": "village",
    "lat": 25.3059817,
    "lon": 68.588955,
    "province": "Sindh",
    "country": "Pakistan",
    "path": "pakistan/sindh/villages/chukhi"
  },
  {
    "id": 2740837279,
    "name": "Khokhrapar",
    "name_ur": "کھوکھراپار",
    "type": "village",
    "lat": 25.6994957,
    "lon": 70.2002833,
    "province": "Sindh",
    "country": "Pakistan",
    "path": "pakistan/sindh/villages/khokhrapar"
  },
  {
    "id": 10067989689,
    "name": "Kot Diji",
    "name_ur": "کوٹ ڈیجی",
    "type": "village",
    "lat": 27.3430938,
    "lon": 68.7093634,
    "province": "Sindh",
    "country": "Pakistan",
    "path": "pakistan/sindh/villages/kot_diji"
  },
  {
    "id": 13677567064,
    "name": "Mehar Ali Brohi",
    "name_ur": "مہر علی بروہی",
    "type": "village",
    "lat": 28.0556969,
    "lon": 67.9701442,
    "province": "Sindh",
    "country": "Pakistan",
    "path": "pakistan/sindh/villages/mehar_ali_brohi"
  },
  {
    "id": 931683286,
    "name": "Miān Sāhib",
    "name_ur": "میاں صاحب",
    "type": "village",
    "lat": 28.1530187,
    "lon": 68.6418306,
    "province": "Sindh",
    "country": "Pakistan",
    "path": "pakistan/sindh/villages/min_shib"
  },
  {
    "id": 9960537809,
    "name": "Rajo Nizamani",
    "name_ur": "راجو نظاماڻي",
    "type": "village",
    "lat": 25.1956975,
    "lon": 68.5656939,
    "province": "Sindh",
    "country": "Pakistan",
    "path": "pakistan/sindh/villages/rajo_nizamani"
  },
  {
    "id": 10067989555,
    "name": "Jani Buriro",
    "name_ur": "Jani Buriro",
    "type": "village",
    "lat": 27.4386053,
    "lon": 68.767879,
    "province": "Sindh",
    "country": "Pakistan",
    "path": "pakistan/sindh/villages/jani_buriro"
  },
  {
    "id": 9991992674,
    "name": "Habib Kot",
    "name_ur": "حبیب کوٹ",
    "type": "village",
    "lat": 27.8577016,
    "lon": 68.6606637,
    "province": "Sindh",
    "country": "Pakistan",
    "path": "pakistan/sindh/villages/habib_kot"
  },
  {
    "id": 5229838333,
    "name": "Sindhri",
    "name_ur": "سندھڑی",
    "type": "village",
    "lat": 25.7091984,
    "lon": 69.1285568,
    "province": "Sindh",
    "country": "Pakistan",
    "path": "pakistan/sindh/villages/sindhri"
  },
  {
    "id": 13822189782,
    "name": "Lal Shah Bari",
    "name_ur": "Lal Shah Bari",
    "type": "village",
    "lat": 28.0127089,
    "lon": 68.1000138,
    "province": "Sindh",
    "country": "Pakistan",
    "path": "pakistan/sindh/villages/lal_shah_bari"
  },
  {
    "id": 10080884755,
    "name": "Bhutta Kalhora",
    "name_ur": "بھٹا کلہوڑا",
    "type": "village",
    "lat": 27.4763937,
    "lon": 68.184392,
    "province": "Sindh",
    "country": "Pakistan",
    "path": "pakistan/sindh/villages/bhutta_kalhora"
  },
  {
    "id": 89379345,
    "name": "Sekhat (سیکاٹ)",
    "name_ur": "Sekhat (سیکاٹ)",
    "type": "village",
    "lat": 25.6502697,
    "lon": 68.4963876,
    "province": "Sindh",
    "country": "Pakistan",
    "path": "pakistan/sindh/villages/sekhat_"
  },
  {
    "id": 3962599957,
    "name": "Thul",
    "name_ur": "ٹھل",
    "type": "city",
    "lat": 28.2365315,
    "lon": 68.7761587,
    "province": "Sindh",
    "country": "Pakistan",
    "path": "pakistan/sindh/cities/thul"
  },
  {
    "id": 11201578930,
    "name": "SITE Town",
    "name_ur": "سائٹ ٹاؤن",
    "type": "city",
    "lat": 24.9131997,
    "lon": 67.0064849,
    "province": "Sindh",
    "country": "Pakistan",
    "path": "pakistan/sindh/cities/site_town"
  },
  {
    "id": 11224158202,
    "name": "Salehpat",
    "name_ur": "صالح پٹ",
    "type": "city",
    "lat": 27.5200969,
    "lon": 69.0449326,
    "province": "Sindh",
    "country": "Pakistan",
    "path": "pakistan/sindh/cities/salehpat_11224158202"
  },
  {
    "id": 11203165749,
    "name": "Jamshed",
    "name_ur": "جمشید",
    "type": "city",
    "lat": 24.8768277,
    "lon": 67.0461862,
    "province": "Sindh",
    "country": "Pakistan",
    "path": "pakistan/sindh/cities/jamshed"
  },
  {
    "id": 765974222,
    "name": "Keti Bandar",
    "name_ur": "کیٹی بندر",
    "type": "city",
    "lat": 24.1438796,
    "lon": 67.4510995,
    "province": "Sindh",
    "country": "Pakistan",
    "path": "pakistan/sindh/cities/keti_bandar"
  },
  {
    "id": 8666223378,
    "name": "Khangarh",
    "name_ur": "خان گڑھ",
    "type": "city",
    "lat": 27.8688968,
    "lon": 69.4191005,
    "province": "Sindh",
    "country": "Pakistan",
    "path": "pakistan/sindh/cities/khangarh"
  },
  {
    "id": 10069783707,
    "name": "Halani",
    "name_ur": "ہالانی",
    "type": "city",
    "lat": 27.085972,
    "lon": 68.3139657,
    "province": "Sindh",
    "country": "Pakistan",
    "path": "pakistan/sindh/cities/halani"
  },
  {
    "id": 8241541472,
    "name": "Sann",
    "name_ur": "سن",
    "type": "city",
    "lat": 26.0375282,
    "lon": 68.1335631,
    "province": "Sindh",
    "country": "Pakistan",
    "path": "pakistan/sindh/cities/sann"
  },
  {
    "id": 8335779204,
    "name": "Qasimabad",
    "name_ur": "قاسم آباد",
    "type": "city",
    "lat": 25.3953922,
    "lon": 68.3333756,
    "province": "Sindh",
    "country": "Pakistan",
    "path": "pakistan/sindh/cities/qasimabad"
  },
  {
    "id": 767407721,
    "name": "Mīrpur Sakro",
    "name_ur": "میرپورساکرو",
    "type": "city",
    "lat": 24.5471807,
    "lon": 67.6277734,
    "province": "Sindh",
    "country": "Pakistan",
    "path": "pakistan/sindh/cities/mrpur_sakro"
  },
  {
    "id": 2740836892,
    "name": "Dahli",
    "name_ur": "ڈھلی",
    "type": "city",
    "lat": 25.471267,
    "lon": 70.5122234,
    "province": "Sindh",
    "country": "Pakistan",
    "path": "pakistan/sindh/cities/dahli"
  },
  {
    "id": 89408903,
    "name": "Kandiaro",
    "name_ur": "کنڈیارو",
    "type": "city",
    "lat": 27.0594568,
    "lon": 68.2103517,
    "province": "Sindh",
    "country": "Pakistan",
    "path": "pakistan/sindh/cities/kandiaro"
  },
  {
    "id": 2996195672,
    "name": "Radhan",
    "name_ur": "رادھن",
    "type": "city",
    "lat": 27.1775378,
    "lon": 67.9512147,
    "province": "Sindh",
    "country": "Pakistan",
    "path": "pakistan/sindh/cities/radhan"
  },
  {
    "id": 3467175792,
    "name": "Matli",
    "name_ur": "ماتلی",
    "type": "city",
    "lat": 25.0441564,
    "lon": 68.6589358,
    "province": "Sindh",
    "country": "Pakistan",
    "path": "pakistan/sindh/cities/matli"
  },
  {
    "id": 1454692423,
    "name": "Wahi Pandhi",
    "name_ur": "واہی پاندہی",
    "type": "city",
    "lat": 26.6628548,
    "lon": 67.3712474,
    "province": "Sindh",
    "country": "Pakistan",
    "path": "pakistan/sindh/cities/wahi_pandhi"
  },
  {
    "id": 1129364490,
    "name": "Hyderabad",
    "name_ur": "حیدرآباد",
    "type": "city",
    "lat": 25.3868287,
    "lon": 68.3714971,
    "province": "Sindh",
    "country": "Pakistan",
    "path": "pakistan/sindh/cities/hyderabad"
  },
  {
    "id": 869459933,
    "name": "Jam Sahib",
    "name_ur": "جام صاحب",
    "type": "city",
    "lat": 26.2961783,
    "lon": 68.6309547,
    "province": "Sindh",
    "country": "Pakistan",
    "path": "pakistan/sindh/cities/jam_sahib"
  },
  {
    "id": 767462102,
    "name": "Mithiani",
    "name_ur": "مٹھیانی",
    "type": "city",
    "lat": 26.8697157,
    "lon": 67.9804528,
    "province": "Sindh",
    "country": "Pakistan",
    "path": "pakistan/sindh/cities/mithiani"
  },
  {
    "id": 11211167712,
    "name": "Thana Bulla Khan",
    "name_ur": "تھانہ بولا خان",
    "type": "city",
    "lat": 25.3612637,
    "lon": 67.8356683,
    "province": "Sindh",
    "country": "Pakistan",
    "path": "pakistan/sindh/cities/thana_bulla_khan"
  },
  {
    "id": 1935948312,
    "name": "Wagan",
    "name_ur": "ویگن",
    "type": "city",
    "lat": 27.4965073,
    "lon": 67.9666379,
    "province": "Sindh",
    "country": "Pakistan",
    "path": "pakistan/sindh/cities/wagan"
  },
  {
    "id": 3020423936,
    "name": "Pithoro",
    "name_ur": "پتھورو",
    "type": "city",
    "lat": 25.5046388,
    "lon": 69.3874221,
    "province": "Sindh",
    "country": "Pakistan",
    "path": "pakistan/sindh/cities/pithoro"
  },
  {
    "id": 4062550939,
    "name": "Kumb",
    "name_ur": "کمب",
    "type": "city",
    "lat": 27.300908,
    "lon": 68.6141996,
    "province": "Sindh",
    "country": "Pakistan",
    "path": "pakistan/sindh/cities/kumb"
  },
  {
    "id": 767407724,
    "name": "Jati",
    "name_ur": "جاتی",
    "type": "city",
    "lat": 24.3533505,
    "lon": 68.2678116,
    "province": "Sindh",
    "country": "Pakistan",
    "path": "pakistan/sindh/cities/jati"
  },
  {
    "id": 5491215404,
    "name": "Tando Qaiser",
    "name_ur": "ٹنڈو قیصر",
    "type": "city",
    "lat": 25.3809144,
    "lon": 68.516065,
    "province": "Sindh",
    "country": "Pakistan",
    "path": "pakistan/sindh/cities/tando_qaiser"
  },
  {
    "id": 4089248793,
    "name": "Sakrand",
    "name_ur": "سکرنڈ",
    "type": "city",
    "lat": 26.1359715,
    "lon": 68.2734653,
    "province": "Sindh",
    "country": "Pakistan",
    "path": "pakistan/sindh/cities/sakrand"
  },
  {
    "id": 1934240459,
    "name": "Shahdadkot",
    "name_ur": "شہدادکوٹ",
    "type": "city",
    "lat": 27.8468014,
    "lon": 67.908116,
    "province": "Sindh",
    "country": "Pakistan",
    "path": "pakistan/sindh/cities/shahdadkot"
  },
  {
    "id": 2940910418,
    "name": "Shikarpur",
    "name_ur": "شکارپور",
    "type": "city",
    "lat": 27.9556608,
    "lon": 68.6408686,
    "province": "Sindh",
    "country": "Pakistan",
    "path": "pakistan/sindh/cities/shikarpur"
  },
  {
    "id": 869456909,
    "name": "Shahpur Chakar",
    "name_ur": "شاہپور چکر",
    "type": "city",
    "lat": 26.1549688,
    "lon": 68.6481209,
    "province": "Sindh",
    "country": "Pakistan",
    "path": "pakistan/sindh/cities/shahpur_chakar"
  },
  {
    "id": 930531051,
    "name": "Qubo Saeed Khan",
    "name_ur": "قبو سعید خان",
    "type": "city",
    "lat": 27.8743783,
    "lon": 67.7088652,
    "province": "Sindh",
    "country": "Pakistan",
    "path": "pakistan/sindh/cities/qubo_saeed_khan"
  },
  {
    "id": 253180210,
    "name": "Tando Allahyar",
    "name_ur": "ٹنڈو الہ یار",
    "type": "city",
    "lat": 25.4619907,
    "lon": 68.7198264,
    "province": "Sindh",
    "country": "Pakistan",
    "path": "pakistan/sindh/cities/tando_allahyar"
  },
  {
    "id": 1934240065,
    "name": "Naudero",
    "name_ur": "نوڈیرو",
    "type": "city",
    "lat": 27.6647173,
    "lon": 68.3600339,
    "province": "Sindh",
    "country": "Pakistan",
    "path": "pakistan/sindh/cities/naudero"
  },
  {
    "id": 89398338,
    "name": "Daulatpur",
    "name_ur": "دولت پور‎",
    "type": "city",
    "lat": 26.5014456,
    "lon": 67.9727823,
    "province": "Sindh",
    "country": "Pakistan",
    "path": "pakistan/sindh/cities/daulatpur"
  },
  {
    "id": 7324105490,
    "name": "Landhi",
    "name_ur": "لانڈھی",
    "type": "city",
    "lat": 24.8351918,
    "lon": 67.1774095,
    "province": "Sindh",
    "country": "Pakistan",
    "path": "pakistan/sindh/cities/landhi_7324105490"
  },
  {
    "id": 3020626163,
    "name": "Shadi Palli",
    "name_ur": "شادی پلی",
    "type": "city",
    "lat": 25.5201654,
    "lon": 69.2330378,
    "province": "Sindh",
    "country": "Pakistan",
    "path": "pakistan/sindh/cities/shadi_palli"
  },
  {
    "id": 4067743146,
    "name": "Pacca Chang",
    "name_ur": "پکا چانگ",
    "type": "city",
    "lat": 26.8689147,
    "lon": 68.3633654,
    "province": "Sindh",
    "country": "Pakistan",
    "path": "pakistan/sindh/cities/pacca_chang"
  },
  {
    "id": 10069700262,
    "name": "Bhiria Road",
    "name_ur": "بھریا روڈ",
    "type": "city",
    "lat": 26.8892465,
    "lon": 68.2803394,
    "province": "Sindh",
    "country": "Pakistan",
    "path": "pakistan/sindh/cities/bhiria_road"
  },
  {
    "id": 296189903,
    "name": "Gharo",
    "name_ur": "گھارو",
    "type": "city",
    "lat": 24.7408953,
    "lon": 67.581008,
    "province": "Sindh",
    "country": "Pakistan",
    "path": "pakistan/sindh/cities/gharo"
  },
  {
    "id": 4777338445,
    "name": "Mominabad",
    "name_ur": "مومن آباد",
    "type": "city",
    "lat": 24.9304645,
    "lon": 66.9917469,
    "province": "Sindh",
    "country": "Pakistan",
    "path": "pakistan/sindh/cities/mominabad"
  },
  {
    "id": 4775344239,
    "name": "Bin Qasim",
    "name_ur": "بن قاسم",
    "type": "city",
    "lat": 24.8558498,
    "lon": 67.2641594,
    "province": "Sindh",
    "country": "Pakistan",
    "path": "pakistan/sindh/cities/bin_qasim"
  },
  {
    "id": 7374065476,
    "name": "Gulberg",
    "name_ur": "گلبرگ",
    "type": "city",
    "lat": 24.9325432,
    "lon": 67.0705588,
    "province": "Sindh",
    "country": "Pakistan",
    "path": "pakistan/sindh/cities/gulberg"
  },
  {
    "id": 89394119,
    "name": "Kazi Ahmed",
    "name_ur": "قاضی احمد",
    "type": "city",
    "lat": 26.3019318,
    "lon": 68.104409,
    "province": "Sindh",
    "country": "Pakistan",
    "path": "pakistan/sindh/cities/kazi_ahmed"
  },
  {
    "id": 4067235812,
    "name": "Gaji Khuhawar",
    "name_ur": "گاجی کھاوڑ",
    "type": "city",
    "lat": 27.3607154,
    "lon": 67.8074023,
    "province": "Sindh",
    "country": "Pakistan",
    "path": "pakistan/sindh/cities/gaji_khuhawar"
  },
  {
    "id": 251327307,
    "name": "Mirpur Mathelo",
    "name_ur": "میرپور ماتھیلو",
    "type": "city",
    "lat": 28.0224685,
    "lon": 69.5521553,
    "province": "Sindh",
    "country": "Pakistan",
    "path": "pakistan/sindh/cities/mirpur_mathelo"
  },
  {
    "id": 890881084,
    "name": "Mirpur Bathoro",
    "name_ur": "ميرپور بٹھورو",
    "type": "city",
    "lat": 24.727906,
    "lon": 68.2579964,
    "province": "Sindh",
    "country": "Pakistan",
    "path": "pakistan/sindh/cities/mirpur_bathoro"
  },
  {
    "id": 13380482023,
    "name": "Hussain Jam Unar",
    "name_ur": "حسين جام أنر",
    "type": "city",
    "lat": 26.2556332,
    "lon": 68.1918714,
    "province": "Sindh",
    "country": "Pakistan",
    "path": "pakistan/sindh/cities/hussain_jam_unar"
  },
  {
    "id": 871792792,
    "name": "Tando Ghulam Ali",
    "name_ur": "ٹنڈو غلام علی",
    "type": "city",
    "lat": 25.1229782,
    "lon": 68.8905234,
    "province": "Sindh",
    "country": "Pakistan",
    "path": "pakistan/sindh/cities/tando_ghulam_ali"
  },
  {
    "id": 6982174671,
    "name": "Rahu Abad",
    "name_ur": "راہو آباد",
    "type": "city",
    "lat": 25.3498052,
    "lon": 69.389347,
    "province": "Sindh",
    "country": "Pakistan",
    "path": "pakistan/sindh/cities/rahu_abad"
  },
  {
    "id": 9560050299,
    "name": "Jam Nawaz Ali",
    "name_ur": "جام نواز علی",
    "type": "city",
    "lat": 25.7852629,
    "lon": 68.8578236,
    "province": "Sindh",
    "country": "Pakistan",
    "path": "pakistan/sindh/cities/jam_nawaz_ali"
  },
  {
    "id": 8666223348,
    "name": "Khanpur Mahar",
    "name_ur": "خان پور مہر",
    "type": "city",
    "lat": 27.8411234,
    "lon": 69.4119882,
    "province": "Sindh",
    "country": "Pakistan",
    "path": "pakistan/sindh/cities/khanpur_mahar"
  },
  {
    "id": 767436872,
    "name": "Makli",
    "name_ur": "مکلی",
    "type": "city",
    "lat": 24.747277,
    "lon": 67.8923259,
    "province": "Sindh",
    "country": "Pakistan",
    "path": "pakistan/sindh/cities/makli"
  },
  {
    "id": 3181550515,
    "name": "Karachi",
    "name_ur": "کراچی",
    "type": "city",
    "lat": 24.8546842,
    "lon": 67.0207055,
    "province": "Sindh",
    "country": "Pakistan",
    "path": "pakistan/sindh/cities/karachi"
  },
  {
    "id": 767436868,
    "name": "Gujo",
    "name_ur": "گجو",
    "type": "city",
    "lat": 24.7434392,
    "lon": 67.7688056,
    "province": "Sindh",
    "country": "Pakistan",
    "path": "pakistan/sindh/cities/gujo"
  },
  {
    "id": 11225807847,
    "name": "Bozdar Wada",
    "name_ur": "بوزدار وڈا",
    "type": "city",
    "lat": 27.183269,
    "lon": 68.6362124,
    "province": "Sindh",
    "country": "Pakistan",
    "path": "pakistan/sindh/cities/bozdar_wada"
  },