[
  {
    "name": "کھوہار",
    "category": "place",
    "subcategory": "village",
    "latitude": 32.8063636,
    "longitude": 73.6428827,
    "id": 9584591795
  },
  {
    "name": "Malu",
    "category": "place",
    "subcategory": "village",
    "latitude": 32.8110384,
    "longitude": 73.6444693,
    "id": 12972895647
  },
  {
    "name": "Jahangirpura",
    "category": "place",
    "subcategory": "village",
    "latitude": 32.8130325,
    "longitude": 73.6481471,
    "id": 12972895648
  },
  {
    "name": "residential",
    "category": "highway",
    "subcategory": "residential",
    "latitude": 32.80734516521739,
    "longitude": 73.64660145652174,
    "id": 242459529
  },
  {
    "name": "secondary",
    "category": "highway",
    "subcategory": "secondary",
    "latitude": 32.81461057272727,
    "longitude": 73.64876086969697,
    "id": 301962079
  },
  {
    "name": "Mandi Bahauddin–Sarai Alamgir Road",
    "category": "highway",
    "subcategory": "primary",
    "latitude": 32.76950545028249,
    "longitude": 73.62571285141243,
    "id": 547967430
  },
  {
    "name": "tertiary",
    "category": "highway",
    "subcategory": "tertiary",
    "latitude": 32.81487266141305,
    "longitude": 73.66726398423913,
    "id": 730035301
  },
  {
    "name": "residential",
    "category": "highway",
    "subcategory": "residential",
    "latitude": 32.81221350952381,
    "longitude": 73.64774171428571,
    "id": 774750126
  },
  {
    "name": "residential",
    "category": "highway",
    "subcategory": "residential",
    "latitude": 32.81060606470588,
    "longitude": 73.64385405882352,
    "id": 774750127
  },
  {
    "name": "residential",
    "category": "highway",
    "subcategory": "residential",
    "latitude": 32.80549587142857,
    "longitude": 73.64027170714287,
    "id": 774750128
  },
  {
    "name": "residential",
    "category": "highway",
    "subcategory": "residential",
    "latitude": 32.803397223529416,
    "longitude": 73.64705697058824,
    "id": 774750129
  },
  {
    "name": "residential",
    "category": "highway",
    "subcategory": "residential",
    "latitude": 32.80643138888889,
    "longitude": 73.6454251611111,
    "id": 998441665
  },
  {
    "name": "Mandi Bahauddin–Sarai Alamgir Road",
    "category": "highway",
    "subcategory": "primary",
    "latitude": 32.80567419007633,
    "longitude": 73.66234533740459,
    "id": 1464960840
  },
  {
    "name": "primary_link",
    "category": "highway",
    "subcategory": "primary_link",
    "latitude": 32.80295305,
    "longitude": 73.65013590000001,
    "id": 1464960884
  }
]