[
  {
    "name": "گولپور",
    "category": "place",
    "subcategory": "village",
    "latitude": 32.5908912,
    "longitude": 72.9334655,
    "id": 5045384729
  },
  {
    "name": "Golepur گولپور",
    "category": "landuse",
    "subcategory": "residential",
    "latitude": 32.59273130612245,
    "longitude": 72.93540204081633,
    "id": 516904302
  },
  {
    "name": "Hospital Road",
    "category": "highway",
    "subcategory": "residential",
    "latitude": 32.58634826956522,
    "longitude": 72.93437203478261,
    "id": 516906102
  },
  {
    "name": "Golepur Main St",
    "category": "highway",
    "subcategory": "unclassified",
    "latitude": 32.59283885714286,
    "longitude": 72.93379826571429,
    "id": 516906103
  },
  {
    "name": "Kora کوڑہ",
    "category": "landuse",
    "subcategory": "residential",
    "latitude": 32.594377135,
    "longitude": 72.94285852,
    "id": 516908210
  },
  {
    "name": "Kora Main Rd",
    "category": "highway",
    "subcategory": "unclassified",
    "latitude": 32.59314546,
    "longitude": 72.94255314,
    "id": 516908211
  },
  {
    "name": "لِلہ جہلم روڈ",
    "category": "highway",
    "subcategory": "trunk",
    "latitude": 32.58871782,
    "longitude": 72.92559094666667,
    "id": 1459133475
  },
  {
    "name": "لِلہ جہلم روڈ",
    "category": "highway",
    "subcategory": "trunk",
    "latitude": 32.58839148125,
    "longitude": 72.92550605,
    "id": 1459133477
  },
  {
    "name": "Golepur گولپور",
    "category": "landuse",
    "subcategory": "residential",
    "latitude": 32.592745283673466,
    "longitude": 72.93522380816326,
    "id": 516904302
  },
  {
    "name": "Kora کوڑہ",
    "category": "landuse",
    "subcategory": "residential",
    "latitude": 32.594683045,
    "longitude": 72.94254726,
    "id": 516908210
  }
]