[
  {
    "name": "village",
    "category": "place",
    "subcategory": "village",
    "latitude": 32.7615174,
    "longitude": 73.9045992,
    "id": 2522122134
  },
  {
    "name": "The Leather Point",
    "category": "shop",
    "subcategory": "shoes",
    "latitude": 32.7660082,
    "longitude": 73.9011401,
    "id": 5001578922
  },
  {
    "name": "Flavors Marquee",
    "category": "amenity",
    "subcategory": "restaurant",
    "latitude": 32.7662452,
    "longitude": 73.9009137,
    "id": 5001578923
  },
  {
    "name": "Diner's shop",
    "category": "shop",
    "subcategory": "clothes",
    "latitude": 32.7661263,
    "longitude": 73.9010444,
    "id": 5001592922
  },
  {
    "name": "Govt. Girls High School Panjan Kissana",
    "category": "amenity",
    "subcategory": "school",
    "latitude": 32.7618169,
    "longitude": 73.9053566,
    "id": 5304416221
  },
  {
    "name": "پنجن کسانہ",
    "category": "place",
    "subcategory": "village",
    "latitude": 32.7615412,
    "longitude": 73.9054082,
    "id": 12989151390
  },
  {
    "name": "گرینڈ ٹرنک روڈ",
    "category": "highway",
    "subcategory": "trunk",
    "latitude": 32.758043066666666,
    "longitude": 73.9077127,
    "id": 233325517
  },
  {
    "name": "گرینڈ ٹرنک روڈ",
    "category": "highway",
    "subcategory": "trunk",
    "latitude": 32.73745682692308,
    "longitude": 73.92514580384615,
    "id": 233325518
  },
  {
    "name": "گرینڈ ٹرنک روڈ",
    "category": "highway",
    "subcategory": "trunk",
    "latitude": 32.77197745517241,
    "longitude": 73.89600092413792,
    "id": 233325519
  },
  {
    "name": "گرینڈ ٹرنک روڈ",
    "category": "highway",
    "subcategory": "trunk",
    "latitude": 32.75802645,
    "longitude": 73.90755805,
    "id": 233325520
  },
  {
    "name": "گرینڈ ٹرنک روڈ",
    "category": "highway",
    "subcategory": "trunk",
    "latitude": 32.73887023448276,
    "longitude": 73.92378476896552,
    "id": 233337421
  },
  {
    "name": "Kharian-Jalalpur Jattan Road",
    "category": "highway",
    "subcategory": "secondary",
    "latitude": 32.77803770285714,
    "longitude": 73.93463016857143,
    "id": 236970304
  },
  {
    "name": "Chak Kamal Bega Road",
    "category": "highway",
    "subcategory": "tertiary",
    "latitude": 32.78274198227848,
    "longitude": 73.92145485316456,
    "id": 236970305
  },
  {
    "name": "tertiary",
    "category": "highway",
    "subcategory": "tertiary",
    "latitude": 32.76810263978495,
    "longitude": 73.86477478279569,
    "id": 237210255
  },
  {
    "name": "گرینڈ ٹرنک روڈ",
    "category": "highway",
    "subcategory": "trunk",
    "latitude": 32.773287330303035,
    "longitude": 73.89508369696969,
    "id": 237210679
  },
  {
    "name": "noor",
    "category": "amenity",
    "subcategory": "restaurant",
    "latitude": 32.76831796666667,
    "longitude": 73.89835495555556,
    "id": 243291532
  },
  {
    "name": "residential",
    "category": "highway",
    "subcategory": "residential",
    "latitude": 32.765811175,
    "longitude": 73.9008185,
    "id": 244942097
  },
  {
    "name": "U Mart",
    "category": "shop",
    "subcategory": "supermarket",
    "latitude": 32.76560962,
    "longitude": 73.90050135999999,
    "id": 244942098
  },
  {
    "name": "TDCP",
    "category": "amenity",
    "subcategory": "restaurant",
    "latitude": 32.76443713,
    "longitude": 73.90122155,
    "id": 244942099
  },
  {
    "name": "Panjan kasana child park",
    "category": "leisure",
    "subcategory": "park",
    "latitude": 32.763353,
    "longitude": 73.9016494,
    "id": 244942100
  },
  {
    "name": "Bismillah Truck Hotal",
    "category": "amenity",
    "subcategory": "restaurant",
    "latitude": 32.7685553,
    "longitude": 73.89949363333334,
    "id": 260957630
  },
  {
    "name": "commercial",
    "category": "landuse",
    "subcategory": "commercial",
    "latitude": 32.763372219999994,
    "longitude": 73.90336868,
    "id": 260957631
  },
  {
    "name": "secondary",
    "category": "highway",
    "subcategory": "secondary",
    "latitude": 32.7680574875,
    "longitude": 73.89960616249999,
    "id": 718101308
  },
  {
    "name": "service",
    "category": "highway",
    "subcategory": "service",
    "latitude": 32.76856015,
    "longitude": 73.89909795,
    "id": 718105388
  },
  {
    "name": "Kharian-Jalalpur Jattan Road",
    "category": "highway",
    "subcategory": "secondary",
    "latitude": 32.768294077777774,
    "longitude": 73.89931675555556,
    "id": 754714709
  },
  {
    "name": "residential",
    "category": "highway",
    "subcategory": "residential",
    "latitude": 32.759813126666664,
    "longitude": 73.90483839333334,
    "id": 1044772047
  },
  {
    "name": "residential",
    "category": "highway",
    "subcategory": "residential",
    "latitude": 32.763628630769226,
    "longitude": 73.91257722307692,
    "id": 1044772574
  },
  {
    "name": "residential",
    "category": "highway",
    "subcategory": "residential",
    "latitude": 32.7627386,
    "longitude": 73.90007676666666,
    "id": 1092746539
  },
  {
    "name": "residential",
    "category": "highway",
    "subcategory": "residential",
    "latitude": 32.7619516,
    "longitude": 73.9008464,
    "id": 1092746540
  },
  {
    "name": "residential",
    "category": "highway",
    "subcategory": "residential",
    "latitude": 32.76697373333334,
    "longitude": 73.90512207777778,
    "id": 1194409180
  },
  {
    "name": "Kharian Sambrial  M-12",
    "category": "highway",
    "subcategory": "construction",
    "latitude": 32.79123176551724,
    "longitude": 73.93372752068966,
    "id": 1212604849
  },
  {
    "name": "Sambrial Kharian Motorway  M-12",
    "category": "highway",
    "subcategory": "construction",
    "latitude": 32.790090267857146,
    "longitude": 73.93235630357142,
    "id": 1212604850
  },
  {
    "name": "residential",
    "category": "highway",
    "subcategory": "residential",
    "latitude": 32.77071406666667,
    "longitude": 73.9014223,
    "id": 1255739104
  },
  {
    "name": "trunk_link",
    "category": "highway",
    "subcategory": "trunk_link",
    "latitude": 32.76071565,
    "longitude": 73.90522014999999,
    "id": 1284195821
  },
  {
    "name": "trunk_link",
    "category": "highway",
    "subcategory": "trunk_link",
    "latitude": 32.76863395,
    "longitude": 73.8987104,
    "id": 1361571320
  },
  {
    "name": "construction",
    "category": "highway",
    "subcategory": "construction",
    "latitude": 32.7673549,
    "longitude": 73.90120487499999,
    "id": 1361789376
  },
  {
    "name": "construction",
    "category": "highway",
    "subcategory": "construction",
    "latitude": 32.76832838,
    "longitude": 73.90074786,
    "id": 1361789377
  },
  {
    "name": "residential",
    "category": "landuse",
    "subcategory": "residential",
    "latitude": 32.761139782142855,
    "longitude": 73.89635274285715,
    "id": 1413422621
  },
  {
    "name": "residential",
    "category": "landuse",
    "subcategory": "residential",
    "latitude": 32.76174369772727,
    "longitude": 73.90592106136363,
    "id": 1413424014
  },
  {
    "name": "trunk_link",
    "category": "highway",
    "subcategory": "trunk_link",
    "latitude": 32.754198099999996,
    "longitude": 73.91104625,
    "id": 1477007384
  },
  {
    "name": "unclassified",
    "category": "highway",
    "subcategory": "unclassified",
    "latitude": 32.77217185625,
    "longitude": 73.910525575,
    "id": 1526459730
  },
  {
    "name": "noor",
    "category": "amenity",
    "subcategory": "restaurant",
    "latitude": 32.7682208,
    "longitude": 73.89827473333334,
    "id": 243291532
  },
  {
    "name": "U Mart",
    "category": "shop",
    "subcategory": "supermarket",
    "latitude": 32.765621880000005,
    "longitude": 73.90040474,
    "id": 244942098
  },
  {
    "name": "TDCP",
    "category": "amenity",
    "subcategory": "restaurant",
    "latitude": 32.76436446,
    "longitude": 73.90114713,
    "id": 244942099
  },
  {
    "name": "Panjan kasana child park",
    "category": "leisure",
    "subcategory": "park",
    "latitude": 32.763353,
    "longitude": 73.9016494,
    "id": 244942100
  },
  {
    "name": "Bismillah Truck Hotal",
    "category": "amenity",
    "subcategory": "restaurant",
    "latitude": 32.7685553,
    "longitude": 73.89949363333334,
    "id": 260957630
  },
  {
    "name": "commercial",
    "category": "landuse",
    "subcategory": "commercial",
    "latitude": 32.763372219999994,
    "longitude": 73.90336868,
    "id": 260957631
  },
  {
    "name": "residential",
    "category": "landuse",
    "subcategory": "residential",
    "latitude": 32.76109579285714,
    "longitude": 73.89631257142857,
    "id": 1413422621
  },
  {
    "name": "residential",
    "category": "landuse",
    "subcategory": "residential",
    "latitude": 32.76174369772727,
    "longitude": 73.90592106136363,
    "id": 1413424014
  }
]