[
  {
    "name": "petrol pump 2",
    "category": "amenity",
    "subcategory": "fuel",
    "latitude": 32.5853864,
    "longitude": 74.1018115,
    "id": 2417658553
  },
  {
    "name": "Iqbal Chowk",
    "category": "place",
    "subcategory": "locality",
    "latitude": 32.5806678,
    "longitude": 74.0830779,
    "id": 2417719560
  },
  {
    "name": "Khan CNG",
    "category": "amenity",
    "subcategory": "fuel",
    "latitude": 32.589093,
    "longitude": 74.0514467,
    "id": 2418031618
  },
  {
    "name": "Aziz bhati Hospital",
    "category": "amenity",
    "subcategory": "hospital",
    "latitude": 32.5988327,
    "longitude": 74.0800958,
    "id": 2418857836
  },
  {
    "name": "سی این جی",
    "category": "amenity",
    "subcategory": "fuel",
    "latitude": 32.5867672,
    "longitude": 74.0631065,
    "id": 2419480580
  },
  {
    "name": "cng",
    "category": "amenity",
    "subcategory": "fuel",
    "latitude": 32.583485,
    "longitude": 74.093077,
    "id": 2425384150
  },
  {
    "name": "crossing",
    "category": "highway",
    "subcategory": "crossing",
    "latitude": 32.5763698,
    "longitude": 74.0692426,
    "id": 2425792047
  },
  {
    "name": "fuel",
    "category": "amenity",
    "subcategory": "fuel",
    "latitude": 32.584668,
    "longitude": 74.0699998,
    "id": 2444890382
  },
  {
    "name": "عادووال",
    "category": "place",
    "subcategory": "village",
    "latitude": 32.582295,
    "longitude": 74.0472764,
    "id": 2454146070
  },
  {
    "name": "معین الدین پور",
    "category": "place",
    "subcategory": "village",
    "latitude": 32.5853107,
    "longitude": 74.1087867,
    "id": 2500527092
  },
  {
    "name": "جمال پور سیداں",
    "category": "place",
    "subcategory": "village",
    "latitude": 32.6049843,
    "longitude": 74.1021212,
    "id": 2500527102
  },
  {
    "name": "Bank Alflah",
    "category": "amenity",
    "subcategory": "bank",
    "latitude": 32.5694334,
    "longitude": 74.0727073,
    "id": 2522383240
  },
  {
    "name": "ہریہ والا",
    "category": "place",
    "subcategory": "village",
    "latitude": 32.5371359,
    "longitude": 74.0606908,
    "id": 2552981976
  },
  {
    "name": "Kalra Kalan",
    "category": "place",
    "subcategory": "village",
    "latitude": 32.5460163,
    "longitude": 74.0752584,
    "id": 2552981977
  },
  {
    "name": "Lokra",
    "category": "place",
    "subcategory": "village",
    "latitude": 32.5468296,
    "longitude": 74.0823129,
    "id": 2552981978
  },
  {
    "name": "Kalra Khasa",
    "category": "place",
    "subcategory": "village",
    "latitude": 32.5454915,
    "longitude": 74.0897174,
    "id": 2552981979
  },
  {
    "name": "Kalra Punwan",
    "category": "place",
    "subcategory": "village",
    "latitude": 32.5498771,
    "longitude": 74.0991027,
    "id": 2552981980
  },
  {
    "name": "رتی",
    "category": "place",
    "subcategory": "village",
    "latitude": 32.5612645,
    "longitude": 74.1088346,
    "id": 2552981984
  },
  {
    "name": "کوٹلی",
    "category": "place",
    "subcategory": "village",
    "latitude": 32.5574118,
    "longitude": 74.1101474,
    "id": 2552981985
  },
  {
    "name": "Lundpur",
    "category": "place",
    "subcategory": "village",
    "latitude": 32.5489965,
    "longitude": 74.0592863,
    "id": 2555407350
  },
  {
    "name": "Qutab Abbad",
    "category": "place",
    "subcategory": "village",
    "latitude": 32.5612623,
    "longitude": 74.0447336,
    "id": 2555407398
  },
  {
    "name": "Miana Dera",
    "category": "place",
    "subcategory": "village",
    "latitude": 32.5686872,
    "longitude": 74.0447735,
    "id": 2555407399
  },
  {
    "name": "Tibbi Marlan",
    "category": "place",
    "subcategory": "village",
    "latitude": 32.5705134,
    "longitude": 74.048016,
    "id": 2555407400
  },
  {
    "name": "Tibbi Ghorian",
    "category": "place",
    "subcategory": "village",
    "latitude": 32.5740383,
    "longitude": 74.0501227,
    "id": 2555407401
  },
  {
    "name": "Muslim Pura",
    "category": "place",
    "subcategory": "suburb",
    "latitude": 32.5672439,
    "longitude": 74.0550386,
    "id": 2555407402
  },
  {
    "name": "Daswandi Pura",
    "category": "place",
    "subcategory": "suburb",
    "latitude": 32.5667707,
    "longitude": 74.0592657,
    "id": 2555407403
  },
  {
    "name": "گجرات",
    "category": "place",
    "subcategory": "city",
    "latitude": 32.5686782,
    "longitude": 74.071481,
    "id": 2555407404
  },
  {
    "name": "Noor pur sharqi",
    "category": "place",
    "subcategory": "suburb",
    "latitude": 32.5786425,
    "longitude": 74.0930009,
    "id": 2555415707
  },
  {
    "name": "Jattuwakal",
    "category": "place",
    "subcategory": "suburb",
    "latitude": 32.577694,
    "longitude": 74.0586859,
    "id": 2560342575
  },
  {
    "name": "سابو",
    "category": "place",
    "subcategory": "village",
    "latitude": 32.6063848,
    "longitude": 74.0652591,
    "id": 2792535634
  },
  {
    "name": "Phularwan",
    "category": "place",
    "subcategory": "village",
    "latitude": 32.6059955,
    "longitude": 74.0387009,
    "id": 2794646408
  },
  {
    "name": "fuel",
    "category": "amenity",
    "subcategory": "fuel",
    "latitude": 32.5542536,
    "longitude": 74.0322953,
    "id": 2832198182
  },
  {
    "name": "fuel",
    "category": "amenity",
    "subcategory": "fuel",
    "latitude": 32.5566548,
    "longitude": 74.0381514,
    "id": 2832198187
  },
  {
    "name": "ناروالی",
    "category": "place",
    "subcategory": "village",
    "latitude": 32.5498641,
    "longitude": 74.0356542,
    "id": 2832198200
  },
  {
    "name": "fuel",
    "category": "amenity",
    "subcategory": "fuel",
    "latitude": 32.597018,
    "longitude": 74.0338427,
    "id": 2841623541
  },
  {
    "name": "گوندل کوٹ",
    "category": "place",
    "subcategory": "village",
    "latitude": 32.5371633,
    "longitude": 74.0324445,
    "id": 2841948429
  },
  {
    "name": "Murarian Sharif",
    "category": "place",
    "subcategory": "village",
    "latitude": 32.5754807,
    "longitude": 74.0381004,
    "id": 2841950535
  },
  {
    "name": "Sahnwal Kalan",
    "category": "place",
    "subcategory": "village",
    "latitude": 32.5843041,
    "longitude": 74.0318211,
    "id": 2841950536
  },
  {
    "name": "سی این جی",
    "category": "amenity",
    "subcategory": "fuel",
    "latitude": 32.5889754,
    "longitude": 74.0544878,
    "id": 2844041950
  },
  {
    "name": "سی این جی",
    "category": "amenity",
    "subcategory": "fuel",
    "latitude": 32.5887675,
    "longitude": 74.0553396,
    "id": 2844041955
  },
  {
    "name": "سی این جی",
    "category": "amenity",
    "subcategory": "fuel",
    "latitude": 32.5851849,
    "longitude": 74.0679745,
    "id": 2844041980
  },
  {
    "name": "Kachehri Chok",
    "category": "place",
    "subcategory": "locality",
    "latitude": 32.5844739,
    "longitude": 74.0805185,
    "id": 2844049062
  },
  {
    "name": "Jail Chok",
    "category": "place",
    "subcategory": "locality",
    "latitude": 32.5841956,
    "longitude": 74.0765948,
    "id": 2844049063
  },
  {
    "name": "Usman plaza",
    "category": "shop",
    "subcategory": "yes",
    "latitude": 32.5840193,
    "longitude": 74.07393,
    "id": 2844049064
  },
  {
    "name": "locality",
    "category": "place",
    "subcategory": "locality",
    "latitude": 32.575817,
    "longitude": 74.0748911,
    "id": 2844049070
  },
  {
    "name": "Fawara chowk",
    "category": "place",
    "subcategory": "locality",
    "latitude": 32.5711688,
    "longitude": 74.0750293,
    "id": 2844049071
  },
  {
    "name": "fuel",
    "category": "amenity",
    "subcategory": "fuel",
    "latitude": 32.5436056,
    "longitude": 74.0920053,
    "id": 3050152513
  },
  {
    "name": "Nayyeer Mall",
    "category": "landuse",
    "subcategory": "industrial",
    "latitude": 32.5323071,
    "longitude": 74.0918466,
    "id": 3050162440
  },
  {
    "name": "spring onion",
    "category": "amenity",
    "subcategory": "restaurant",
    "latitude": 32.575664,
    "longitude": 74.0750017,
    "id": 3144544518
  },
  {
    "name": "Ayesha Hospital",
    "category": "amenity",
    "subcategory": "hospital",
    "latitude": 32.5770301,
    "longitude": 74.0749309,
    "id": 3144548123
  },
  {
    "name": "Al-khaleej Restaurant",
    "category": "amenity",
    "subcategory": "restaurant",
    "latitude": 32.575594,
    "longitude": 74.0750017,
    "id": 3144895064
  },
  {
    "name": "Bhaiyya Pizza",
    "category": "amenity",
    "subcategory": "restaurant",
    "latitude": 32.5759733,
    "longitude": 74.0752137,
    "id": 3144896844
  },
  {
    "name": "Mirza Pizza & Fast Food",
    "category": "amenity",
    "subcategory": "restaurant",
    "latitude": 32.5759457,
    "longitude": 74.0751426,
    "id": 3144898204
  },
  {
    "name": "Prince Hotel & Restaurant",
    "category": "amenity",
    "subcategory": "restaurant",
    "latitude": 32.5766499,
    "longitude": 74.0810643,
    "id": 3144909178
  },
  {
    "name": "yummy36",
    "category": "amenity",
    "subcategory": "restaurant",
    "latitude": 32.5766832,
    "longitude": 74.0810377,
    "id": 3144913342
  },
  {
    "name": "Chaman Ice cream",
    "category": "amenity",
    "subcategory": "restaurant",
    "latitude": 32.578163,
    "longitude": 74.0800541,
    "id": 3148811258
  },
  {
    "name": "Ice Tech",
    "category": "amenity",
    "subcategory": "restaurant",
    "latitude": 32.5782294,
    "longitude": 74.0800523,
    "id": 3148849263
  },
  {
    "name": "Flavors Restaurant",
    "category": "amenity",
    "subcategory": "restaurant",
    "latitude": 32.595643,
    "longitude": 74.0795897,
    "id": 3148862109
  },
  {
    "name": "Al-Nakhal",
    "category": "amenity",
    "subcategory": "restaurant",
    "latitude": 32.5954803,
    "longitude": 74.0796487,
    "id": 3148866649
  },
  {
    "name": "Silver Spoon",
    "category": "amenity",
    "subcategory": "restaurant",
    "latitude": 32.5922482,
    "longitude": 74.0798646,
    "id": 3148870980
  },
  {
    "name": "AFC Restaurant",
    "category": "amenity",
    "subcategory": "restaurant",
    "latitude": 32.5765017,
    "longitude": 74.0692164,
    "id": 3148880130
  },
  {
    "name": "فیصل ریسٹورنٹ",
    "category": "amenity",
    "subcategory": "restaurant",
    "latitude": 32.5701172,
    "longitude": 74.071311,
    "id": 3148933311
  },
  {
    "name": "Cadre Institute of Business",
    "category": "amenity",
    "subcategory": "school",
    "latitude": 32.5713647,
    "longitude": 74.0748182,
    "id": 3148940314
  },
  {
    "name": "Maqrooz Seerat un Nabvi",
    "category": "amenity",
    "subcategory": "school",
    "latitude": 32.5781119,
    "longitude": 74.08022,
    "id": 3148944090
  },
  {
    "name": "Govt. Girls Model High School",
    "category": "amenity",
    "subcategory": "school",
    "latitude": 32.5790973,
    "longitude": 74.0794703,
    "id": 3149034108
  },
  {
    "name": "Municipal Model High School",
    "category": "amenity",
    "subcategory": "school",
    "latitude": 32.5865894,
    "longitude": 74.0757259,
    "id": 3149042102
  },
  {
    "name": "Vertex School  Of Management",
    "category": "amenity",
    "subcategory": "school",
    "latitude": 32.5716399,
    "longitude": 74.080577,
    "id": 3150843743
  },
  {
    "name": "Ghazali Education System Senior Campus",
    "category": "amenity",
    "subcategory": "school",
    "latitude": 32.5942677,
    "longitude": 74.0775226,
    "id": 3150975772
  },
  {
    "name": "The Educator School",
    "category": "amenity",
    "subcategory": "school",
    "latitude": 32.5879401,
    "longitude": 74.0839331,
    "id": 3151100332
  },
  {
    "name": "Dar-e-Arqam",
    "category": "amenity",
    "subcategory": "school",
    "latitude": 32.5841162,
    "longitude": 74.0874347,
    "id": 3151188788
  },
  {
    "name": "E-Tech College",
    "category": "amenity",
    "subcategory": "college",
    "latitude": 32.5738985,
    "longitude": 74.074998,
    "id": 3151216668
  },
  {
    "name": "Ajmery College of Commerce",
    "category": "amenity",
    "subcategory": "college",
    "latitude": 32.5761667,
    "longitude": 74.07488,
    "id": 3151268473
  },
  {
    "name": "Jamia Ghosia Naaemia Degree College For Women",
    "category": "amenity",
    "subcategory": "college",
    "latitude": 32.5779885,
    "longitude": 74.0823003,
    "id": 3151276042
  },
  {
    "name": "Chenab College Of Commerce",
    "category": "amenity",
    "subcategory": "college",
    "latitude": 32.5812329,
    "longitude": 74.0768112,
    "id": 3151278421
  },
  {
    "name": "Girls Inter College Gujrat",
    "category": "amenity",
    "subcategory": "college",
    "latitude": 32.5989617,
    "longitude": 74.0787826,
    "id": 3151279213
  },
  {
    "name": "ayesha ilyas",
    "category": "amenity",
    "subcategory": "hospital",
    "latitude": 32.5708064,
    "longitude": 74.074943,
    "id": 3151303925
  },
  {
    "name": "بشیر ہسپتال",
    "category": "amenity",
    "subcategory": "hospital",
    "latitude": 32.5683584,
    "longitude": 74.0726202,
    "id": 3151308187
  },
  {
    "name": "Innayat Children Hospital",
    "category": "amenity",
    "subcategory": "hospital",
    "latitude": 32.5670684,
    "longitude": 74.0662278,
    "id": 3151317382
  },
  {
    "name": "ayesha ilyas hospital",
    "category": "amenity",
    "subcategory": "hospital",
    "latitude": 32.570881,
    "longitude": 74.0753963,
    "id": 3151320736
  },
  {
    "name": "الاحمد کلینک",
    "category": "amenity",
    "subcategory": "hospital",
    "latitude": 32.5721005,
    "longitude": 74.0817022,
    "id": 3151324285
  },
  {
    "name": "Atiya Clinic",
    "category": "amenity",
    "subcategory": "hospital",
    "latitude": 32.575631,
    "longitude": 74.0731097,
    "id": 3151326945
  },
  {
    "name": "Rehmat Hospital",
    "category": "amenity",
    "subcategory": "hospital",
    "latitude": 32.5724802,
    "longitude": 74.0749443,
    "id": 3151327373
  },
  {
    "name": "Ali Children",
    "category": "amenity",
    "subcategory": "hospital",
    "latitude": 32.5775816,
    "longitude": 74.0750007,
    "id": 3151330068
  },
  {
    "name": "Malik Haider Hospital",
    "category": "amenity",
    "subcategory": "hospital",
    "latitude": 32.5836365,
    "longitude": 74.0731821,
    "id": 3151332349
  },
  {
    "name": "Zoha Clinic",
    "category": "amenity",
    "subcategory": "hospital",
    "latitude": 32.5695347,
    "longitude": 74.0842997,
    "id": 3151336316
  },
  {
    "name": "Mirza Akram Hospital",
    "category": "amenity",
    "subcategory": "hospital",
    "latitude": 32.5792087,
    "longitude": 74.0803515,
    "id": 3151337416
  },
  {
    "name": "Gujrat Hospital",
    "category": "amenity",
    "subcategory": "hospital",
    "latitude": 32.5959097,
    "longitude": 74.0795468,
    "id": 3151339106
  },
  {
    "name": "Punjab Medical Center",
    "category": "amenity",
    "subcategory": "hospital",
    "latitude": 32.5960408,
    "longitude": 74.0795522,
    "id": 3151342385
  },
  {
    "name": "Umeed Clinic and Maternity Hospital",
    "category": "amenity",
    "subcategory": "hospital",
    "latitude": 32.6080934,
    "longitude": 74.0790801,
    "id": 3151352472
  },
  {
    "name": "Zain Clinic",
    "category": "amenity",
    "subcategory": "doctors",
    "latitude": 32.572519,
    "longitude": 74.0819952,
    "id": 3151361192
  },
  {
    "name": "Dr Waseem Butt",
    "category": "amenity",
    "subcategory": "doctors",
    "latitude": 32.5766779,
    "longitude": 74.084216,
    "id": 3151414107
  },
  {
    "name": "Dr Shabbir Mirza, Chest Specialist",
    "category": "amenity",
    "subcategory": "doctors",
    "latitude": 32.5817949,
    "longitude": 74.0804663,
    "id": 3151672692
  },
  {
    "name": "میزان بینک",
    "category": "amenity",
    "subcategory": "bank",
    "latitude": 32.5661356,
    "longitude": 74.0755096,
    "id": 3151680473
  },
  {
    "name": "MCB Bank Railway Road Branch",
    "category": "amenity",
    "subcategory": "bank",
    "latitude": 32.5685363,
    "longitude": 74.0726396,
    "id": 3151694636
  },
  {
    "name": "WallStreet Exchange Company Gujrat Branch",
    "category": "amenity",
    "subcategory": "bank",
    "latitude": 32.5695444,
    "longitude": 74.0718671,
    "id": 3151696450
  },
  {
    "name": "یونائیٹڈ بینک لمیٹڈ",
    "category": "amenity",
    "subcategory": "bank",
    "latitude": 32.5711651,
    "longitude": 74.0701076,
    "id": 3151698860
  },
  {
    "name": "First Women Bank Ltd",
    "category": "amenity",
    "subcategory": "bank",
    "latitude": 32.5713146,
    "longitude": 74.074828,
    "id": 3151716159
  },
  {
    "name": "Punjab College of Commerce",
    "category": "amenity",
    "subcategory": "college",
    "latitude": 32.5731655,
    "longitude": 74.067927,
    "id": 3151717733
  },
  {
    "name": "Saudi Pak Bank",
    "category": "amenity",
    "subcategory": "bank",
    "latitude": 32.5722794,
    "longitude": 74.0689087,
    "id": 3151719840
  },
  {
    "name": "Bank Of Punjab",
    "category": "amenity",
    "subcategory": "bank",
    "latitude": 32.5714135,
    "longitude": 74.0748304,
    "id": 3151723480
  },
  {
    "name": "ایچ بی ایل پاکستان",
    "category": "amenity",
    "subcategory": "bank",
    "latitude": 32.5749285,
    "longitude": 74.0749235,
    "id": 3151724834
  },
  {
    "name": "MCB : Bank",
    "category": "amenity",
    "subcategory": "bank",
    "latitude": 32.5921772,
    "longitude": 74.0800599,
    "id": 3151732484
  },
  {
    "name": "Sadiq Center",
    "category": "amenity",
    "subcategory": "bank",
    "latitude": 32.5850268,
    "longitude": 74.0687786,
    "id": 3151733900
  },
  {
    "name": "HBL Express Gujrat",
    "category": "amenity",
    "subcategory": "bank",
    "latitude": 32.5883625,
    "longitude": 74.0530286,
    "id": 3151739937
  },
  {
    "name": "HBL Bank",
    "category": "amenity",
    "subcategory": "bank",
    "latitude": 32.5817543,
    "longitude": 74.0580605,
    "id": 3151739965
  },
  {
    "name": "National Bank Of Pakistan",
    "category": "amenity",
    "subcategory": "bank",
    "latitude": 32.5823419,
    "longitude": 74.0579532,
    "id": 3151746227
  },
  {
    "name": "الائیڈ بینک",
    "category": "amenity",
    "subcategory": "bank",
    "latitude": 32.5780205,
    "longitude": 74.0802021,
    "id": 3151755611
  },
  {
    "name": "ایچ بی ایل پاکستان",
    "category": "amenity",
    "subcategory": "bank",
    "latitude": 32.5843438,
    "longitude": 74.0802758,
    "id": 3151756438
  },
  {
    "name": "Dhakki Gate Bus Stop, Circular Road Gujrat",
    "category": "amenity",
    "subcategory": "bus_station",
    "latitude": 32.5739986,
    "longitude": 74.0749987,
    "id": 3151777145
  },
  {
    "name": "Fawara Chok Stop, Circular Road Gujrat",
    "category": "amenity",
    "subcategory": "bus_station",
    "latitude": 32.5711719,
    "longitude": 74.0749118,
    "id": 3151778174
  },
  {
    "name": "Shah Faisal Gate, Circular Road Gujrat",
    "category": "amenity",
    "subcategory": "bus_station",
    "latitude": 32.5704431,
    "longitude": 74.0788476,
    "id": 3151779950
  },
  {
    "name": "bus_stop",
    "category": "highway",
    "subcategory": "bus_stop",
    "latitude": 32.5619561,
    "longitude": 74.0800707,
    "id": 3151784151
  },
  {
    "name": "Sheeshanwala Gate Bus Stop: Circular road Gujrat",
    "category": "amenity",
    "subcategory": "bus_station",
    "latitude": 32.5765394,
    "longitude": 74.0812772,
    "id": 3151788212
  },
  {
    "name": "Shadoula Gate Bus Stop, Circular Road Gujrat",
    "category": "amenity",
    "subcategory": "bus_station",
    "latitude": 32.5724449,
    "longitude": 74.0817293,
    "id": 3151790630
  },
  {
    "name": "Kacheri Chowk Bus Stop , gujrat",
    "category": "amenity",
    "subcategory": "bus_station",
    "latitude": 32.5845645,
    "longitude": 74.0804088,
    "id": 3151796272
  },
  {
    "name": "Chah Budhey Wala Bus Stop, Rehman Shaheed Rd Gujrat",
    "category": "amenity",
    "subcategory": "bus_station",
    "latitude": 32.5841582,
    "longitude": 74.0753315,
    "id": 3151797029
  },
  {
    "name": "Superior College",
    "category": "amenity",
    "subcategory": "college",
    "latitude": 32.5840823,
    "longitude": 74.0767126,
    "id": 3151811326
  },
  {
    "name": "Habib Bank Limited ATM",
    "category": "amenity",
    "subcategory": "atm",
    "latitude": 32.5749204,
    "longitude": 74.0749159,
    "id": 3151824932
  },
  {
    "name": "Bank Of Punjab ATM",
    "category": "amenity",
    "subcategory": "atm",
    "latitude": 32.5714951,
    "longitude": 74.0748483,
    "id": 3151837306
  },
  {
    "name": "First Women Bank ATM",
    "category": "amenity",
    "subcategory": "atm",
    "latitude": 32.5712625,
    "longitude": 74.0748026,
    "id": 3151837397
  },
  {
    "name": "UBL Kachairi Rd, Branch",
    "category": "amenity",
    "subcategory": "bank",
    "latitude": 32.5779469,
    "longitude": 74.0801221,
    "id": 3151838528
  },
  {
    "name": "UBL",
    "category": "amenity",
    "subcategory": "atm",
    "latitude": 32.5711638,
    "longitude": 74.0701335,
    "id": 3151838678
  },
  {
    "name": "Allied Bank ATM, Circular Rd Gujrat",
    "category": "amenity",
    "subcategory": "atm",
    "latitude": 32.578026,
    "longitude": 74.0801757,
    "id": 3151839081
  },
  {
    "name": "UBL kachairi road Branch ATM",
    "category": "amenity",
    "subcategory": "atm",
    "latitude": 32.5779604,
    "longitude": 74.0801275,
    "id": 3151840342
  },
  {
    "name": "National Bank ATM Machine, Circular Road Gujrat",
    "category": "amenity",
    "subcategory": "atm",
    "latitude": 32.5716249,
    "longitude": 74.0815973,
    "id": 3151840395
  },
  {
    "name": "ایچ بی ایل پاکستان",
    "category": "amenity",
    "subcategory": "bank",
    "latitude": 32.5722962,
    "longitude": 74.0817395,
    "id": 3151841538
  },
  {
    "name": "National Bank Of Punjab",
    "category": "amenity",
    "subcategory": "bank",
    "latitude": 32.5716452,
    "longitude": 74.0816241,
    "id": 3151841599
  },
  {
    "name": "Bank Of Punjab",
    "category": "amenity",
    "subcategory": "bank",
    "latitude": 32.5843373,
    "longitude": 74.0802384,
    "id": 3166488547
  },
  {
    "name": "Bank Al-Habib",
    "category": "amenity",
    "subcategory": "bank",
    "latitude": 32.584347,
    "longitude": 74.0803407,
    "id": 3166491169
  },
  {
    "name": "Bank Al-Habib",
    "category": "amenity",
    "subcategory": "atm",
    "latitude": 32.5843442,
    "longitude": 74.0803215,
    "id": 3166492361
  },
  {
    "name": "Doctor Hospital",
    "category": "amenity",
    "subcategory": "hospital",
    "latitude": 32.5845215,
    "longitude": 74.0766433,
    "id": 3166500036
  },
  {
    "name": "Bank Of Punjab",
    "category": "amenity",
    "subcategory": "bank",
    "latitude": 32.5790747,
    "longitude": 74.0800819,
    "id": 3166500107
  },
  {
    "name": "Qand Fishan",
    "category": "amenity",
    "subcategory": "restaurant",
    "latitude": 32.5952944,
    "longitude": 74.0794381,
    "id": 3166500133
  },
  {
    "name": "Punjab Risers College",
    "category": "amenity",
    "subcategory": "college",
    "latitude": 32.5839362,
    "longitude": 74.0765547,
    "id": 3166508317
  },
  {
    "name": "Prince Chok",
    "category": "place",
    "subcategory": "locality",
    "latitude": 32.5757929,
    "longitude": 74.0749991,
    "id": 3166511784
  },
  {
    "name": "Spanish Pizza Hut",
    "category": "amenity",
    "subcategory": "restaurant",
    "latitude": 32.5927002,
    "longitude": 74.0799612,
    "id": 3166513265
  },
  {
    "name": "Zaiqa Fast Food and Restaurant",
    "category": "amenity",
    "subcategory": "restaurant",
    "latitude": 32.5775965,
    "longitude": 74.0749186,
    "id": 3166513268
  },
  {
    "name": "Continental Pizza",
    "category": "amenity",
    "subcategory": "restaurant",
    "latitude": 32.5757296,
    "longitude": 74.0750017,
    "id": 3166513553
  },
  {
    "name": "Grammar Public School",
    "category": "amenity",
    "subcategory": "school",
    "latitude": 32.5844284,
    "longitude": 74.0827942,
    "id": 3166520131
  },
  {
    "name": "Hot and Spicy",
    "category": "amenity",
    "subcategory": "restaurant",
    "latitude": 32.5796736,
    "longitude": 74.0754443,
    "id": 3168657550
  },
  {
    "name": "Bloomfield School",
    "category": "amenity",
    "subcategory": "school",
    "latitude": 32.583552,
    "longitude": 74.0764555,
    "id": 3168660567
  },
  {
    "name": "Jinah College for womens",
    "category": "amenity",
    "subcategory": "college",
    "latitude": 32.5835361,
    "longitude": 74.0764448,
    "id": 3168661069
  },
  {
    "name": "Gourmet",
    "category": "amenity",
    "subcategory": "restaurant",
    "latitude": 32.575811,
    "longitude": 74.0749052,
    "id": 3168666399
  },
  {
    "name": "Hashmat Medical Complex",
    "category": "amenity",
    "subcategory": "hospital",
    "latitude": 32.5837579,
    "longitude": 74.0765087,
    "id": 3178797941
  },
  {
    "name": "state life",
    "category": "office",
    "subcategory": "government",
    "latitude": 32.5806747,
    "longitude": 74.0587044,
    "id": 4208094689
  },
  {
    "name": "Qureshi House",
    "category": "office",
    "subcategory": "lawyer",
    "latitude": 32.5750552,
    "longitude": 74.0800598,
    "id": 4210980589
  },
  {
    "name": "Ali Children Hospital",
    "category": "amenity",
    "subcategory": "hospital",
    "latitude": 32.5793184,
    "longitude": 74.0753916,
    "id": 4255226702
  },
  {
    "name": "Daewoo Bus Stop",
    "category": "amenity",
    "subcategory": "bus_station",
    "latitude": 32.5711577,
    "longitude": 74.0698397,
    "id": 4469612793
  },
  {
    "name": "Sweet home",
    "category": "amenity",
    "subcategory": "community_centre",
    "latitude": 32.5976301,
    "longitude": 74.0700261,
    "id": 4721523992
  },
  {
    "name": "Prime medicine",
    "category": "amenity",
    "subcategory": "pharmacy",
    "latitude": 32.5840735,
    "longitude": 74.0720996,
    "id": 4723560589
  },
  {
    "name": "Prime medicine",
    "category": "amenity",
    "subcategory": "pharmacy",
    "latitude": 32.5840245,
    "longitude": 74.0720537,
    "id": 4736481223
  },
  {
    "name": "Doctors hospital",
    "category": "amenity",
    "subcategory": "hospital",
    "latitude": 32.5952988,
    "longitude": 74.0790345,
    "id": 4741034024
  },
  {
    "name": "Doctors hospital",
    "category": "amenity",
    "subcategory": "hospital",
    "latitude": 32.5846691,
    "longitude": 74.0763675,
    "id": 4741034025
  },
  {
    "name": "Edhi Highway Centre",
    "category": "tourism",
    "subcategory": "artwork",
    "latitude": 32.5796942,
    "longitude": 74.0607207,
    "id": 4755778028
  },
  {
    "name": "ZA GARMENTS",
    "category": "shop",
    "subcategory": "clothes",
    "latitude": 32.56569,
    "longitude": 74.0803599,
    "id": 4791792326
  },
  {
    "name": "Allied Bank",
    "category": "amenity",
    "subcategory": "bank",
    "latitude": 32.5700603,
    "longitude": 74.0713607,
    "id": 5026756623
  },
  {
    "name": "doctors",
    "category": "amenity",
    "subcategory": "doctors",
    "latitude": 32.591011,
    "longitude": 74.0639268,
    "id": 5078247525
  },
  {
    "name": "fuel",
    "category": "amenity",
    "subcategory": "fuel",
    "latitude": 32.5842672,
    "longitude": 74.0845894,
    "id": 5110375503
  },
  {
    "name": "Shaheen Chowk Gujrat",
    "category": "highway",
    "subcategory": "bus_stop",
    "latitude": 32.5589779,
    "longitude": 74.0433775,
    "id": 5121905426
  },
  {
    "name": "bawa g game point",
    "category": "amenity",
    "subcategory": "cafe",
    "latitude": 32.5812879,
    "longitude": 74.0842076,
    "id": 5303573521
  },
  {
    "name": "BSC Ufone",
    "category": "tourism",
    "subcategory": "viewpoint",
    "latitude": 32.5650683,
    "longitude": 74.061832,
    "id": 5398085030
  },
  {
    "name": "masjid bahare madina",
    "category": "amenity",
    "subcategory": "place_of_worship",
    "latitude": 32.5637793,
    "longitude": 74.0675838,
    "id": 5470213388
  },
  {
    "name": "Saleem Auto Stores",
    "category": "shop",
    "subcategory": "car_parts",
    "latitude": 32.5662719,
    "longitude": 74.0756545,
    "id": 5511173621
  },
  {
    "name": "Saaem Surgical & Maternity Home",
    "category": "amenity",
    "subcategory": "hospital",
    "latitude": 32.5706441,
    "longitude": 74.076323,
    "id": 5514787426
  },
  {
    "name": "BloomField Hall School Gujrat",
    "category": "amenity",
    "subcategory": "school",
    "latitude": 32.6048042,
    "longitude": 74.0791575,
    "id": 5530558699
  },
  {
    "name": "Dr.Bilal Dar",
    "category": "amenity",
    "subcategory": "doctors",
    "latitude": 32.592861,
    "longitude": 74.0754387,
    "id": 5538342521
  },
  {
    "name": "Dr. Bilal Dar",
    "category": "amenity",
    "subcategory": "doctors",
    "latitude": 32.5928594,
    "longitude": 74.0754502,
    "id": 5538342621
  },
  {
    "name": "sir amir",
    "category": "amenity",
    "subcategory": "school",
    "latitude": 32.5716239,
    "longitude": 74.0786616,
    "id": 5597003721
  },
  {
    "name": "Saleem Auto Stores",
    "category": "shop",
    "subcategory": "car_parts",
    "latitude": 32.5664035,
    "longitude": 74.0759634,
    "id": 5606336221
  },
  {
    "name": "MBK Sons",
    "category": "office",
    "subcategory": "company",
    "latitude": 32.5966504,
    "longitude": 74.0774028,
    "id": 5636124976
  },
  {
    "name": "Amir Hotel Gujrat",
    "category": "tourism",
    "subcategory": "hotel",
    "latitude": 32.5597185,
    "longitude": 74.0824004,
    "id": 6410345785
  },
  {
    "name": "MCB ATM",
    "category": "amenity",
    "subcategory": "bank",
    "latitude": 32.568534,
    "longitude": 74.0726482,
    "id": 6439477732
  },
  {
    "name": "Meezan Resturant",
    "category": "amenity",
    "subcategory": "restaurant",
    "latitude": 32.5642731,
    "longitude": 74.0579756,
    "id": 6439593762
  },
  {
    "name": "یونائیٹڈ بینک لمیٹڈ",
    "category": "amenity",
    "subcategory": "bank",
    "latitude": 32.564194,
    "longitude": 74.0580802,
    "id": 6439596442
  },
  {
    "name": "Optic 2000",
    "category": "shop",
    "subcategory": "optician",
    "latitude": 32.5642094,
    "longitude": 74.0577575,
    "id": 6441322806
  },
  {
    "name": "HBL ATM",
    "category": "amenity",
    "subcategory": "bank",
    "latitude": 32.563581,
    "longitude": 74.0565586,
    "id": 6441342032
  },
  {
    "name": "Allied ATM",
    "category": "amenity",
    "subcategory": "bank",
    "latitude": 32.5638218,
    "longitude": 74.056749,
    "id": 6441351682
  },
  {
    "name": "BOP ATM",
    "category": "amenity",
    "subcategory": "bank",
    "latitude": 32.5633052,
    "longitude": 74.055192,
    "id": 6441366688
  },
  {
    "name": "Good Luck Auto Corporation Gujrat",
    "category": "shop",
    "subcategory": "bicycle",
    "latitude": 32.5917383,
    "longitude": 74.0472012,
    "id": 6477004185
  },
  {
    "name": "Honda World Gujrat",
    "category": "shop",
    "subcategory": "bicycle",
    "latitude": 32.5843741,
    "longitude": 74.0854963,
    "id": 6477175885
  },
  {
    "name": "Honda Home Gujrat",
    "category": "shop",
    "subcategory": "bicycle",
    "latitude": 32.578065,
    "longitude": 74.0751286,
    "id": 6477259787
  },
  {
    "name": "Fuel Cafe",
    "category": "amenity",
    "subcategory": "cafe",
    "latitude": 32.5782725,
    "longitude": 74.0632635,
    "id": 6563827761
  },
  {
    "name": "tree",
    "category": "natural",
    "subcategory": "tree",
    "latitude": 32.567622,
    "longitude": 74.0738408,
    "id": 7366411057
  },
  {
    "name": "Jamia Masjid Haji Din Muhammad",
    "category": "amenity",
    "subcategory": "place_of_worship",
    "latitude": 32.5713342,
    "longitude": 74.0858779,
    "id": 7518845683
  },
  {
    "name": "Govt. Public School",
    "category": "amenity",
    "subcategory": "school",
    "latitude": 32.5718575,
    "longitude": 74.0859812,
    "id": 7518900840
  },
  {
    "name": "turning_circle",
    "category": "highway",
    "subcategory": "turning_circle",
    "latitude": 32.5618927,
    "longitude": 74.0988786,
    "id": 7518968760
  },
  {
    "name": "crossing",
    "category": "highway",
    "subcategory": "crossing",
    "latitude": 32.566142,
    "longitude": 74.1020402,
    "id": 7519148885
  },
  {
    "name": "Shah Jahangir Tomb",
    "category": "historic",
    "subcategory": "tomb",
    "latitude": 32.579956,
    "longitude": 74.0981673,
    "id": 7519175118
  },
  {
    "name": "Govt. College of Commerce",
    "category": "amenity",
    "subcategory": "college",
    "latitude": 32.5794622,
    "longitude": 74.0966009,
    "id": 7519175119
  },
  {
    "name": "Trenghan Wala Qabrastan",
    "category": "amenity",
    "subcategory": "grave_yard",
    "latitude": 32.5664009,
    "longitude": 74.0834827,
    "id": 7524759897
  },
  {
    "name": "Water Storage, Zamindar College",
    "category": "historic",
    "subcategory": "monument",
    "latitude": 32.6030644,
    "longitude": 74.0785065,
    "id": 7524939121
  },
  {
    "name": "Bon Appetit By Gopa",
    "category": "amenity",
    "subcategory": "fast_food",
    "latitude": 32.6037745,
    "longitude": 74.0791026,
    "id": 7524939122
  },
  {
    "name": "Jamia Masjid Siddique Akbar",
    "category": "amenity",
    "subcategory": "place_of_worship",
    "latitude": 32.5753105,
    "longitude": 74.0834767,
    "id": 7525071693
  },
  {
    "name": "Masjid Shahdoula Darbar",
    "category": "amenity",
    "subcategory": "place_of_worship",
    "latitude": 32.5714725,
    "longitude": 74.0844396,
    "id": 7525071696
  },
  {
    "name": "Masjid Bilal",
    "category": "amenity",
    "subcategory": "place_of_worship",
    "latitude": 32.573491,
    "longitude": 74.0883046,
    "id": 7525071697
  },
  {
    "name": "Feezan e Madina",
    "category": "amenity",
    "subcategory": "place_of_worship",
    "latitude": 32.5790387,
    "longitude": 74.0916212,
    "id": 7525071698
  },
  {
    "name": "Masjid Chah Kalkati Wali",
    "category": "amenity",
    "subcategory": "place_of_worship",
    "latitude": 32.5728287,
    "longitude": 74.0870386,
    "id": 7525071699
  },
  {
    "name": "Masjid Bahar e Madina",
    "category": "amenity",
    "subcategory": "place_of_worship",
    "latitude": 32.5729575,
    "longitude": 74.0859711,
    "id": 7525071700
  },
  {
    "name": "Water Storage, Fawara Chowk",
    "category": "historic",
    "subcategory": "monument",
    "latitude": 32.5711899,
    "longitude": 74.0757358,
    "id": 7526687632
  },
  {
    "name": "Muciple Model School for Boys",
    "category": "amenity",
    "subcategory": "school",
    "latitude": 32.5798083,
    "longitude": 74.0829885,
    "id": 7527544731
  },
  {
    "name": "Govt. Gitls Model High School",
    "category": "amenity",
    "subcategory": "school",
    "latitude": 32.5798829,
    "longitude": 74.0786085,
    "id": 7527544754
  },
  {
    "name": "Govt. Elementry College",
    "category": "amenity",
    "subcategory": "college",
    "latitude": 32.5807609,
    "longitude": 74.0796431,
    "id": 7527544755
  },
  {
    "name": "Govt. Middle Model School",
    "category": "amenity",
    "subcategory": "school",
    "latitude": 32.580197,
    "longitude": 74.0794104,
    "id": 7527544756
  },
  {
    "name": "Masjid Manchrian",
    "category": "amenity",
    "subcategory": "place_of_worship",
    "latitude": 32.5738323,
    "longitude": 74.0901875,
    "id": 7527554221
  },
  {
    "name": "Masjid Aik Minar Wali",
    "category": "amenity",
    "subcategory": "place_of_worship",
    "latitude": 32.5625663,
    "longitude": 74.0870333,
    "id": 7527557683
  },
  {
    "name": "Saddar Police Station Gujrat",
    "category": "amenity",
    "subcategory": "police",
    "latitude": 32.5693025,
    "longitude": 74.099814,
    "id": 7527565940
  },
  {
    "name": "Shaukat Model High School Nr. 1",
    "category": "amenity",
    "subcategory": "school",
    "latitude": 32.5683808,
    "longitude": 74.0785991,
    "id": 7527629276
  },
  {
    "name": "Masjid Gulzar e Gosia",
    "category": "amenity",
    "subcategory": "place_of_worship",
    "latitude": 32.5762745,
    "longitude": 74.0891696,
    "id": 7528034019
  },
  {
    "name": "Masjid Anwar e Muhammadi",
    "category": "amenity",
    "subcategory": "place_of_worship",
    "latitude": 32.5772113,
    "longitude": 74.0897329,
    "id": 7528034020
  },
  {
    "name": "Jamia Masjid Banth",
    "category": "amenity",
    "subcategory": "place_of_worship",
    "latitude": 32.5589493,
    "longitude": 74.0978479,
    "id": 7528041836
  },
  {
    "name": "Govt. College of Technology for Women",
    "category": "amenity",
    "subcategory": "college",
    "latitude": 32.5677654,
    "longitude": 74.0994599,
    "id": 7530186488
  },
  {
    "name": "Jamia Masjid Bari Wali",
    "category": "amenity",
    "subcategory": "place_of_worship",
    "latitude": 32.5710385,
    "longitude": 74.0803331,
    "id": 7534014520
  },
  {
    "name": "Jamia Masjid Ya Rasool-Allah",
    "category": "amenity",
    "subcategory": "place_of_worship",
    "latitude": 32.5697817,
    "longitude": 74.0809152,
    "id": 7534014521
  },
  {
    "name": "Jamia Masjid Kumhran",
    "category": "amenity",
    "subcategory": "place_of_worship",
    "latitude": 32.567831,
    "longitude": 74.0827578,
    "id": 7534014522
  },
  {
    "name": "Jamia Masjid Safina Ghosia",
    "category": "amenity",
    "subcategory": "place_of_worship",
    "latitude": 32.5667301,
    "longitude": 74.0826291,
    "id": 7534014523
  },
  {
    "name": "Masjid Jumlay Shah",
    "category": "amenity",
    "subcategory": "place_of_worship",
    "latitude": 32.5694427,
    "longitude": 74.0843081,
    "id": 7534014524
  },
  {
    "name": "Jamia Masjid Begum Aurangzeb Alamgir",
    "category": "amenity",
    "subcategory": "place_of_worship",
    "latitude": 32.5702022,
    "longitude": 74.0843081,
    "id": 7534064289
  },
  {
    "name": "Fire Birgade",
    "category": "amenity",
    "subcategory": "fire_station",
    "latitude": 32.5703016,
    "longitude": 74.0798503,
    "id": 7538668058
  },
  {
    "name": "Water Storage, Munciple Committee",
    "category": "historic",
    "subcategory": "monument",
    "latitude": 32.5698326,
    "longitude": 74.0792602,
    "id": 7538668059
  },
  {
    "name": "Jamia Masjid Chowk Pakistan",
    "category": "amenity",
    "subcategory": "place_of_worship",
    "latitude": 32.5764203,
    "longitude": 74.0812357,
    "id": 7538668060
  },
  {
    "name": "Masjid Moti Bazra",
    "category": "amenity",
    "subcategory": "place_of_worship",
    "latitude": 32.5761626,
    "longitude": 74.0815897,
    "id": 7538668061
  },
  {
    "name": "Jamia Masjid Khayat ul Nabi",
    "category": "amenity",
    "subcategory": "place_of_worship",
    "latitude": 32.5657157,
    "longitude": 74.0854342,
    "id": 7538977856
  },
  {
    "name": "Jamia Masjid Sadiqia",
    "category": "amenity",
    "subcategory": "place_of_worship",
    "latitude": 32.572892,
    "longitude": 74.0837663,
    "id": 7538977863
  },
  {
    "name": "Al Jamia tul Ashrafia",
    "category": "amenity",
    "subcategory": "place_of_worship",
    "latitude": 32.5742075,
    "longitude": 74.0838334,
    "id": 7538977867
  },
  {
    "name": "place_of_worship",
    "category": "amenity",
    "subcategory": "place_of_worship",
    "latitude": 32.5736605,
    "longitude": 74.084394,
    "id": 7538977868
  },
  {
    "name": "place_of_worship",
    "category": "amenity",
    "subcategory": "place_of_worship",
    "latitude": 32.5752562,
    "longitude": 74.0873498,
    "id": 7538977869
  },
  {
    "name": "Jamia Masjid Aminia",
    "category": "amenity",
    "subcategory": "place_of_worship",
    "latitude": 32.5658056,
    "longitude": 74.0769401,
    "id": 7546576951
  },
  {
    "name": "Jamia Masjid Gulzar-e-Madina",
    "category": "amenity",
    "subcategory": "place_of_worship",
    "latitude": 32.5675343,
    "longitude": 74.0791516,
    "id": 7546600933
  },
  {
    "name": "place_of_worship",
    "category": "amenity",
    "subcategory": "place_of_worship",
    "latitude": 32.5699241,
    "longitude": 74.08555,
    "id": 7546745916
  },
  {
    "name": "Jamia Masjid Muhammadi",
    "category": "amenity",
    "subcategory": "place_of_worship",
    "latitude": 32.5621503,
    "longitude": 74.083085,
    "id": 7546747368
  },
  {
    "name": "place_of_worship",
    "category": "amenity",
    "subcategory": "place_of_worship",
    "latitude": 32.5852189,
    "longitude": 74.0789464,
    "id": 7550197542
  },
  {
    "name": "Jamia Masjid Jora",
    "category": "amenity",
    "subcategory": "place_of_worship",
    "latitude": 32.5828414,
    "longitude": 74.0710795,
    "id": 7550255787
  },
  {
    "name": "Masjid Peer Walayat Sah",
    "category": "amenity",
    "subcategory": "place_of_worship",
    "latitude": 32.5766486,
    "longitude": 74.07462,
    "id": 7550255788
  },
  {
    "name": "مسجد بلال",
    "category": "amenity",
    "subcategory": "place_of_worship",
    "latitude": 32.5554655,
    "longitude": 74.0732843,
    "id": 7550313803
  },
  {
    "name": "Makki Masjid (Tableegi Markaz)",
    "category": "amenity",
    "subcategory": "place_of_worship",
    "latitude": 32.5585785,
    "longitude": 74.0736973,
    "id": 7550313819
  },
  {
    "name": "Munciple Model School for Boys",
    "category": "amenity",
    "subcategory": "school",
    "latitude": 32.5797371,
    "longitude": 74.0830944,
    "id": 7550333847
  },
  {
    "name": "سٹار کالونی",
    "category": "place",
    "subcategory": "suburb",
    "latitude": 32.6045851,
    "longitude": 74.0798342,
    "id": 7552171685
  },
  {
    "name": "Khurashid Colony",
    "category": "place",
    "subcategory": "suburb",
    "latitude": 32.601494,
    "longitude": 74.0800809,
    "id": 7552171686
  },
  {
    "name": "Baradari",
    "category": "place",
    "subcategory": "suburb",
    "latitude": 32.5871399,
    "longitude": 74.0839004,
    "id": 7552171688
  },
  {
    "name": "Old City Gujrat",
    "category": "place",
    "subcategory": "suburb",
    "latitude": 32.5740176,
    "longitude": 74.0776241,
    "id": 7552171693
  },
  {
    "name": "Khwajgan",
    "category": "place",
    "subcategory": "suburb",
    "latitude": 32.576394,
    "longitude": 74.0769968,
    "id": 7552171694
  },
  {
    "name": "Ellahi Colony",
    "category": "place",
    "subcategory": "suburb",
    "latitude": 32.5614089,
    "longitude": 74.0826344,
    "id": 7552171695
  },
  {
    "name": "Staff Gala",
    "category": "place",
    "subcategory": "suburb",
    "latitude": 32.5655321,
    "longitude": 74.0596104,
    "id": 7552171696
  },
  {
    "name": "لالہ چک",
    "category": "place",
    "subcategory": "village",
    "latitude": 32.5368644,
    "longitude": 74.0429163,
    "id": 7552171697
  },
  {
    "name": "رحمانیہ",
    "category": "place",
    "subcategory": "village",
    "latitude": 32.5956008,
    "longitude": 74.0403199,
    "id": 7552171698
  },
  {
    "name": "بغداد کالونی",
    "category": "place",
    "subcategory": "suburb",
    "latitude": 32.5984842,
    "longitude": 74.0461134,
    "id": 7552171699
  },
  {
    "name": "Udohwal Khurd",
    "category": "place",
    "subcategory": "suburb",
    "latitude": 32.5960527,
    "longitude": 74.0551471,
    "id": 7552171700
  },
  {
    "name": "Udohwal Kalan",
    "category": "place",
    "subcategory": "suburb",
    "latitude": 32.6020905,
    "longitude": 74.0563488,
    "id": 7552171701
  },
  {
    "name": "Shadman Colony",
    "category": "place",
    "subcategory": "suburb",
    "latitude": 32.5890568,
    "longitude": 74.0634867,
    "id": 7552171702
  },
  {
    "name": "Islam Nagar",
    "category": "place",
    "subcategory": "suburb",
    "latitude": 32.5961431,
    "longitude": 74.0708542,
    "id": 7552171703
  },
  {
    "name": "New Shadman Colony",
    "category": "place",
    "subcategory": "suburb",
    "latitude": 32.5918224,
    "longitude": 74.0680432,
    "id": 7552171704
  },
  {
    "name": "Gulshan Colony",
    "category": "place",
    "subcategory": "suburb",
    "latitude": 32.5900326,
    "longitude": 74.0729785,
    "id": 7552171711
  },
  {
    "name": "Marghzar Colony",
    "category": "place",
    "subcategory": "suburb",
    "latitude": 32.5939918,
    "longitude": 74.077549,
    "id": 7552171712
  },
  {
    "name": "Moladad Colony",
    "category": "place",
    "subcategory": "suburb",
    "latitude": 32.5908823,
    "longitude": 74.0775275,
    "id": 7552171713
  },
  {
    "name": "Allah Loke Colony",
    "category": "place",
    "subcategory": "suburb",
    "latitude": 32.5769786,
    "longitude": 74.0648031,
    "id": 7552171714
  },
  {
    "name": "Gulberg Colony",
    "category": "place",
    "subcategory": "suburb",
    "latitude": 32.5795461,
    "longitude": 74.0722918,
    "id": 7552171715
  },
  {
    "name": "Cheema Colony",
    "category": "place",
    "subcategory": "suburb",
    "latitude": 32.5798897,
    "longitude": 74.0677643,
    "id": 7552171716
  },
  {
    "name": "Ghareeb Pura",
    "category": "place",
    "subcategory": "suburb",
    "latitude": 32.5827645,
    "longitude": 74.0778923,
    "id": 7552171717
  },
  {
    "name": "کشمیر پورہ",
    "category": "place",
    "subcategory": "suburb",
    "latitude": 32.591497,
    "longitude": 74.0934706,
    "id": 7552171718
  },
  {
    "name": "Spall Town",
    "category": "place",
    "subcategory": "suburb",
    "latitude": 32.5856574,
    "longitude": 74.0955519,
    "id": 7552171719
  },
  {
    "name": "Rashid Colony",
    "category": "place",
    "subcategory": "suburb",
    "latitude": 32.5817533,
    "longitude": 74.0879243,
    "id": 7552171720
  },
  {
    "name": "Al-Nabi Colony",
    "category": "place",
    "subcategory": "suburb",
    "latitude": 32.5825657,
    "longitude": 74.0905524,
    "id": 7552171721
  },
  {
    "name": "Qamar Sialvi",
    "category": "place",
    "subcategory": "suburb",
    "latitude": 32.576297,
    "longitude": 74.0687412,
    "id": 7552171722
  },
  {
    "name": "Bakhshu Pura",
    "category": "place",
    "subcategory": "suburb",
    "latitude": 32.569185,
    "longitude": 74.0759611,
    "id": 7552171723
  },
  {
    "name": "Faizabad",
    "category": "place",
    "subcategory": "suburb",
    "latitude": 32.5696552,
    "longitude": 74.0668845,
    "id": 7552171724
  },
  {
    "name": "Lundpur",
    "category": "place",
    "subcategory": "suburb",
    "latitude": 32.5556396,
    "longitude": 74.0709185,
    "id": 7552171725
  },
  {
    "name": "Noorpur Padday",
    "category": "place",
    "subcategory": "suburb",
    "latitude": 32.5640492,
    "longitude": 74.0716052,
    "id": 7552171726
  },
  {
    "name": "Green Town",
    "category": "place",
    "subcategory": "suburb",
    "latitude": 32.5570322,
    "longitude": 74.0761757,
    "id": 7552171728
  },
  {
    "name": "Sultanabad",
    "category": "place",
    "subcategory": "suburb",
    "latitude": 32.5595551,
    "longitude": 74.0886855,
    "id": 7552171729
  },
  {
    "name": "Fattu Pura",
    "category": "place",
    "subcategory": "suburb",
    "latitude": 32.5687601,
    "longitude": 74.0823663,
    "id": 7552171730
  },
  {
    "name": "Kalu Pura",
    "category": "place",
    "subcategory": "suburb",
    "latitude": 32.5668341,
    "longitude": 74.0863144,
    "id": 7552171731
  },
  {
    "name": "Begum Pura",
    "category": "place",
    "subcategory": "suburb",
    "latitude": 32.5700259,
    "longitude": 74.0842438,
    "id": 7552171732
  },
  {
    "name": "Garhi Ahmada Abad",
    "category": "place",
    "subcategory": "suburb",
    "latitude": 32.5668341,
    "longitude": 74.0909171,
    "id": 7552171733
  },
  {
    "name": "Chah Beri Wala",
    "category": "place",
    "subcategory": "suburb",
    "latitude": 32.5712284,
    "longitude": 74.0886962,
    "id": 7552171734
  },
  {
    "name": "Ucha Dara",
    "category": "place",
    "subcategory": "suburb",
    "latitude": 32.5730954,
    "longitude": 74.0855688,
    "id": 7552171735
  },
  {
    "name": "Ghazi Khokhar",
    "category": "place",
    "subcategory": "suburb",
    "latitude": 32.5751884,
    "longitude": 74.0954447,
    "id": 7552171736
  },
  {
    "name": "Small Industrial Estate",
    "category": "place",
    "subcategory": "suburb",
    "latitude": 32.5530171,
    "longitude": 74.08463,
    "id": 7552206290
  },
  {
    "name": "Lateef Masjid",
    "category": "amenity",
    "subcategory": "place_of_worship",
    "latitude": 32.5405365,
    "longitude": 74.0935644,
    "id": 7553381095
  },
  {
    "name": "Jamia Masjid Munaza",
    "category": "amenity",
    "subcategory": "place_of_worship",
    "latitude": 32.5454815,
    "longitude": 74.091754,
    "id": 7553381096
  },
  {
    "name": "Jamia Masjid Jannat-ul-Firdos Kalra Khasa",
    "category": "amenity",
    "subcategory": "place_of_worship",
    "latitude": 32.5446811,
    "longitude": 74.0904048,
    "id": 7553381097
  },
  {
    "name": "Jamia Masjid Pak Fan",
    "category": "amenity",
    "subcategory": "place_of_worship",
    "latitude": 32.5530939,
    "longitude": 74.087736,
    "id": 7553381098
  },
  {
    "name": "مسجد بلال",
    "category": "amenity",
    "subcategory": "place_of_worship",
    "latitude": 32.5502068,
    "longitude": 74.0845576,
    "id": 7553381099
  },
  {
    "name": "Jamia Masjid Safina Ghosia",
    "category": "amenity",
    "subcategory": "place_of_worship",
    "latitude": 32.5516583,
    "longitude": 74.0824896,
    "id": 7553381100
  },
  {
    "name": "Masjid Green Town",
    "category": "amenity",
    "subcategory": "place_of_worship",
    "latitude": 32.5549636,
    "longitude": 74.0763286,
    "id": 7553381101
  },
  {
    "name": "Jamna",
    "category": "place",
    "subcategory": "village",
    "latitude": 32.5501051,
    "longitude": 74.0509414,
    "id": 7553416061
  },
  {
    "name": "Bhakrewali",
    "category": "place",
    "subcategory": "village",
    "latitude": 32.556666,
    "longitude": 74.0350466,
    "id": 7553416062
  },
  {
    "name": "Ch. Inam Chowk",
    "category": "place",
    "subcategory": "locality",
    "latitude": 32.5699236,
    "longitude": 74.0934191,
    "id": 7572199897
  },
  {
    "name": "Akbar Chowk",
    "category": "place",
    "subcategory": "locality",
    "latitude": 32.573602,
    "longitude": 74.094286,
    "id": 7572199898
  },
  {
    "name": "Jamia Masjid Hassan Mujtaba",
    "category": "amenity",
    "subcategory": "place_of_worship",
    "latitude": 32.5691895,
    "longitude": 74.0974831,
    "id": 7577197594
  },
  {
    "name": "Noor Masjid",
    "category": "amenity",
    "subcategory": "place_of_worship",
    "latitude": 32.5702361,
    "longitude": 74.0923923,
    "id": 7577197595
  },
  {
    "name": "امامیہ مسجد",
    "category": "amenity",
    "subcategory": "place_of_worship",
    "latitude": 32.571911,
    "longitude": 74.0824199,
    "id": 7577197596
  },
  {
    "name": "Rounti Wali Masjid",
    "category": "amenity",
    "subcategory": "place_of_worship",
    "latitude": 32.5734706,
    "longitude": 74.0824091,
    "id": 7577197597
  },
  {
    "name": "Jami Masjid Usman-e-Ghani",
    "category": "amenity",
    "subcategory": "place_of_worship",
    "latitude": 32.5766531,
    "longitude": 74.0841633,
    "id": 7577197598
  },
  {
    "name": "Jami Masjid Al Karam",
    "category": "amenity",
    "subcategory": "place_of_worship",
    "latitude": 32.5794851,
    "longitude": 74.0898818,
    "id": 7577197599
  },
  {
    "name": "Al Nabi Masjid",
    "category": "amenity",
    "subcategory": "place_of_worship",
    "latitude": 32.5812824,
    "longitude": 74.0903693,
    "id": 7577197600
  },
  {
    "name": "Jamia Masjid Al-Karim",
    "category": "amenity",
    "subcategory": "place_of_worship",
    "latitude": 32.5823814,
    "longitude": 74.087502,
    "id": 7577197601
  },
  {
    "name": "Masjid Bait Al Salam",
    "category": "amenity",
    "subcategory": "place_of_worship",
    "latitude": 32.5817,
    "longitude": 74.0850015,
    "id": 7577197602
  },
  {
    "name": "Masjid Noor e Madina",
    "category": "amenity",
    "subcategory": "place_of_worship",
    "latitude": 32.5808886,
    "longitude": 74.08245,
    "id": 7577197603
  },
  {
    "name": "Markaz e Tableeghe Islami",
    "category": "amenity",
    "subcategory": "place_of_worship",
    "latitude": 32.5907535,
    "longitude": 74.0894231,
    "id": 7577249323
  },
  {
    "name": "Masjid Deen e Muhammadi",
    "category": "amenity",
    "subcategory": "place_of_worship",
    "latitude": 32.5873037,
    "longitude": 74.0889081,
    "id": 7577249324
  },
  {
    "name": "Jamia Masjid Taqwa",
    "category": "amenity",
    "subcategory": "place_of_worship",
    "latitude": 32.5849138,
    "longitude": 74.087331,
    "id": 7577249333
  },
  {
    "name": "Shamim Rashid Masjid",
    "category": "amenity",
    "subcategory": "place_of_worship",
    "latitude": 32.5867602,
    "longitude": 74.0924889,
    "id": 7577249334
  },
  {
    "name": "Masjid Malik Chragh Din",
    "category": "amenity",
    "subcategory": "place_of_worship",
    "latitude": 32.5827125,
    "longitude": 74.0926713,
    "id": 7577249341
  },
  {
    "name": "Masjid Rizwan",
    "category": "amenity",
    "subcategory": "place_of_worship",
    "latitude": 32.5815034,
    "longitude": 74.0929958,
    "id": 7577249342
  },
  {
    "name": "Dalawar Fans Company",
    "category": "shop",
    "subcategory": "electronics",
    "latitude": 32.54889,
    "longitude": 74.091085,
    "id": 8007655885
  },
  {
    "name": "neuro & trumma center",
    "category": "amenity",
    "subcategory": "hospital",
    "latitude": 32.5822834,
    "longitude": 74.0605311,
    "id": 8091481451
  },
  {
    "name": "گیگیاں",
    "category": "place",
    "subcategory": "village",
    "latitude": 32.5983211,
    "longitude": 74.1059632,
    "id": 9212264867
  },
  {
    "name": "muslim mosque",
    "category": "leisure",
    "subcategory": "park",
    "latitude": 32.5869134,
    "longitude": 74.0516652,
    "id": 9489293378
  },
  {
    "name": "supermarket",
    "category": "shop",
    "subcategory": "supermarket",
    "latitude": 32.5911895,
    "longitude": 74.0773976,
    "id": 9494413731
  },
  {
    "name": "Bombay Chowpatti",
    "category": "amenity",
    "subcategory": "restaurant",
    "latitude": 32.5841334,
    "longitude": 74.0773652,
    "id": 9530564805
  },
  {
    "name": "Shifa Hospital",
    "category": "amenity",
    "subcategory": "hospital",
    "latitude": 32.5853069,
    "longitude": 74.0764713,
    "id": 9530602072
  },
  {
    "name": "City Hospital",
    "category": "amenity",
    "subcategory": "hospital",
    "latitude": 32.5851105,
    "longitude": 74.0765131,
    "id": 9530602073
  },
  {
    "name": "Shah graveyard",
    "category": "amenity",
    "subcategory": "grave_yard",
    "latitude": 32.5708758,
    "longitude": 74.0861642,
    "id": 9533815973
  },
  {
    "name": "Gujjar de Barfi",
    "category": "amenity",
    "subcategory": "bar",
    "latitude": 32.5587307,
    "longitude": 74.0431794,
    "id": 10598595202
  },
  {
    "name": "Mid City Pets Clinic",
    "category": "amenity",
    "subcategory": "veterinary",
    "latitude": 32.5826098,
    "longitude": 74.0759708,
    "id": 11068565404
  },
  {
    "name": "veterinary",
    "category": "amenity",
    "subcategory": "veterinary",
    "latitude": 32.5830863,
    "longitude": 74.0758163,
    "id": 11068642395
  },
  {
    "name": "veterinary",
    "category": "amenity",
    "subcategory": "veterinary",
    "latitude": 32.5824439,
    "longitude": 74.0758258,
    "id": 11068648105
  },
  {
    "name": "Mid City Veterinary Clinic",
    "category": "amenity",
    "subcategory": "veterinary",
    "latitude": 32.5827175,
    "longitude": 74.0758523,
    "id": 11068648106
  },
  {
    "name": "Shakir de Hatti",
    "category": "shop",
    "subcategory": "jewelry",
    "latitude": 32.5746254,
    "longitude": 74.0810998,
    "id": 11381412769
  },
  {
    "name": "Bait Ul Shakir",
    "category": "tourism",
    "subcategory": "apartment",
    "latitude": 32.5812387,
    "longitude": 74.086272,
    "id": 11381412869
  },
  {
    "name": "turning_circle",
    "category": "highway",
    "subcategory": "turning_circle",
    "latitude": 32.5610661,
    "longitude": 74.0971543,
    "id": 11384481226
  },
  {
    "name": "turning_circle",
    "category": "highway",
    "subcategory": "turning_circle",
    "latitude": 32.5598585,
    "longitude": 74.0969076,
    "id": 11384481232
  },
  {
    "name": "turning_circle",
    "category": "highway",
    "subcategory": "turning_circle",
    "latitude": 32.5603968,
    "longitude": 74.097031,
    "id": 11384481233
  },
  {
    "name": "Gujrat Station Masjid",
    "category": "amenity",
    "subcategory": "place_of_worship",
    "latitude": 32.5620865,
    "longitude": 74.0649084,
    "id": 11642440856
  },
  {
    "name": "askari bank",
    "category": "amenity",
    "subcategory": "bank",
    "latitude": 32.5532586,
    "longitude": 74.0887383,
    "id": 12699516974
  },
  {
    "name": "chenab institute",
    "category": "amenity",
    "subcategory": "college",
    "latitude": 32.5855284,
    "longitude": 74.1017872,
    "id": 12706602758
  },
  {
    "name": "Raza Marquee",
    "category": "tourism",
    "subcategory": "hotel",
    "latitude": 32.58546,
    "longitude": 74.1011618,
    "id": 12706621271
  },
  {
    "name": "Chenab Marquee",
    "category": "tourism",
    "subcategory": "hotel",
    "latitude": 32.5885137,
    "longitude": 74.1081399,
    "id": 12706621273
  },
  {
    "name": "gujrat law college",
    "category": "amenity",
    "subcategory": "college",
    "latitude": 32.5854267,
    "longitude": 74.1029995,
    "id": 12706649180
  },
  {
    "name": "Govt.vocational training institute",
    "category": "amenity",
    "subcategory": "college",
    "latitude": 32.5845656,
    "longitude": 74.0882581,
    "id": 12706654242
  },
  {
    "name": "Dar e Arqam",
    "category": "amenity",
    "subcategory": "college",
    "latitude": 32.5844391,
    "longitude": 74.0877646,
    "id": 12706672293
  },
  {
    "name": "masjid aik minar wali",
    "category": "amenity",
    "subcategory": "place_of_worship",
    "latitude": 32.5626,
    "longitude": 74.0870356,
    "id": 12709223695
  },
  {
    "name": "jamia masjid muhammadi",
    "category": "amenity",
    "subcategory": "place_of_worship",
    "latitude": 32.5621762,
    "longitude": 74.0830835,
    "id": 12709223696
  },
  {
    "name": "jamia masjid khayat ul nabi",
    "category": "amenity",
    "subcategory": "place_of_worship",
    "latitude": 32.5657208,
    "longitude": 74.0854361,
    "id": 12709223697
  },
  {
    "name": "jamia masjid safina ghosia",
    "category": "amenity",
    "subcategory": "place_of_worship",
    "latitude": 32.5667577,
    "longitude": 74.0826291,
    "id": 12709223698
  },
  {
    "name": "masjid",
    "category": "amenity",
    "subcategory": "place_of_worship",
    "latitude": 32.5699617,
    "longitude": 74.0855468,
    "id": 12709223699
  },
  {
    "name": "jamia masjid begum aurangzeb alamgir",
    "category": "amenity",
    "subcategory": "place_of_worship",
    "latitude": 32.5702215,
    "longitude": 74.0843066,
    "id": 12709223700
  },
  {
    "name": "masjid jumlay shah",
    "category": "amenity",
    "subcategory": "place_of_worship",
    "latitude": 32.5694663,
    "longitude": 74.0843066,
    "id": 12709233101
  },
  {
    "name": "jamia masjid gulzar e madina",
    "category": "amenity",
    "subcategory": "place_of_worship",
    "latitude": 32.5675602,
    "longitude": 74.0791531,
    "id": 12709233102
  },
  {
    "name": "jamia masjid aminia",
    "category": "amenity",
    "subcategory": "place_of_worship",
    "latitude": 32.5658466,
    "longitude": 74.0769388,
    "id": 12709233103
  },
  {
    "name": "jamia masjid ya rasool allah",
    "category": "amenity",
    "subcategory": "place_of_worship",
    "latitude": 32.5698325,
    "longitude": 74.0809208,
    "id": 12709233104
  },
  {
    "name": "jamia masjid haji sahab",
    "category": "amenity",
    "subcategory": "place_of_worship",
    "latitude": 32.5712275,
    "longitude": 74.0863139,
    "id": 12709233106
  },
  {
    "name": "jamia masjid haji din muhammad",
    "category": "amenity",
    "subcategory": "place_of_worship",
    "latitude": 32.571339,
    "longitude": 74.0858791,
    "id": 12709233107
  },
  {
    "name": "gujrat hospital",
    "category": "amenity",
    "subcategory": "hospital",
    "latitude": 32.5683848,
    "longitude": 74.0726191,
    "id": 12717783944
  },
  {
    "name": "hospital",
    "category": "amenity",
    "subcategory": "hospital",
    "latitude": 32.5708947,
    "longitude": 74.0753982,
    "id": 12717784165
  },
  {
    "name": "hospital",
    "category": "amenity",
    "subcategory": "hospital",
    "latitude": 32.5706622,
    "longitude": 74.07633,
    "id": 12717786664
  },
  {
    "name": "Ghusia CNG",
    "category": "amenity",
    "subcategory": "fuel",
    "latitude": 32.5413821,
    "longitude": 74.0652181,
    "id": 12752775087
  },
  {
    "name": "Petrol pump",
    "category": "amenity",
    "subcategory": "fuel",
    "latitude": 32.5394392,
    "longitude": 74.0608828,
    "id": 12752804473
  },
  {
    "name": "PSO PETROL STATION",
    "category": "amenity",
    "subcategory": "fuel",
    "latitude": 32.5595766,
    "longitude": 74.0834588,
    "id": 12752816339
  },
  {
    "name": "Askari bank",
    "category": "amenity",
    "subcategory": "bank",
    "latitude": 32.5533317,
    "longitude": 74.0887908,
    "id": 12752816635
  },
  {
    "name": "Baru & Friends Lawfirm",
    "category": "office",
    "subcategory": "lawyer",
    "latitude": 32.5839327,
    "longitude": 74.0775249,
    "id": 12971213624
  },
  {
    "name": "Azad General Store",
    "category": "shop",
    "subcategory": "convenience",
    "latitude": 32.5798908,
    "longitude": 74.0890315,
    "id": 13018800182
  },
  {
    "name": "Saleemi Chowk",
    "category": "place",
    "subcategory": "locality",
    "latitude": 32.5911804,
    "longitude": 74.0609622,
    "id": 13280019426
  },
  {
    "name": "E-Block",
    "category": "place",
    "subcategory": "suburb",
    "latitude": 32.5926007,
    "longitude": 74.0603836,
    "id": 13280019427
  },
  {
    "name": "Sufi-Block",
    "category": "place",
    "subcategory": "suburb",
    "latitude": 32.5925699,
    "longitude": 74.0648519,
    "id": 13280019428
  },
  {
    "name": "Defense-Block",
    "category": "place",
    "subcategory": "suburb",
    "latitude": 32.5925677,
    "longitude": 74.0626775,
    "id": 13280019429
  },
  {
    "name": "Defense-Chowk",
    "category": "place",
    "subcategory": "square",
    "latitude": 32.5917656,
    "longitude": 74.0636155,
    "id": 13280019430
  },
  {
    "name": "Usman Chowk",
    "category": "place",
    "subcategory": "locality",
    "latitude": 32.5838508,
    "longitude": 74.074298,
    "id": 13280019431
  },
  {
    "name": "GTS Chowk",
    "category": "place",
    "subcategory": "locality",
    "latitude": 32.5686528,
    "longitude": 74.0729611,
    "id": 13281426433
  },
  {
    "name": "Taimoor Chowk",
    "category": "place",
    "subcategory": "locality",
    "latitude": 32.5943563,
    "longitude": 74.0756188,
    "id": 13281426450
  },
  {
    "name": "Madina Chowk",
    "category": "place",
    "subcategory": "locality",
    "latitude": 32.5944834,
    "longitude": 74.0824949,
    "id": 13281484573
  },
  {
    "name": "Maane Wala Chowk",
    "category": "place",
    "subcategory": "locality",
    "latitude": 32.5725324,
    "longitude": 74.0771846,
    "id": 13283901409
  },
  {
    "name": "Lalazar Colony",
    "category": "place",
    "subcategory": "suburb",
    "latitude": 32.5893623,
    "longitude": 74.0570669,
    "id": 13283901416
  },
  {
    "name": "Danday Mar",
    "category": "place",
    "subcategory": "suburb",
    "latitude": 32.5914316,
    "longitude": 74.056823,
    "id": 13283901417
  },
  {
    "name": "Mughal Colony",
    "category": "place",
    "subcategory": "suburb",
    "latitude": 32.5946382,
    "longitude": 74.0623385,
    "id": 13283901418
  },
  {
    "name": "Bismillah Chowk",
    "category": "place",
    "subcategory": "locality",
    "latitude": 32.5960197,
    "longitude": 74.0639854,
    "id": 13283901419
  },
  {
    "name": "Karam Ali Shah",
    "category": "place",
    "subcategory": "suburb",
    "latitude": 32.5719343,
    "longitude": 74.076555,
    "id": 13283901420
  },
  {
    "name": "Dhaaki",
    "category": "place",
    "subcategory": "suburb",
    "latitude": 32.5738205,
    "longitude": 74.0761147,
    "id": 13283901421
  },
  {
    "name": "Shah Hussain",
    "category": "place",
    "subcategory": "suburb",
    "latitude": 32.5710625,
    "longitude": 74.0732133,
    "id": 13283901422
  },
  {
    "name": "Shafiabad",
    "category": "place",
    "subcategory": "suburb",
    "latitude": 32.5735565,
    "longitude": 74.0702987,
    "id": 13283901423
  },
  {
    "name": "Makbara Pandi Shah",
    "category": "place",
    "subcategory": "suburb",
    "latitude": 32.5758956,
    "longitude": 74.0800859,
    "id": 13283901424
  },
  {
    "name": "Machli Chowk",
    "category": "place",
    "subcategory": "locality",
    "latitude": 32.5742008,
    "longitude": 74.081747,
    "id": 13283901425
  },
  {
    "name": "Shahdaula Chowk",
    "category": "place",
    "subcategory": "locality",
    "latitude": 32.5724248,
    "longitude": 74.0816093,
    "id": 13283901426
  },
  {
    "name": "Timble Chowk",
    "category": "place",
    "subcategory": "locality",
    "latitude": 32.5707178,
    "longitude": 74.0807965,
    "id": 13283901427
  },
  {
    "name": "Buttan Da Chowk",
    "category": "place",
    "subcategory": "locality",
    "latitude": 32.5892048,
    "longitude": 74.0622715,
    "id": 13283901428
  },
  {
    "name": "Chenab Orchard",
    "category": "place",
    "subcategory": "suburb",
    "latitude": 32.5607528,
    "longitude": 74.0984548,
    "id": 13284977100
  },
  {
    "name": "Shah Daula Town",
    "category": "place",
    "subcategory": "suburb",
    "latitude": 32.5642229,
    "longitude": 74.0993348,
    "id": 13285076001
  },
  {
    "name": "Gulshan Ghulam e Nabi",
    "category": "place",
    "subcategory": "suburb",
    "latitude": 32.5666434,
    "longitude": 74.0982389,
    "id": 13285076002
  },
  {
    "name": "tertiary",
    "category": "highway",
    "subcategory": "tertiary",
    "latitude": 32.61204935384615,
    "longitude": 74.03324409230768,
    "id": 49915659
  },
  {
    "name": "Rehman Shaheed Road",
    "category": "highway",
    "subcategory": "primary",
    "latitude": 32.586126230000005,
    "longitude": 74.066526635,
    "id": 52073576
  },
  {
    "name": "Gujrat Bypass",
    "category": "highway",
    "subcategory": "trunk",
    "latitude": 32.5744978,
    "longitude": 74.04231722352941,
    "id": 186379289
  },
  {
    "name": "Gujrat Bypass",
    "category": "highway",
    "subcategory": "trunk",
    "latitude": 32.59522368571429,
    "longitude": 74.04397498571429,
    "id": 186379291
  },
  {
    "name": "گرینڈ ٹرنک روڈ",
    "category": "highway",
    "subcategory": "trunk",
    "latitude": 32.606754233333334,
    "longitude": 74.03325293333333,
    "id": 186392228
  },
  {
    "name": "گرینڈ ٹرنک روڈ",
    "category": "highway",
    "subcategory": "trunk",
    "latitude": 32.600326333333335,
    "longitude": 74.03897698333334,
    "id": 186392234
  },
  {
    "name": "Gujrat Bypass",
    "category": "highway",
    "subcategory": "trunk",
    "latitude": 32.6013852,
    "longitude": 74.038944,
    "id": 186392237
  },
  {
    "name": "Gujrat Bypass",
    "category": "highway",
    "subcategory": "trunk",
    "latitude": 32.59775076666667,
    "longitude": 74.04209963333334,
    "id": 186392242
  },
  {
    "name": "گرینڈ ٹرنک روڈ",
    "category": "highway",
    "subcategory": "trunk",
    "latitude": 32.60325315833333,
    "longitude": 74.03618647500001,
    "id": 186392252
  },
  {
    "name": "گرینڈ ٹرنک روڈ",
    "category": "highway",
    "subcategory": "trunk",
    "latitude": 32.6624941040404,
    "longitude": 73.98689301212121,
    "id": 186392274
  },
  {
    "name": "سرگودھا روڈ",
    "category": "highway",
    "subcategory": "primary",
    "latitude": 32.56821679090909,
    "longitude": 74.06899248181819,
    "id": 186392275
  },
  {
    "name": "گرینڈ ٹرنک روڈ",
    "category": "highway",
    "subcategory": "primary",
    "latitude": 32.599289075,
    "longitude": 74.04113025,
    "id": 186392280
  },
  {
    "name": "گرینڈ ٹرنک روڈ",
    "category": "highway",
    "subcategory": "primary",
    "latitude": 32.594637157142856,
    "longitude": 74.04502269999999,
    "id": 186392284
  },
  {
    "name": "primary",
    "category": "highway",
    "subcategory": "primary",
    "latitude": 32.5945816875,
    "longitude": 74.0442957875,
    "id": 186392289
  },
  {
    "name": "primary",
    "category": "highway",
    "subcategory": "primary",
    "latitude": 32.59432546,
    "longitude": 74.04459600999999,
    "id": 186392293
  },
  {
    "name": "Dheru Ghuna Road",
    "category": "highway",
    "subcategory": "unclassified",
    "latitude": 32.60569348571429,
    "longitude": 74.02701784285715,
    "id": 202647641
  },
  {
    "name": "ڈنگہ - گجرات سڑک",
    "category": "highway",
    "subcategory": "secondary",
    "latitude": 32.60476732608696,
    "longitude": 74.03370990434783,
    "id": 202647642
  },
  {
    "name": "tertiary",
    "category": "highway",
    "subcategory": "tertiary",
    "latitude": 32.59843657777778,
    "longitude": 74.03564969444444,
    "id": 202648455
  },
  {
    "name": "unclassified",
    "category": "highway",
    "subcategory": "unclassified",
    "latitude": 32.584882152,
    "longitude": 74.042834448,
    "id": 208137553
  },
  {
    "name": "Rehmania Road",
    "category": "highway",
    "subcategory": "tertiary",
    "latitude": 32.569802058,
    "longitude": 74.02695851,
    "id": 208137554
  },
  {
    "name": "Phularwan Road",
    "category": "highway",
    "subcategory": "tertiary",
    "latitude": 32.610984912068965,
    "longitude": 74.04962482586207,
    "id": 208137555
  },
  {
    "name": "unclassified",
    "category": "highway",
    "subcategory": "unclassified",
    "latitude": 32.59623025714286,
    "longitude": 74.04069108571427,
    "id": 208137556
  },
  {
    "name": "Badshahi Road",
    "category": "highway",
    "subcategory": "secondary",
    "latitude": 32.597333705333334,
    "longitude": 74.06397196133334,
    "id": 208137557
  },
  {
    "name": "track",
    "category": "highway",
    "subcategory": "track",
    "latitude": 32.59289180625,
    "longitude": 74.04183958125,
    "id": 208137559
  },
  {
    "name": "residential",
    "category": "highway",
    "subcategory": "residential",
    "latitude": 32.59567315,
    "longitude": 74.03960210000001,
    "id": 208137560
  },
  {
    "name": "Shadiwal Road",
    "category": "highway",
    "subcategory": "primary",
    "latitude": 32.555918172727274,
    "longitude": 74.07457073030302,
    "id": 208345042
  },
  {
    "name": "گجرات - سرگودھا روڈ",
    "category": "highway",
    "subcategory": "trunk",
    "latitude": 32.554436,
    "longitude": 74.0322960851852,
    "id": 209283041
  },
  {
    "name": "گجرات - سرگودھا روڈ",
    "category": "highway",
    "subcategory": "trunk",
    "latitude": 32.554532308695656,
    "longitude": 74.03234589130435,
    "id": 210117480
  },
  {
    "name": "Phalia Road",
    "category": "highway",
    "subcategory": "primary",
    "latitude": 32.56185018823529,
    "longitude": 74.05151869411765,
    "id": 210117483
  },
  {
    "name": "Grand Trunk Road گرینڈ ٹرنک روڈ",
    "category": "highway",
    "subcategory": "primary",
    "latitude": 32.56244356153846,
    "longitude": 74.07973972692308,
    "id": 215830554
  },
  {
    "name": "گرینڈ ٹرنک روڈ",
    "category": "highway",
    "subcategory": "primary",
    "latitude": 32.53848916277372,
    "longitude": 74.09030753576643,
    "id": 215830574
  },
  {
    "name": "Jattuwakal-Aadowal Road",
    "category": "highway",
    "subcategory": "tertiary",
    "latitude": 32.58008208918919,
    "longitude": 74.05505632432433,
    "id": 216263998
  },
  {
    "name": "unclassified",
    "category": "highway",
    "subcategory": "unclassified",
    "latitude": 32.607796535714286,
    "longitude": 74.04707895714286,
    "id": 217001306
  },
  {
    "name": "ریلوے روڈ",
    "category": "highway",
    "subcategory": "tertiary",
    "latitude": 32.56562194705882,
    "longitude": 74.06870823529412,
    "id": 224397285
  },
  {
    "name": "trunk_link",
    "category": "highway",
    "subcategory": "trunk_link",
    "latitude": 32.570382699999996,
    "longitude": 74.04165175,
    "id": 233210776
  },
  {
    "name": "trunk_link",
    "category": "highway",
    "subcategory": "trunk_link",
    "latitude": 32.550303099999994,
    "longitude": 74.04941675,
    "id": 233212377
  },
  {
    "name": "Gujrat Bypass",
    "category": "highway",
    "subcategory": "trunk",
    "latitude": 32.53307623,
    "longitude": 74.064448852,
    "id": 233223854
  },
  {
    "name": "Zahoor Elahi Stadium",
    "category": "leisure",
    "subcategory": "stadium",
    "latitude": 32.585644375,
    "longitude": 74.08192221666667,
    "id": 233333857
  },
  {
    "name": "Ice Factory Road",
    "category": "highway",
    "subcategory": "tertiary",
    "latitude": 32.583473225,
    "longitude": 74.0728457875,
    "id": 233368308
  },
  {
    "name": "Main Boulevard Shadman",
    "category": "highway",
    "subcategory": "tertiary",
    "latitude": 32.58856094,
    "longitude": 74.0634498,
    "id": 233368309
  },
  {
    "name": "Khwajgan Road",
    "category": "highway",
    "subcategory": "tertiary",
    "latitude": 32.57652033,
    "longitude": 74.07996933000001,
    "id": 233368311
  },
  {
    "name": "سرکلر روڈ",
    "category": "highway",
    "subcategory": "tertiary",
    "latitude": 32.5732048375,
    "longitude": 74.0816869875,
    "id": 233368313
  },
  {
    "name": "سرکلر روڈ",
    "category": "highway",
    "subcategory": "tertiary",
    "latitude": 32.5704582,
    "longitude": 74.0798345125,
    "id": 233368314
  },
  {
    "name": "GTS Road",
    "category": "highway",
    "subcategory": "secondary",
    "latitude": 32.56939234,
    "longitude": 74.07357663,
    "id": 233368315
  },
  {
    "name": "Khwajgan-Kachehri Link Road",
    "category": "highway",
    "subcategory": "tertiary",
    "latitude": 32.577269066666666,
    "longitude": 74.07938306666667,
    "id": 233368316
  },
  {
    "name": "tertiary",
    "category": "highway",
    "subcategory": "tertiary",
    "latitude": 32.5819148,
    "longitude": 74.09540604444445,
    "id": 233368775
  },
  {
    "name": "Jalalpur jattan Road",
    "category": "highway",
    "subcategory": "primary",
    "latitude": 32.58368915,
    "longitude": 74.0990818,
    "id": 233369891
  },
  {
    "name": "Uni route",
    "category": "highway",
    "subcategory": "tertiary",
    "latitude": 32.55726140051021,
    "longitude": 74.10066186989796,
    "id": 233369892
  },
  {
    "name": "Shah Jahangir Road",
    "category": "highway",
    "subcategory": "tertiary",
    "latitude": 32.57755137826087,
    "longitude": 74.08621883043479,
    "id": 233371069
  },
  {
    "name": "جمال پور روڈ",
    "category": "highway",
    "subcategory": "tertiary",
    "latitude": 32.59393636923077,
    "longitude": 74.09376185128205,
    "id": 233371070
  },
  {
    "name": "Kachehri Road",
    "category": "highway",
    "subcategory": "tertiary",
    "latitude": 32.580573861111105,
    "longitude": 74.08032105000001,
    "id": 233373214
  },
  {
    "name": "سرکلر روڈ",
    "category": "highway",
    "subcategory": "tertiary",
    "latitude": 32.57309237142857,
    "longitude": 74.08176315714286,
    "id": 233373217
  },
  {
    "name": "residential",
    "category": "highway",
    "subcategory": "residential",
    "latitude": 32.5718339,
    "longitude": 74.08338635,
    "id": 233373219
  },
  {
    "name": "Faiez Street",
    "category": "highway",
    "subcategory": "residential",
    "latitude": 32.57071814545455,
    "longitude": 74.09562053636364,
    "id": 233378984
  },
  {
    "name": "Shah Jahangir Road",
    "category": "highway",
    "subcategory": "tertiary",
    "latitude": 32.57796508333333,
    "longitude": 74.08724414333332,
    "id": 233378985
  },
  {
    "name": "residential",
    "category": "highway",
    "subcategory": "residential",
    "latitude": 32.57071232,
    "longitude": 74.0923865,
    "id": 233378986
  },
  {
    "name": "Shahdoula Road",
    "category": "highway",
    "subcategory": "tertiary",
    "latitude": 32.56415844574468,
    "longitude": 74.14463309468084,
    "id": 233378987
  },
  {
    "name": "residential",
    "category": "highway",
    "subcategory": "residential",
    "latitude": 32.57133696666667,
    "longitude": 74.0898063111111,
    "id": 233378989
  },
  {
    "name": "Noor Pur Sharqi Link Road",
    "category": "highway",
    "subcategory": "residential",
    "latitude": 32.574005750000005,
    "longitude": 74.090487075,
    "id": 233378990
  },
  {
    "name": "Banth Garhi",
    "category": "highway",
    "subcategory": "residential",
    "latitude": 32.56285010476191,
    "longitude": 74.09547634285714,
    "id": 233378991
  },
  {
    "name": "Dr. Rabbani Road",
    "category": "highway",
    "subcategory": "residential",
    "latitude": 32.57693019333333,
    "longitude": 74.08963396666667,
    "id": 233378992
  },
  {
    "name": "residential",
    "category": "highway",
    "subcategory": "residential",
    "latitude": 32.578472426666664,
    "longitude": 74.08547529333333,
    "id": 233380608
  },
  {
    "name": "residential",
    "category": "highway",
    "subcategory": "residential",
    "latitude": 32.56424169,
    "longitude": 74.07930630000001,
    "id": 233380609
  },
  {
    "name": "Muslam Bazar",
    "category": "highway",
    "subcategory": "residential",
    "latitude": 32.57420539333334,
    "longitude": 74.08096933333333,
    "id": 233380611
  },
  {
    "name": "Ramtlai Link Road",
    "category": "highway",
    "subcategory": "tertiary",
    "latitude": 32.56962945714286,
    "longitude": 74.07915814285714,
    "id": 233380612
  },
  {
    "name": "residential",
    "category": "highway",
    "subcategory": "residential",
    "latitude": 32.5649628,
    "longitude": 74.0784716,
    "id": 233380613
  },
  {
    "name": "residential",
    "category": "highway",
    "subcategory": "residential",
    "latitude": 32.575389725,
    "longitude": 74.0814677,
    "id": 233380614
  },
  {
    "name": "residential",
    "category": "highway",
    "subcategory": "residential",
    "latitude": 32.564883875,
    "longitude": 74.0794756,
    "id": 233380615
  },
  {
    "name": "Gulzar Madina Road",
    "category": "highway",
    "subcategory": "tertiary",
    "latitude": 32.56545127142857,
    "longitude": 74.07965669047618,
    "id": 233380617
  },
  {
    "name": "گرینڈ ٹرنک روڈ",
    "category": "highway",
    "subcategory": "primary",
    "latitude": 32.573898823076924,
    "longitude": 74.06722525,
    "id": 233380618
  },
  {
    "name": "residential",
    "category": "highway",
    "subcategory": "residential",
    "latitude": 32.57260941818182,
    "longitude": 74.07116738181819,
    "id": 233382052
  },
  {
    "name": "residential",
    "category": "highway",
    "subcategory": "residential",
    "latitude": 32.57376456666667,
    "longitude": 74.07229506666667,
    "id": 233382053
  },
  {
    "name": "Shah Hussain Road",
    "category": "highway",
    "subcategory": "residential",
    "latitude": 32.57101129473684,
    "longitude": 74.0735136263158,
    "id": 233382054
  },
  {
    "name": "Qamar Sialvi Road",
    "category": "highway",
    "subcategory": "tertiary",
    "latitude": 32.576585217142856,
    "longitude": 74.06857601428571,
    "id": 233382055
  },
  {
    "name": "residential",
    "category": "highway",
    "subcategory": "residential",
    "latitude": 32.565682025,
    "longitude": 74.0777508625,
    "id": 233382056
  },
  {
    "name": "residential",
    "category": "highway",
    "subcategory": "residential",
    "latitude": 32.577301500000004,
    "longitude": 74.0660867,
    "id": 233382057
  },
  {
    "name": "residential",
    "category": "highway",
    "subcategory": "residential",
    "latitude": 32.57802944,
    "longitude": 74.06508368,
    "id": 233382058
  },
  {
    "name": "residential",
    "category": "highway",
    "subcategory": "residential",
    "latitude": 32.573168933333335,
    "longitude": 74.07342473333334,
    "id": 233382059
  },
  {
    "name": "Khurashid Fan Road",
    "category": "highway",
    "subcategory": "residential",
    "latitude": 32.58183762857143,
    "longitude": 74.0927277,
    "id": 233408380
  },
  {
    "name": "tertiary",
    "category": "highway",
    "subcategory": "tertiary",
    "latitude": 32.58741333333333,
    "longitude": 74.05294031666666,
    "id": 233409756
  },
  {
    "name": "tertiary",
    "category": "highway",
    "subcategory": "tertiary",
    "latitude": 32.58825353333333,
    "longitude": 74.0536465,
    "id": 233409757
  },
  {
    "name": "Swedish Pakistani Institute of Technology",
    "category": "amenity",
    "subcategory": "college",
    "latitude": 32.59130656,
    "longitude": 74.052492268,
    "id": 233409758
  },
  {
    "name": "گرینڈ ٹرنک روڈ",
    "category": "highway",
    "subcategory": "primary",
    "latitude": 32.5889598,
    "longitude": 74.05092475,
    "id": 233409759
  },
  {
    "name": "tertiary",
    "category": "highway",
    "subcategory": "tertiary",
    "latitude": 32.5877028,
    "longitude": 74.05306214999999,
    "id": 233409760
  },
  {
    "name": "unclassified",
    "category": "highway",
    "subcategory": "unclassified",
    "latitude": 32.5903058,
    "longitude": 74.04978158333334,
    "id": 233413145
  },
  {
    "name": "گرینڈ ٹرنک روڈ",
    "category": "highway",
    "subcategory": "primary",
    "latitude": 32.575513912765956,
    "longitude": 74.06563898723404,
    "id": 233413147
  },
  {
    "name": "GT Road",
    "category": "highway",
    "subcategory": "tertiary",
    "latitude": 32.59332776666667,
    "longitude": 74.04465796666666,
    "id": 233414379
  },
  {
    "name": "Adowal Road",
    "category": "highway",
    "subcategory": "tertiary",
    "latitude": 32.58795077916667,
    "longitude": 74.049403,
    "id": 233414381
  },
  {
    "name": "primary_link",
    "category": "highway",
    "subcategory": "primary_link",
    "latitude": 32.588728,
    "longitude": 74.051253,
    "id": 233414383
  },
  {
    "name": "Railway Line Road",
    "category": "highway",
    "subcategory": "residential",
    "latitude": 32.57480148928572,
    "longitude": 74.05797368214284,
    "id": 233414776
  },
  {
    "name": "Eid gah",
    "category": "amenity",
    "subcategory": "place_of_worship",
    "latitude": 32.57228286666667,
    "longitude": 74.06800491111112,
    "id": 233471720
  },
  {
    "name": "residential",
    "category": "highway",
    "subcategory": "residential",
    "latitude": 32.57162210909091,
    "longitude": 74.06543766363637,
    "id": 233471722
  },
  {
    "name": "residential",
    "category": "highway",
    "subcategory": "residential",
    "latitude": 32.5718423,
    "longitude": 74.066203,
    "id": 233471723
  },
  {
    "name": "residential",
    "category": "highway",
    "subcategory": "residential",
    "latitude": 32.57408287692307,
    "longitude": 74.06010041538461,
    "id": 233471843
  },
  {
    "name": "residential",
    "category": "highway",
    "subcategory": "residential",
    "latitude": 32.57308752,
    "longitude": 74.06245406000001,
    "id": 233471844
  },
  {
    "name": "residential",
    "category": "highway",
    "subcategory": "residential",
    "latitude": 32.57394955714285,
    "longitude": 74.06215115714285,
    "id": 233471846
  },
  {
    "name": "residential",
    "category": "highway",
    "subcategory": "residential",
    "latitude": 32.57324833333333,
    "longitude": 74.06070066666666,
    "id": 233471847
  },
  {
    "name": "residential",
    "category": "highway",
    "subcategory": "residential",
    "latitude": 32.573282425,
    "longitude": 74.061597425,
    "id": 233471848
  },
  {
    "name": "Eid Gah Road",
    "category": "highway",
    "subcategory": "residential",
    "latitude": 32.572639466666665,
    "longitude": 74.06358003333332,
    "id": 233471849
  },
  {
    "name": "Main Faizabad Road",
    "category": "highway",
    "subcategory": "residential",
    "latitude": 32.569444196296296,
    "longitude": 74.06781661851852,
    "id": 233471972
  },
  {
    "name": "primary",
    "category": "highway",
    "subcategory": "primary",
    "latitude": 32.566694475,
    "longitude": 74.064976,
    "id": 233472114
  },
  {
    "name": "residential",
    "category": "highway",
    "subcategory": "residential",
    "latitude": 32.5686646,
    "longitude": 74.067432275,
    "id": 233472115
  },
  {
    "name": "residential",
    "category": "highway",
    "subcategory": "residential",
    "latitude": 32.56842426666667,
    "longitude": 74.06671553333334,
    "id": 233472117
  },
  {
    "name": "Furniture Market Road",
    "category": "highway",
    "subcategory": "residential",
    "latitude": 32.564109277551026,
    "longitude": 74.06964694081633,
    "id": 233472435
  },
  {
    "name": "residential",
    "category": "highway",
    "subcategory": "residential",
    "latitude": 32.56591922,
    "longitude": 74.0722623,
    "id": 233472436
  },
  {
    "name": "residential",
    "category": "highway",
    "subcategory": "residential",
    "latitude": 32.563816233333334,
    "longitude": 74.0679894,
    "id": 233472437
  },
  {
    "name": "residential",
    "category": "highway",
    "subcategory": "residential",
    "latitude": 32.5661444,
    "longitude": 74.07037808181818,
    "id": 233472438
  },
  {
    "name": "Furniture Market Road",
    "category": "highway",
    "subcategory": "residential",
    "latitude": 32.564123959999996,
    "longitude": 74.06809657333334,
    "id": 233472439
  },
  {
    "name": "residential",
    "category": "highway",
    "subcategory": "residential",
    "latitude": 32.564573915384614,
    "longitude": 74.0714136,
    "id": 233472440
  },
  {
    "name": "Gujrat Fatepur Road",
    "category": "highway",
    "subcategory": "secondary",
    "latitude": 32.63972948333333,
    "longitude": 74.10253695933334,
    "id": 233501736
  },
  {
    "name": "pedestrian",
    "category": "highway",
    "subcategory": "pedestrian",
    "latitude": 32.60521172,
    "longitude": 74.08518408,
    "id": 233503005
  },
  {
    "name": "pedestrian",
    "category": "highway",
    "subcategory": "pedestrian",
    "latitude": 32.6080167,
    "longitude": 74.08685383333334,
    "id": 233503006
  },
  {
    "name": "میاں محمد میر روڈ",
    "category": "highway",
    "subcategory": "tertiary",
    "latitude": 32.5953384875,
    "longitude": 74.08152830625,
    "id": 233504061
  },
  {
    "name": "Baradari Road",
    "category": "highway",
    "subcategory": "residential",
    "latitude": 32.588366185714285,
    "longitude": 74.08162568571427,
    "id": 233504062
  },
  {
    "name": "Bhimber Road",
    "category": "highway",
    "subcategory": "primary",
    "latitude": 32.60241866478873,
    "longitude": 74.07929840422536,
    "id": 233504836
  },
  {
    "name": "Bhimber Road",
    "category": "highway",
    "subcategory": "primary",
    "latitude": 32.60406758644068,
    "longitude": 74.07932685254237,
    "id": 233504837
  },
  {
    "name": "residential",
    "category": "highway",
    "subcategory": "residential",
    "latitude": 32.586900400000005,
    "longitude": 74.078915025,
    "id": 233505502
  },
  {
    "name": "residential",
    "category": "highway",
    "subcategory": "residential",
    "latitude": 32.58764384444444,
    "longitude": 74.07950235555556,
    "id": 233505503
  },
  {
    "name": "Lawyers Road",
    "category": "highway",
    "subcategory": "residential",
    "latitude": 32.58623371666667,
    "longitude": 74.07866631666667,
    "id": 233505504
  },
  {
    "name": "tertiary_link",
    "category": "highway",
    "subcategory": "tertiary_link",
    "latitude": 32.5826033,
    "longitude": 74.0804011,
    "id": 233505595
  },
  {
    "name": "residential",
    "category": "highway",
    "subcategory": "residential",
    "latitude": 32.592354650000004,
    "longitude": 74.08106939999999,
    "id": 233506413
  },
  {
    "name": "residential",
    "category": "highway",
    "subcategory": "residential",
    "latitude": 32.59314066,
    "longitude": 74.08065667999999,
    "id": 233506415
  },
  {
    "name": "residential",
    "category": "highway",
    "subcategory": "residential",
    "latitude": 32.593125,
    "longitude": 74.0814793,
    "id": 233506416
  },
  {
    "name": "residential",
    "category": "highway",
    "subcategory": "residential",
    "latitude": 32.593381344444445,
    "longitude": 74.08090136666667,
    "id": 233506418
  },
  {
    "name": "residential",
    "category": "highway",
    "subcategory": "residential",
    "latitude": 32.5995303,
    "longitude": 74.08241000000001,
    "id": 233508700
  },
  {
    "name": "residential",
    "category": "highway",
    "subcategory": "residential",
    "latitude": 32.59804483333333,
    "longitude": 74.08241105,
    "id": 233508701
  },
  {
    "name": "residential",
    "category": "highway",
    "subcategory": "residential",
    "latitude": 32.59813315714286,
    "longitude": 74.08077660000001,
    "id": 233508702
  },
  {
    "name": "residential",
    "category": "highway",
    "subcategory": "residential",
    "latitude": 32.59973651111111,
    "longitude": 74.08228433333333,
    "id": 233508703
  },
  {
    "name": "residential",
    "category": "highway",
    "subcategory": "residential",
    "latitude": 32.5995322,
    "longitude": 74.0803928,
    "id": 233508704
  },
  {
    "name": "residential",
    "category": "highway",
    "subcategory": "residential",
    "latitude": 32.5974406125,
    "longitude": 74.0768240125,
    "id": 233508705
  },
  {
    "name": "residential",
    "category": "highway",
    "subcategory": "residential",
    "latitude": 32.599314525,
    "longitude": 74.0826911,
    "id": 233508706
  },
  {
    "name": "residential",
    "category": "highway",
    "subcategory": "residential",
    "latitude": 32.59833622,
    "longitude": 74.07968338,
    "id": 233508707
  },
  {
    "name": "residential",
    "category": "highway",
    "subcategory": "residential",
    "latitude": 32.59950155,
    "longitude": 74.08297365,
    "id": 233508708
  },
  {
    "name": "residential",
    "category": "highway",
    "subcategory": "residential",
    "latitude": 32.5989559,
    "longitude": 74.08002520000001,
    "id": 233508709
  },
  {
    "name": "residential",
    "category": "highway",
    "subcategory": "residential",
    "latitude": 32.5973526,
    "longitude": 74.0776597,
    "id": 233508710
  },
  {
    "name": "residential",
    "category": "highway",
    "subcategory": "residential",
    "latitude": 32.593420928571426,
    "longitude": 74.0783298,
    "id": 233509363
  },
  {
    "name": "residential",
    "category": "highway",
    "subcategory": "residential",
    "latitude": 32.5959207,
    "longitude": 74.077860125,
    "id": 233509365
  },
  {
    "name": "residential",
    "category": "highway",
    "subcategory": "residential",
    "latitude": 32.595372299999994,
    "longitude": 74.07835212,
    "id": 233509367
  },
  {
    "name": "residential",
    "category": "highway",
    "subcategory": "residential",
    "latitude": 32.59366953333333,
    "longitude": 74.07756818333333,
    "id": 233509368
  },
  {
    "name": "secondary",
    "category": "highway",
    "subcategory": "secondary",
    "latitude": 32.596283605,
    "longitude": 74.077327255,
    "id": 233509421
  },
  {
    "name": "secondary",
    "category": "highway",
    "subcategory": "secondary",
    "latitude": 32.596232345454546,
    "longitude": 74.07739745454545,
    "id": 233509422
  },
  {
    "name": "residential",
    "category": "highway",
    "subcategory": "residential",
    "latitude": 32.59383806666667,
    "longitude": 74.0789931,
    "id": 233509690
  },
  {
    "name": "residential",
    "category": "highway",
    "subcategory": "residential",
    "latitude": 32.592342025,
    "longitude": 74.07922450000001,
    "id": 233509691
  },
  {
    "name": "residential",
    "category": "highway",
    "subcategory": "residential",
    "latitude": 32.593497299999996,
    "longitude": 74.0789726,
    "id": 233509692
  },
  {
    "name": "residential",
    "category": "highway",
    "subcategory": "residential",
    "latitude": 32.592819266666666,
    "longitude": 74.07916306666667,
    "id": 233509693
  },
  {
    "name": "tertiary",
    "category": "highway",
    "subcategory": "tertiary",
    "latitude": 32.579874399999994,
    "longitude": 74.08022500000001,
    "id": 233509876
  },
  {
    "name": "Ghareeb Pura Road",
    "category": "highway",
    "subcategory": "tertiary",
    "latitude": 32.58083356521739,
    "longitude": 74.07729964782608,
    "id": 233509877
  },
  {
    "name": "Jinnah Link Road",
    "category": "highway",
    "subcategory": "tertiary",
    "latitude": 32.581533826666664,
    "longitude": 74.07502325333333,
    "id": 233510171
  },
  {
    "name": "residential",
    "category": "highway",
    "subcategory": "residential",
    "latitude": 32.582284775,
    "longitude": 74.0720899125,
    "id": 233583213
  },
  {
    "name": "residential",
    "category": "highway",
    "subcategory": "residential",
    "latitude": 32.58210035,
    "longitude": 74.07140493333334,
    "id": 233583214
  },
  {
    "name": "residential",
    "category": "highway",
    "subcategory": "residential",
    "latitude": 32.57987745,
    "longitude": 74.07166425,
    "id": 233583215
  },
  {
    "name": "residential",
    "category": "highway",
    "subcategory": "residential",
    "latitude": 32.5833236,
    "longitude": 74.07356465000001,
    "id": 233583216
  },
  {
    "name": "residential",
    "category": "highway",
    "subcategory": "residential",
    "latitude": 32.58223533333334,
    "longitude": 74.07199256666667,
    "id": 233583217
  },
  {
    "name": "residential",
    "category": "highway",
    "subcategory": "residential",
    "latitude": 32.580493966666666,
    "longitude": 74.0710972,
    "id": 233583218
  },
  {
    "name": "residential",
    "category": "highway",
    "subcategory": "residential",
    "latitude": 32.58250503333334,
    "longitude": 74.07213303333333,
    "id": 233583219
  },
  {
    "name": "residential",
    "category": "highway",
    "subcategory": "residential",
    "latitude": 32.5834123,
    "longitude": 74.07404460000001,
    "id": 233583220
  },
  {
    "name": "Ali Pura Road",
    "category": "highway",
    "subcategory": "tertiary",
    "latitude": 32.58215411142857,
    "longitude": 74.06830493714286,
    "id": 233583221
  },
  {
    "name": "residential",
    "category": "highway",
    "subcategory": "residential",
    "latitude": 32.5804447,
    "longitude": 74.07176546666666,
    "id": 233583222
  },
  {
    "name": "residential",
    "category": "highway",
    "subcategory": "residential",
    "latitude": 32.5806229,
    "longitude": 74.0720308,
    "id": 233583223
  },
  {
    "name": "residential",
    "category": "highway",
    "subcategory": "residential",
    "latitude": 32.5872763,
    "longitude": 74.06541983333334,
    "id": 233583326
  },
  {
    "name": "tertiary_link",
    "category": "highway",
    "subcategory": "tertiary_link",
    "latitude": 32.58775075,
    "longitude": 74.06321895,
    "id": 233583327
  },
  {
    "name": "Khursheed Street",
    "category": "highway",
    "subcategory": "residential",
    "latitude": 32.592253758333335,
    "longitude": 74.06157628333334,
    "id": 233583328
  },
  {
    "name": "Main Boulevard Shadman",
    "category": "highway",
    "subcategory": "tertiary",
    "latitude": 32.58869983333333,
    "longitude": 74.06360971111111,
    "id": 233583329
  },
  {
    "name": "residential",
    "category": "highway",
    "subcategory": "residential",
    "latitude": 32.588486599999996,
    "longitude": 74.0649938,
    "id": 233583330
  },
  {
    "name": "residential",
    "category": "highway",
    "subcategory": "residential",
    "latitude": 32.58751026,
    "longitude": 74.0650233,
    "id": 233583331
  },
  {
    "name": "Seith Road",
    "category": "highway",
    "subcategory": "residential",
    "latitude": 32.589176676923074,
    "longitude": 74.06448463846154,
    "id": 233583332
  },
  {
    "name": "residential",
    "category": "highway",
    "subcategory": "residential",
    "latitude": 32.58716145714286,
    "longitude": 74.06512211428571,
    "id": 233583333
  },
  {
    "name": "residential",
    "category": "highway",
    "subcategory": "residential",
    "latitude": 32.589611738461535,
    "longitude": 74.06676040769231,
    "id": 233583334
  },
  {
    "name": "tertiary_link",
    "category": "highway",
    "subcategory": "tertiary_link",
    "latitude": 32.5886426,
    "longitude": 74.063535,
    "id": 233583335
  },
  {
    "name": "residential",
    "category": "highway",
    "subcategory": "residential",
    "latitude": 32.59302915,
    "longitude": 74.0650033,
    "id": 233583369
  },
  {
    "name": "Sultan Street",
    "category": "highway",
    "subcategory": "residential",
    "latitude": 32.59249696,
    "longitude": 74.06549198,
    "id": 233583370
  },
  {
    "name": "residential",
    "category": "highway",
    "subcategory": "residential",
    "latitude": 32.5931913,
    "longitude": 74.06493766666667,
    "id": 233583371
  },
  {
    "name": "Kareem Street",
    "category": "highway",
    "subcategory": "residential",
    "latitude": 32.59093685625,
    "longitude": 74.061935375,
    "id": 233583372
  },
  {
    "name": "residential",
    "category": "highway",
    "subcategory": "residential",
    "latitude": 32.59288935,
    "longitude": 74.06451775,
    "id": 233583373
  },
  {
    "name": "residential",
    "category": "highway",
    "subcategory": "residential",
    "latitude": 32.5925187,
    "longitude": 74.0648931,
    "id": 233583374
  },
  {
    "name": "residential",
    "category": "highway",
    "subcategory": "residential",
    "latitude": 32.591780166666666,
    "longitude": 74.06584333333333,
    "id": 233583375
  },
  {
    "name": "residential",
    "category": "highway",
    "subcategory": "residential",
    "latitude": 32.59355356,
    "longitude": 74.06476198,
    "id": 233583436
  },
  {
    "name": "residential",
    "category": "highway",
    "subcategory": "residential",
    "latitude": 32.58751948,
    "longitude": 74.06215540000001,
    "id": 233583437
  },
  {
    "name": "residential",
    "category": "highway",
    "subcategory": "residential",
    "latitude": 32.5881845,
    "longitude": 74.061787525,
    "id": 233583438
  },