[
  {
    "name": "دارا پور",
    "category": "place",
    "subcategory": "village",
    "latitude": 32.7286454,
    "longitude": 73.5414765,
    "id": 9413951469
  },
  {
    "name": "لِلہ جہلم روڈ",
    "category": "highway",
    "subcategory": "trunk",
    "latitude": 32.705370091111114,
    "longitude": 73.51905665111111,
    "id": 232404187
  },
  {
    "name": "residential",
    "category": "landuse",
    "subcategory": "residential",
    "latitude": 32.7288486125,
    "longitude": 73.542360875,
    "id": 548187595
  },
  {
    "name": "Jehlem-Rasool-Pindadan Khan Road",
    "category": "highway",
    "subcategory": "primary",
    "latitude": 32.72236805,
    "longitude": 73.53797715,
    "id": 1044810007
  },
  {
    "name": "service",
    "category": "highway",
    "subcategory": "service",
    "latitude": 32.723836033333335,
    "longitude": 73.53936593333333,
    "id": 1044810009
  },
  {
    "name": "residential",
    "category": "highway",
    "subcategory": "residential",
    "latitude": 32.723679520000005,
    "longitude": 73.53874071999999,
    "id": 1044810010
  },
  {
    "name": "residential",
    "category": "highway",
    "subcategory": "residential",
    "latitude": 32.72592717692308,
    "longitude": 73.5408081923077,
    "id": 1220556082
  },
  {
    "name": "tertiary",
    "category": "highway",
    "subcategory": "tertiary",
    "latitude": 32.758371530434786,
    "longitude": 73.50725236956522,
    "id": 1413368848
  },
  {
    "name": "Jehlem-Rasool-Pindadan Khan Road",
    "category": "highway",
    "subcategory": "primary",
    "latitude": 32.725494366666666,
    "longitude": 73.53903066666666,
    "id": 1459136621
  },
  {
    "name": "لِلہ جہلم روڈ",
    "category": "highway",
    "subcategory": "trunk",
    "latitude": 32.732645575,
    "longitude": 73.544109525,
    "id": 1459136622
  },
  {
    "name": "لِلہ جہلم روڈ",
    "category": "highway",
    "subcategory": "trunk",
    "latitude": 32.73313768333333,
    "longitude": 73.544508875,
    "id": 1459136626
  },
  {
    "name": "residential",
    "category": "landuse",
    "subcategory": "residential",
    "latitude": 32.72855301875,
    "longitude": 73.5420398,
    "id": 548187595
  }
]