[
  {
    "name": "Shah Muhammad Tunio Medical Center",
    "category": "amenity",
    "subcategory": "hospital",
    "latitude": 26.7841826,
    "longitude": 68.2819977,
    "id": 5327509702
  },
  {
    "name": "Goth Yousaf Rajper Dageja",
    "category": "tourism",
    "subcategory": "viewpoint",
    "latitude": 26.7926585,
    "longitude": 68.2483248,
    "id": 5440570223
  },
  {
    "name": "Dargah Cheeho Sharif",
    "category": "tourism",
    "subcategory": "apartment",
    "latitude": 26.7867626,
    "longitude": 68.2638862,
    "id": 5440695621
  },
  {
    "name": "Padidan Railway Station",
    "category": "tourism",
    "subcategory": "attraction",
    "latitude": 26.7807577,
    "longitude": 68.2839707,
    "id": 5440874421
  },
  {
    "name": "SEF Middle School",
    "category": "amenity",
    "subcategory": "school",
    "latitude": 26.7927822,
    "longitude": 68.2482072,
    "id": 5440874721
  }
]