[
  {
    "name": "Port Qasim Mor",
    "category": "amenity",
    "subcategory": "bus_station",
    "latitude": 24.8662738,
    "longitude": 67.3001756,
    "id": 4299624393
  },
  {
    "name": "Mazda House",
    "category": "shop",
    "subcategory": "car_repair",
    "latitude": 24.8493886,
    "longitude": 67.2281579,
    "id": 4438527208
  },
  {
    "name": "Madina Masjid",
    "category": "amenity",
    "subcategory": "place_of_worship",
    "latitude": 24.8380333,
    "longitude": 67.2941687,
    "id": 4739321148
  },
  {
    "name": "Madina Medical Center",
    "category": "amenity",
    "subcategory": "hospital",
    "latitude": 24.8378316,
    "longitude": 67.2932872,
    "id": 4739321179
  },
  {
    "name": "Al-Ibrahim Eye Hospital",
    "category": "amenity",
    "subcategory": "hospital",
    "latitude": 24.8848673,
    "longitude": 67.2247678,
    "id": 4767647536
  },
  {
    "name": "Tuesday Market",
    "category": "shop",
    "subcategory": "supermarket",
    "latitude": 24.8523683,
    "longitude": 67.2610025,
    "id": 4783144461
  },
  {
    "name": "Crown Foods",
    "category": "amenity",
    "subcategory": "restaurant",
    "latitude": 24.8534893,
    "longitude": 67.2588059,
    "id": 4783144462
  },
  {
    "name": "New Achanak Restaurant",
    "category": "amenity",
    "subcategory": "restaurant",
    "latitude": 24.8562504,
    "longitude": 67.2606727,
    "id": 4783144465
  },
  {
    "name": "Quetta Marhaba Restaurant",
    "category": "amenity",
    "subcategory": "restaurant",
    "latitude": 24.8563944,
    "longitude": 67.2608548,
    "id": 4783144466
  },
  {
    "name": "New New Quetta Al Hanif Restaurant",
    "category": "amenity",
    "subcategory": "restaurant",
    "latitude": 24.8590465,
    "longitude": 67.2726411,
    "id": 4783144467
  },
  {
    "name": "Haji Mehrab Khan Khilji Restaurant",
    "category": "amenity",
    "subcategory": "restaurant",
    "latitude": 24.8591925,
    "longitude": 67.2732201,
    "id": 4783144468
  },
  {
    "name": "Afzal Motors Pvt Ltd",
    "category": "shop",
    "subcategory": "car",
    "latitude": 24.862927,
    "longitude": 67.287685,
    "id": 4783144471
  },
  {
    "name": "Jamia Masjid Faizan-e-Madina",
    "category": "amenity",
    "subcategory": "place_of_worship",
    "latitude": 24.8646761,
    "longitude": 67.2928812,
    "id": 4783144473
  },
  {
    "name": "Saturday Market",
    "category": "shop",
    "subcategory": "supermarket",
    "latitude": 24.8529144,
    "longitude": 67.2609776,
    "id": 4783144474
  },
  {
    "name": "Rizwan Chicken Biryani & Pakwan Centre",
    "category": "amenity",
    "subcategory": "fast_food",
    "latitude": 24.8563128,
    "longitude": 67.2590069,
    "id": 4783144475
  },
  {
    "name": "Al Syed Secondary School",
    "category": "amenity",
    "subcategory": "school",
    "latitude": 24.8512975,
    "longitude": 67.2614176,
    "id": 4783144476
  },
  {
    "name": "AFRIDI GENERAL STORE",
    "category": "shop",
    "subcategory": "yes",
    "latitude": 24.8540508,
    "longitude": 67.261652,
    "id": 4783144477
  },
  {
    "name": "Jamia Masjid Aqsa",
    "category": "amenity",
    "subcategory": "place_of_worship",
    "latitude": 24.8561235,
    "longitude": 67.2667253,
    "id": 4783144478
  },
  {
    "name": "Shah Latif Police Station",
    "category": "amenity",
    "subcategory": "police",
    "latitude": 24.8565921,
    "longitude": 67.2695548,
    "id": 4783144479
  },
  {
    "name": "Shuhada-e-Islam",
    "category": "amenity",
    "subcategory": "place_of_worship",
    "latitude": 24.8502953,
    "longitude": 67.2677581,
    "id": 4783144481
  },
  {
    "name": "Jamia Masjid Suleman",
    "category": "amenity",
    "subcategory": "place_of_worship",
    "latitude": 24.8514816,
    "longitude": 67.2667359,
    "id": 4783144482
  },
  {
    "name": "Bangash Restaurant",
    "category": "amenity",
    "subcategory": "restaurant",
    "latitude": 24.8553867,
    "longitude": 67.2718663,
    "id": 4783144483
  },
  {
    "name": "Arshad Biryani Centre",
    "category": "amenity",
    "subcategory": "restaurant",
    "latitude": 24.8551678,
    "longitude": 67.2736998,
    "id": 4783144484
  },
  {
    "name": "New Bilal Baker's",
    "category": "shop",
    "subcategory": "bakery",
    "latitude": 24.8575465,
    "longitude": 67.2728964,
    "id": 4783144485
  },
  {
    "name": "Bangash Restaurant",
    "category": "amenity",
    "subcategory": "restaurant",
    "latitude": 24.8526368,
    "longitude": 67.2737079,
    "id": 4783144486
  },
  {
    "name": "Muhammad Bin Qasim Restaurant Port Qasim",
    "category": "amenity",
    "subcategory": "restaurant",
    "latitude": 24.8663171,
    "longitude": 67.2998485,
    "id": 4783144489
  },
  {
    "name": "Govt Boys Primary School",
    "category": "amenity",
    "subcategory": "school",
    "latitude": 24.8628625,
    "longitude": 67.2825414,
    "id": 4783144496
  },
  {
    "name": "New Sindh Green Auto",
    "category": "shop",
    "subcategory": "car",
    "latitude": 24.8645722,
    "longitude": 67.282135,
    "id": 4783144497
  },
  {
    "name": "Madni Masjid",
    "category": "amenity",
    "subcategory": "place_of_worship",
    "latitude": 24.8661745,
    "longitude": 67.2827816,
    "id": 4783144498
  },
  {
    "name": "مسجد التوبة",
    "category": "amenity",
    "subcategory": "place_of_worship",
    "latitude": 24.8665425,
    "longitude": 67.2806687,
    "id": 4783144499
  },
  {
    "name": "Jaamia Muhammadi Masjid Ahel E Hadees Odh Basti",
    "category": "amenity",
    "subcategory": "place_of_worship",
    "latitude": 24.841308,
    "longitude": 67.2662901,
    "id": 4783144501
  },
  {
    "name": "ALLAH wali masjid",
    "category": "amenity",
    "subcategory": "place_of_worship",
    "latitude": 24.8398172,
    "longitude": 67.2668035,
    "id": 4783144502
  },
  {
    "name": "Jamia Masjid Bilal Ahle Hadees",
    "category": "amenity",
    "subcategory": "place_of_worship",
    "latitude": 24.8393683,
    "longitude": 67.2659308,
    "id": 4783144503
  },
  {
    "name": "Aftab Hotel",
    "category": "tourism",
    "subcategory": "hotel",
    "latitude": 24.8400332,
    "longitude": 67.2655948,
    "id": 4783144504
  },
  {
    "name": "Green Land Secondary School",
    "category": "amenity",
    "subcategory": "school",
    "latitude": 24.8385297,
    "longitude": 67.2669855,
    "id": 4783144505
  },
  {
    "name": "بينک الحبيب",
    "category": "amenity",
    "subcategory": "bank",
    "latitude": 24.836327,
    "longitude": 67.2638889,
    "id": 4783144511
  },
  {
    "name": "Razia Medical Centre",
    "category": "amenity",
    "subcategory": "hospital",
    "latitude": 24.8363586,
    "longitude": 67.2633692,
    "id": 4783144512
  },
  {
    "name": "Baba Chicken",
    "category": "amenity",
    "subcategory": "restaurant",
    "latitude": 24.8363586,
    "longitude": 67.2600295,
    "id": 4783144513
  },
  {
    "name": "Saleh Shifa Hospital",
    "category": "amenity",
    "subcategory": "hospital",
    "latitude": 24.8362259,
    "longitude": 67.2609315,
    "id": 4783144514
  },
  {
    "name": "Jameel Sweets and Resturant",
    "category": "amenity",
    "subcategory": "restaurant",
    "latitude": 24.8355696,
    "longitude": 67.2616465,
    "id": 4783144515
  },
  {
    "name": "SULTAN SUPER MART",
    "category": "shop",
    "subcategory": "supermarket",
    "latitude": 24.8353403,
    "longitude": 67.2598774,
    "id": 4783144516
  },
  {
    "name": "Madina Bakery",
    "category": "shop",
    "subcategory": "bakery",
    "latitude": 24.8355917,
    "longitude": 67.261159,
    "id": 4783144518
  },
  {
    "name": "Shehzad Medical store",
    "category": "amenity",
    "subcategory": "pharmacy",
    "latitude": 24.8346183,
    "longitude": 67.2598995,
    "id": 4783144519
  },
  {
    "name": "Al-Momin Medical Store",
    "category": "amenity",
    "subcategory": "pharmacy",
    "latitude": 24.8343676,
    "longitude": 67.2575349,
    "id": 4783147822
  },
  {
    "name": "Army Public School",
    "category": "amenity",
    "subcategory": "school",
    "latitude": 24.8350239,
    "longitude": 67.2553653,
    "id": 4783147824
  },
  {
    "name": "The Bright Way Secondary School",
    "category": "amenity",
    "subcategory": "school",
    "latitude": 24.8328873,
    "longitude": 67.2597067,
    "id": 4783147825
  },
  {
    "name": "فیصل بینک",
    "category": "amenity",
    "subcategory": "bank",
    "latitude": 24.8294109,
    "longitude": 67.2596818,
    "id": 4783147826
  },
  {
    "name": "Rajput Medical Store Karan",
    "category": "amenity",
    "subcategory": "pharmacy",
    "latitude": 24.8616354,
    "longitude": 67.2699375,
    "id": 4783147827
  },
  {
    "name": "Hot Spicy Restaurant",
    "category": "amenity",
    "subcategory": "restaurant",
    "latitude": 24.858629,
    "longitude": 67.2679978,
    "id": 4783147828
  },
  {
    "name": "Standard Restaurant & BBQ",
    "category": "amenity",
    "subcategory": "restaurant",
    "latitude": 24.8589245,
    "longitude": 67.2692428,
    "id": 4783147830
  },
  {
    "name": "Ali Sanitary Hardware Electric & Paint Store",
    "category": "shop",
    "subcategory": "hardware",
    "latitude": 24.8588294,
    "longitude": 67.2687677,
    "id": 4783147831
  },
  {
    "name": "Kashif Afridi (Auto's)",
    "category": "shop",
    "subcategory": "car",
    "latitude": 24.8591234,
    "longitude": 67.2700724,
    "id": 4783147832
  },
  {
    "name": "Ghosia Bakers Shaj Latif",
    "category": "shop",
    "subcategory": "bakery",
    "latitude": 24.861986,
    "longitude": 67.2668195,
    "id": 4783147833
  },
  {
    "name": "Masha Allah Quetta Cafe",
    "category": "amenity",
    "subcategory": "cafe",
    "latitude": 24.8617319,
    "longitude": 67.2649574,
    "id": 4783147834
  },
  {
    "name": "Abo Zar Ghafari Masjid",
    "category": "amenity",
    "subcategory": "place_of_worship",
    "latitude": 24.8650983,
    "longitude": 67.2652514,
    "id": 4783147835
  },
  {
    "name": "Umer Farooq Masjid",
    "category": "amenity",
    "subcategory": "place_of_worship",
    "latitude": 24.8654455,
    "longitude": 67.2636179,
    "id": 4783147836
  },
  {
    "name": "Darul Uloom Subhaniya Rahimiya",
    "category": "amenity",
    "subcategory": "place_of_worship",
    "latitude": 24.8608898,
    "longitude": 67.2616778,
    "id": 4783147837
  },
  {
    "name": "Chaukandi Tombs",
    "category": "tourism",
    "subcategory": "attraction",
    "latitude": 24.8635508,
    "longitude": 67.2713543,
    "id": 4962154821
  },
  {
    "name": "Caltex Petrol Pump",
    "category": "amenity",
    "subcategory": "fuel",
    "latitude": 24.8364885,
    "longitude": 67.2321761,
    "id": 5103248630
  },
  {
    "name": "Bait ul Noor",
    "category": "amenity",
    "subcategory": "place_of_worship",
    "latitude": 24.8357071,
    "longitude": 67.2309385,
    "id": 5103248631
  },
  {
    "name": "Jama Masjid Abu Hanifa",
    "category": "amenity",
    "subcategory": "place_of_worship",
    "latitude": 24.8360868,
    "longitude": 67.2266024,
    "id": 5103248640
  },
  {
    "name": "SUN Filling Station",
    "category": "amenity",
    "subcategory": "fuel",
    "latitude": 24.8370833,
    "longitude": 67.234412,
    "id": 5103518883
  },
  {
    "name": "Gondal Marriage Hall",
    "category": "amenity",
    "subcategory": "community_centre",
    "latitude": 24.8365313,
    "longitude": 67.2344139,
    "id": 5103518884
  },
  {
    "name": "Bait ul Mukarram",
    "category": "amenity",
    "subcategory": "place_of_worship",
    "latitude": 24.835552,
    "longitude": 67.2359535,
    "id": 5103518889
  },
  {
    "name": "Bilqees Sultan Medical Centre",
    "category": "amenity",
    "subcategory": "clinic",
    "latitude": 24.8359722,
    "longitude": 67.2371035,
    "id": 5103518890
  },
  {
    "name": "Muhammadi",
    "category": "amenity",
    "subcategory": "place_of_worship",
    "latitude": 24.835467,
    "longitude": 67.2390809,
    "id": 5103518891
  },
  {
    "name": "Imdad Ali Shar",
    "category": "amenity",
    "subcategory": "restaurant",
    "latitude": 24.8359954,
    "longitude": 67.2428775,
    "id": 5103518893
  },
  {
    "name": "Al Jamia School",
    "category": "amenity",
    "subcategory": "school",
    "latitude": 24.8363783,
    "longitude": 67.2446626,
    "id": 5103599354
  },
  {
    "name": "Mubashir book Centre & General Store",
    "category": "shop",
    "subcategory": "books",
    "latitude": 24.8362787,
    "longitude": 67.2452005,
    "id": 5103599355
  },
  {
    "name": "Super Piyala Restaurant & Bar B RQ",
    "category": "amenity",
    "subcategory": "restaurant",
    "latitude": 24.8369813,
    "longitude": 67.2462358,
    "id": 5103599356
  },
  {
    "name": "Dogar Dairy",
    "category": "shop",
    "subcategory": "dairy",
    "latitude": 24.8359202,
    "longitude": 67.2511398,
    "id": 5103599357
  },
  {
    "name": "Haji Ghulam Mustafa Dairy Farm",
    "category": "shop",
    "subcategory": "dairy",
    "latitude": 24.8358154,
    "longitude": 67.2533491,
    "id": 5103599358
  },
  {
    "name": "Al Falah Restaurent",
    "category": "amenity",
    "subcategory": "restaurant",
    "latitude": 24.8364322,
    "longitude": 67.2565827,
    "id": 5103599359
  },
  {
    "name": "Al Sadat Mobile Market",
    "category": "shop",
    "subcategory": "mobile_phone",
    "latitude": 24.8362298,
    "longitude": 67.257287,
    "id": 5103599360
  },
  {
    "name": "فیصل بینک",
    "category": "amenity",
    "subcategory": "bank",
    "latitude": 24.8362496,
    "longitude": 67.259851,
    "id": 5103599361
  },
  {
    "name": "Rashid General Store",
    "category": "shop",
    "subcategory": "supermarket",
    "latitude": 24.8350952,
    "longitude": 67.2607607,
    "id": 5103599363
  },
  {
    "name": "Nizam Book Center",
    "category": "shop",
    "subcategory": "books",
    "latitude": 24.8347816,
    "longitude": 67.2614612,
    "id": 5103599364
  },
  {
    "name": "Bank Al Habib - ATM",
    "category": "amenity",
    "subcategory": "atm",
    "latitude": 24.8362854,
    "longitude": 67.2639218,
    "id": 5103599365
  },
  {
    "name": "Workers Model School",
    "category": "amenity",
    "subcategory": "school",
    "latitude": 24.8320507,
    "longitude": 67.2413138,
    "id": 5105326846
  },
  {
    "name": "Gol Masjid",
    "category": "amenity",
    "subcategory": "place_of_worship",
    "latitude": 24.8354927,
    "longitude": 67.2608826,
    "id": 5105344541
  },
  {
    "name": "Nagori Hospital",
    "category": "amenity",
    "subcategory": "hospital",
    "latitude": 24.8345952,
    "longitude": 67.2613438,
    "id": 5105344543
  },
  {
    "name": "Government Veterinary Hospital",
    "category": "amenity",
    "subcategory": "veterinary",
    "latitude": 24.836428,
    "longitude": 67.2582605,
    "id": 5105344544
  },
  {
    "name": "Suzuki Motors - National Highway",
    "category": "shop",
    "subcategory": "car",
    "latitude": 24.8544884,
    "longitude": 67.2431689,
    "id": 5105487326
  },
  {
    "name": "Government Boys College - Quaidabad",
    "category": "amenity",
    "subcategory": "college",
    "latitude": 24.8575654,
    "longitude": 67.2478167,
    "id": 5105487403
  },
  {
    "name": "Gul Ahmed Outlet",
    "category": "shop",
    "subcategory": "clothes",
    "latitude": 24.8546195,
    "longitude": 67.2281043,
    "id": 5105487406
  },
  {
    "name": "Faysal Bank - ATM",
    "category": "amenity",
    "subcategory": "bank",
    "latitude": 24.836256,
    "longitude": 67.2599355,
    "id": 5107276269
  },
  {
    "name": "SESSI Hospital - Mehran Highway",
    "category": "amenity",
    "subcategory": "hospital",
    "latitude": 24.8338742,
    "longitude": 67.2257119,
    "id": 5127785877
  },
  {
    "name": "Sabzi market",
    "category": "amenity",
    "subcategory": "marketplace",
    "latitude": 24.8345482,
    "longitude": 67.2291899,
    "id": 5128213130
  },
  {
    "name": "Majeed Colony High School",
    "category": "amenity",
    "subcategory": "school",
    "latitude": 24.8348378,
    "longitude": 67.2289726,
    "id": 5128213131
  },
  {
    "name": "الائیڈ بینک لمیٹڈ",
    "category": "amenity",
    "subcategory": "bank",
    "latitude": 24.8396673,
    "longitude": 67.2578527,
    "id": 5142556605
  },
  {
    "name": "Muzamil Autos & Parts",
    "category": "shop",
    "subcategory": "yes",
    "latitude": 24.8360622,
    "longitude": 67.2349582,
    "id": 5143340844
  },
  {
    "name": "Govt Boys Secondary School",
    "category": "amenity",
    "subcategory": "school",
    "latitude": 24.8355674,
    "longitude": 67.2380719,
    "id": 5143340846
  },
  {
    "name": "Esahulat",
    "category": "amenity",
    "subcategory": "bank",
    "latitude": 24.836385,
    "longitude": 67.2394169,
    "id": 5143340847
  },
  {
    "name": "Classic Snooker Club Labour Sqr",
    "category": "shop",
    "subcategory": "yes",
    "latitude": 24.8356563,
    "longitude": 67.2438172,
    "id": 5143340848
  },
  {
    "name": "Al.Kashif Bakers",
    "category": "amenity",
    "subcategory": "restaurant",
    "latitude": 24.8354615,
    "longitude": 67.2439514,
    "id": 5143340849
  },
  {
    "name": "Asad Chips Court",
    "category": "amenity",
    "subcategory": "restaurant",
    "latitude": 24.8360076,
    "longitude": 67.2445301,
    "id": 5143340850
  },
  {
    "name": "S.M.G Library",
    "category": "amenity",
    "subcategory": "library",
    "latitude": 24.8706498,
    "longitude": 67.2423644,
    "id": 5153640506
  },
  {
    "name": "Ahsan Brothers Foot Ball Stadium",
    "category": "leisure",
    "subcategory": "playground",
    "latitude": 24.8261942,
    "longitude": 67.2246648,
    "id": 5156598929
  },
  {
    "name": "Jamiya Masjid Anwaar E Bahu",
    "category": "amenity",
    "subcategory": "place_of_worship",
    "latitude": 24.8302889,
    "longitude": 67.2445629,
    "id": 5156598935
  },
  {
    "name": "Al Tibri General Hospital",
    "category": "amenity",
    "subcategory": "hospital",
    "latitude": 24.8850609,
    "longitude": 67.2251216,
    "id": 5156794596
  },
  {
    "name": "Al Tibri Medical College",
    "category": "amenity",
    "subcategory": "college",
    "latitude": 24.8855478,
    "longitude": 67.2246407,
    "id": 5156794597
  },
  {
    "name": "Jamia Masjid Noorani",
    "category": "amenity",
    "subcategory": "place_of_worship",
    "latitude": 24.8552362,
    "longitude": 67.2387695,
    "id": 5217715776
  },
  {
    "name": "Tcs Exprees Center Bhans Colony",
    "category": "amenity",
    "subcategory": "post_office",
    "latitude": 24.8540362,
    "longitude": 67.2414935,
    "id": 5217715779
  },
  {
    "name": "Gharib Nawaz Restaurant",
    "category": "amenity",
    "subcategory": "restaurant",
    "latitude": 24.859621,
    "longitude": 67.2726368,
    "id": 5217715785
  },
  {
    "name": "Jama Masjd Ali Ul Murtza Dawat Islami",
    "category": "amenity",
    "subcategory": "place_of_worship",
    "latitude": 24.8645944,
    "longitude": 67.287956,
    "id": 5217715788
  },
  {
    "name": "New Frontier Sarhad Dera Ismail Khan Restaurant",
    "category": "amenity",
    "subcategory": "restaurant",
    "latitude": 24.8647568,
    "longitude": 67.2934523,
    "id": 5217715789
  },
  {
    "name": "Super Lucky Hotel",
    "category": "amenity",
    "subcategory": "restaurant",
    "latitude": 24.8654929,
    "longitude": 67.2967815,
    "id": 5217715790
  },
  {
    "name": "میزان بینک",
    "category": "amenity",
    "subcategory": "bank",
    "latitude": 24.8545288,
    "longitude": 67.2242757,
    "id": 5228152332
  },
  {
    "name": "بینک الفلاح",
    "category": "amenity",
    "subcategory": "bank",
    "latitude": 24.8545423,
    "longitude": 67.2250648,
    "id": 5228152333
  },
  {
    "name": "Gul Ahmed Fair Price Shop",
    "category": "shop",
    "subcategory": "clothes",
    "latitude": 24.8543712,
    "longitude": 67.2273367,
    "id": 5228152334
  },
  {
    "name": "Nimrah Hospital",
    "category": "amenity",
    "subcategory": "hospital",
    "latitude": 24.8327269,
    "longitude": 67.227592,
    "id": 5228298784
  },
  {
    "name": "AL Syed Hospital & Meternity Home",
    "category": "amenity",
    "subcategory": "hospital",
    "latitude": 24.8327529,
    "longitude": 67.2272899,
    "id": 5228298785
  },
  {
    "name": "Makki Jamia Masjid",
    "category": "amenity",
    "subcategory": "place_of_worship",
    "latitude": 24.8298259,
    "longitude": 67.2253368,
    "id": 5230089965
  },
  {
    "name": "Jamia Masjid AQSA",
    "category": "amenity",
    "subcategory": "place_of_worship",
    "latitude": 24.8313942,
    "longitude": 67.2273754,
    "id": 5230089971
  },
  {
    "name": "Khizra Jamia Masjid",
    "category": "amenity",
    "subcategory": "place_of_worship",
    "latitude": 24.831762,
    "longitude": 67.2255227,
    "id": 5230089972
  },
  {
    "name": "Madina",
    "category": "amenity",
    "subcategory": "place_of_worship",
    "latitude": 24.8337826,
    "longitude": 67.2276643,
    "id": 5230089974
  },
  {
    "name": "Jamma Masjid Aaman",
    "category": "amenity",
    "subcategory": "place_of_worship",
    "latitude": 24.8529162,
    "longitude": 67.2590935,
    "id": 5295668362
  },
  {
    "name": "Jadoon Dairy Farm",
    "category": "shop",
    "subcategory": "dairy",
    "latitude": 24.8519344,
    "longitude": 67.2565428,
    "id": 5295668363
  },
  {
    "name": "مسجد بلال",
    "category": "amenity",
    "subcategory": "place_of_worship",
    "latitude": 24.8519977,
    "longitude": 67.2583774,
    "id": 5295668364
  },
  {
    "name": "College of Sharia by Minhaj ul Quran",
    "category": "amenity",
    "subcategory": "school",
    "latitude": 24.8549491,
    "longitude": 67.2612391,
    "id": 5295668365
  },
  {
    "name": "New Haq Dost Restaurant & B B Q",
    "category": "amenity",
    "subcategory": "restaurant",
    "latitude": 24.8557231,
    "longitude": 67.2589967,
    "id": 5295668366
  },
  {
    "name": "Durrani Market",
    "category": "amenity",
    "subcategory": "marketplace",
    "latitude": 24.8557036,
    "longitude": 67.2713456,
    "id": 5295668368
  },
  {
    "name": "Indus Motor Company Ltd",
    "category": "shop",
    "subcategory": "car",
    "latitude": 24.8365548,
    "longitude": 67.3039178,
    "id": 5306266448
  },
  {
    "name": "Minaar Masjid",
    "category": "amenity",
    "subcategory": "place_of_worship",
    "latitude": 24.8677654,
    "longitude": 67.284588,
    "id": 5465570125
  },
  {
    "name": "Nadeem International",
    "category": "leisure",
    "subcategory": "park",
    "latitude": 24.854351,
    "longitude": 67.2432084,
    "id": 6555881349
  },
  {
    "name": "Chaukhandi tombs",
    "category": "tourism",
    "subcategory": "attraction",
    "latitude": 24.8675631,
    "longitude": 67.270956,
    "id": 7149807586
  },
  {
    "name": "Chaukhandi Tombs",
    "category": "tourism",
    "subcategory": "attraction",
    "latitude": 24.8668237,
    "longitude": 67.2722442,
    "id": 7543798085
  },
  {
    "name": "Mashal Milk Shop",
    "category": "shop",
    "subcategory": "bakery",
    "latitude": 24.8330344,
    "longitude": 67.2330673,
    "id": 8396580917
  },
  {
    "name": "HAMSONS INDUSTRIES",
    "category": "amenity",
    "subcategory": "place_of_worship",
    "latitude": 24.8765967,
    "longitude": 67.2712958,
    "id": 12383983649
  },
  {
    "name": "Masjid E Khalid",
    "category": "amenity",
    "subcategory": "place_of_worship",
    "latitude": 24.8609797,
    "longitude": 67.2800633,
    "id": 13118786937
  },
  {
    "name": "Hammad Foods",
    "category": "amenity",
    "subcategory": "restaurant",
    "latitude": 24.8531709,
    "longitude": 67.2285072,
    "id": 13568982274
  }
]