[
  {
    "name": "Jamia Masjid Chak No 16 ML",
    "category": "amenity",
    "subcategory": "place_of_worship",
    "latitude": 32.2100745,
    "longitude": 71.4121902,
    "id": 4306315898
  },
  {
    "name": "Masjid Al Qayyum",
    "category": "amenity",
    "subcategory": "place_of_worship",
    "latitude": 32.1781456,
    "longitude": 71.4376363,
    "id": 4306481653
  },
  {
    "name": "Masjid AlZaman",
    "category": "amenity",
    "subcategory": "place_of_worship",
    "latitude": 32.2147936,
    "longitude": 71.4689598,
    "id": 4316312198
  },
  {
    "name": "Lamee Masjid",
    "category": "amenity",
    "subcategory": "place_of_worship",
    "latitude": 32.1785509,
    "longitude": 71.4437783,
    "id": 4316336464
  },
  {
    "name": "Yahya Petroleum",
    "category": "amenity",
    "subcategory": "fuel",
    "latitude": 32.1777286,
    "longitude": 71.4375749,
    "id": 4316336469
  }
]