[
  {
    "name": "PTDC Hotel",
    "category": "tourism",
    "subcategory": "hotel",
    "latitude": 35.2320329,
    "longitude": 71.8618364,
    "id": 302217631
  },
  {
    "name": "PTDC Motel",
    "category": "tourism",
    "subcategory": "hotel",
    "latitude": 35.1982285,
    "longitude": 71.8743257,
    "id": 3522747464
  },
  {
    "name": "Dir Bazaar",
    "category": "tourism",
    "subcategory": "viewpoint",
    "latitude": 35.1946026,
    "longitude": 71.870882,
    "id": 6534025094
  },
  {
    "name": "Sahara Hospital",
    "category": "amenity",
    "subcategory": "hospital",
    "latitude": 35.2027027,
    "longitude": 71.8774673,
    "id": 6534025095
  },
  {
    "name": "Total Filling Pump",
    "category": "amenity",
    "subcategory": "fuel",
    "latitude": 35.200586,
    "longitude": 71.873938,
    "id": 6534025196
  },
  {
    "name": "District Headquarter Hospital",
    "category": "amenity",
    "subcategory": "hospital",
    "latitude": 35.2024782,
    "longitude": 71.8787637,
    "id": 7231518379
  },
  {
    "name": "دارالعلوم",
    "category": "amenity",
    "subcategory": "place_of_worship",
    "latitude": 35.2028438,
    "longitude": 71.8776834,
    "id": 7231518380
  },
  {
    "name": "Sabzi Mandi Old",
    "category": "amenity",
    "subcategory": "marketplace",
    "latitude": 35.2073317,
    "longitude": 71.8759664,
    "id": 8922674119
  }
]