[
  {
    "name": "Mardan Medical Centre Hospital",
    "category": "amenity",
    "subcategory": "hospital",
    "latitude": 34.1541066,
    "longitude": 72.0298371,
    "id": 4432772717
  },
  {
    "name": "FAW Motors",
    "category": "shop",
    "subcategory": "car",
    "latitude": 34.1289119,
    "longitude": 72.0236572,
    "id": 4615660990
  },
  {
    "name": "Mardan Sports Complex",
    "category": "leisure",
    "subcategory": "sports_centre",
    "latitude": 34.1428015,
    "longitude": 72.0248584,
    "id": 4732782925
  },
  {
    "name": "Milan Shadi Hall",
    "category": "amenity",
    "subcategory": "community_centre",
    "latitude": 34.1413702,
    "longitude": 72.0262953,
    "id": 5139599921
  },
  {
    "name": "Mardan Restaurant",
    "category": "amenity",
    "subcategory": "restaurant",
    "latitude": 34.1550062,
    "longitude": 72.0281999,
    "id": 5556899422
  },
  {
    "name": "Riwaj Shadi Hall",
    "category": "amenity",
    "subcategory": "restaurant",
    "latitude": 34.1261743,
    "longitude": 72.0219324,
    "id": 6187997385
  },
  {
    "name": "باغ",
    "category": "tourism",
    "subcategory": "artwork",
    "latitude": 34.1499559,
    "longitude": 72.0385392,
    "id": 6266366286
  },
  {
    "name": "D Plus Beauty Palour",
    "category": "shop",
    "subcategory": "cosmetics",
    "latitude": 34.1490761,
    "longitude": 72.0412666,
    "id": 6356444486
  },
  {
    "name": "Mohammad Saleem Khan Advocate’s House",
    "category": "shop",
    "subcategory": "bookmaker",
    "latitude": 34.1437444,
    "longitude": 72.0313663,
    "id": 7105264688
  },
  {
    "name": "Abdul Wali University, Garden Campus,Mardan",
    "category": "amenity",
    "subcategory": "college",
    "latitude": 34.151273,
    "longitude": 72.054655,
    "id": 7182345586
  },
  {
    "name": "Greens Acar Town",
    "category": "tourism",
    "subcategory": "attraction",
    "latitude": 34.1375133,
    "longitude": 72.0540371,
    "id": 7271375592
  },
  {
    "name": "Kainat Wedding Hall",
    "category": "tourism",
    "subcategory": "viewpoint",
    "latitude": 34.1520494,
    "longitude": 72.0342861,
    "id": 7271394986
  },
  {
    "name": "Taimoor Rauf Khan Mayar’s House",
    "category": "tourism",
    "subcategory": "viewpoint",
    "latitude": 34.156869,
    "longitude": 72.0377848,
    "id": 7389127685
  },
  {
    "name": "Babar Motors",
    "category": "shop",
    "subcategory": "car",
    "latitude": 34.1364429,
    "longitude": 72.0266768,
    "id": 8280575218
  },
  {
    "name": "Shereen Kotai",
    "category": "shop",
    "subcategory": "clothes",
    "latitude": 34.1033045,
    "longitude": 72.0135933,
    "id": 8280575817
  },
  {
    "name": "KFC",
    "category": "amenity",
    "subcategory": "fast_food",
    "latitude": 34.1398837,
    "longitude": 72.0273656,
    "id": 8380396219
  },
  {
    "name": "Mardan Medical Centre Dentistry Department",
    "category": "amenity",
    "subcategory": "hospital",
    "latitude": 34.1515668,
    "longitude": 72.033631,
    "id": 8383489317
  },
  {
    "name": "Pir Babar’s House",
    "category": "tourism",
    "subcategory": "attraction",
    "latitude": 34.1522354,
    "longitude": 72.0455655,
    "id": 8624886617
  },
  {
    "name": "Daewoo express terminal",
    "category": "amenity",
    "subcategory": "bus_station",
    "latitude": 34.1130776,
    "longitude": 72.0195739,
    "id": 8650927917
  },
  {
    "name": "Salman Khan Mayar’s House",
    "category": "tourism",
    "subcategory": "viewpoint",
    "latitude": 34.1454432,
    "longitude": 72.0406093,
    "id": 9986656217
  },
  {
    "name": "Faiz ilahi home",
    "category": "tourism",
    "subcategory": "apartment",
    "latitude": 34.1519241,
    "longitude": 72.0387115,
    "id": 10286030313
  },
  {
    "name": "Rashakai SB",
    "category": "amenity",
    "subcategory": "weighbridge",
    "latitude": 34.1123002,
    "longitude": 72.0198872,
    "id": 10768174702
  },
  {
    "name": "Rashakai NB",
    "category": "amenity",
    "subcategory": "weighbridge",
    "latitude": 34.1052718,
    "longitude": 72.0171239,
    "id": 10768192043
  }
]