[
  {
    "name": "جلوّ",
    "category": "place",
    "subcategory": "village",
    "latitude": 31.5762283,
    "longitude": 74.4927527,
    "id": 272577946
  },
  {
    "name": "Jallo Park",
    "category": "tourism",
    "subcategory": "zoo",
    "latitude": 31.5717696,
    "longitude": 74.4745342,
    "id": 2406886867
  },
  {
    "name": "تقی پور",
    "category": "place",
    "subcategory": "village",
    "latitude": 31.5770444,
    "longitude": 74.5270914,
    "id": 3256433369
  },
  {
    "name": "بھٹّے سلطانپورہ",
    "category": "place",
    "subcategory": "village",
    "latitude": 31.5811026,
    "longitude": 74.5212979,
    "id": 3256433370
  },
  {
    "name": "واڑہ اعواناں",
    "category": "place",
    "subcategory": "village",
    "latitude": 31.5711616,
    "longitude": 74.512114,
    "id": 3256433371
  },
  {
    "name": "واڑہ ستار",
    "category": "place",
    "subcategory": "village",
    "latitude": 31.5670371,
    "longitude": 74.5081701,
    "id": 3256433372
  },
  {
    "name": "چھاپہ",
    "category": "place",
    "subcategory": "village",
    "latitude": 31.56262,
    "longitude": 74.5287437,
    "id": 3256433373
  },
  {
    "name": "Basical Health Unit, Dograi Kalan, Lahore",
    "category": "amenity",
    "subcategory": "hospital",
    "latitude": 31.5926873,
    "longitude": 74.4997202,
    "id": 3940035722
  },
  {
    "name": "Basic Health Unit (BHU), Chappa, Lahore",
    "category": "amenity",
    "subcategory": "hospital",
    "latitude": 31.5660149,
    "longitude": 74.5208351,
    "id": 3940059891
  },
  {
    "name": "Awan street ",
    "category": "highway",
    "subcategory": "bus_stop",
    "latitude": 31.5957012,
    "longitude": 74.487597,
    "id": 4101980393
  },
  {
    "name": "Alfalah Bank, Batapur",
    "category": "amenity",
    "subcategory": "bank",
    "latitude": 31.5961659,
    "longitude": 74.4911585,
    "id": 4102342398
  },
  {
    "name": "Rizwan Gardan ",
    "category": "highway",
    "subcategory": "bus_stop",
    "latitude": 31.5812652,
    "longitude": 74.4730707,
    "id": 4102342399
  },
  {
    "name": "Mecca Tower",
    "category": "shop",
    "subcategory": "department_store",
    "latitude": 31.596634,
    "longitude": 74.4996973,
    "id": 4102342400
  },
  {
    "name": "Hussain Pura",
    "category": "highway",
    "subcategory": "bus_stop",
    "latitude": 31.5957698,
    "longitude": 74.4839119,
    "id": 4102343998
  },
  {
    "name": "Habib Bank Limited, Batapur",
    "category": "amenity",
    "subcategory": "bank",
    "latitude": 31.5959226,
    "longitude": 74.4930625,
    "id": 4102345195
  },
  {
    "name": "United Bank Limited, Batapur",
    "category": "amenity",
    "subcategory": "bank",
    "latitude": 31.5963447,
    "longitude": 74.4928207,
    "id": 4102348594
  },
  {
    "name": "Silk Bank, Batapur",
    "category": "amenity",
    "subcategory": "bank",
    "latitude": 31.5962355,
    "longitude": 74.4918261,
    "id": 4102348595
  },
  {
    "name": "ایم سی بی بینک",
    "category": "amenity",
    "subcategory": "bank",
    "latitude": 31.5953205,
    "longitude": 74.4870601,
    "id": 4102357089
  },
  {
    "name": "Pakistan Bookshops ",
    "category": "shop",
    "subcategory": "books",
    "latitude": 31.5956914,
    "longitude": 74.4994099,
    "id": 4109147489
  },
  {
    "name": "Dograye kalla",
    "category": "highway",
    "subcategory": "bus_stop",
    "latitude": 31.5970829,
    "longitude": 74.500092,
    "id": 4142118789
  },
  {
    "name": "Ch.Siraj Sabzi Mandi",
    "category": "shop",
    "subcategory": "supermarket",
    "latitude": 31.5969185,
    "longitude": 74.4986776,
    "id": 4532397089
  },
  {
    "name": "qingqi to Wagah",
    "category": "amenity",
    "subcategory": "bus_station",
    "latitude": 31.596988,
    "longitude": 74.4994839,
    "id": 4938702022
  },
  {
    "name": "Jallo Park",
    "category": "tourism",
    "subcategory": "attraction",
    "latitude": 31.5746415,
    "longitude": 74.4754935,
    "id": 5167082026
  },
  {
    "name": "Ghurki Hospital",
    "category": "amenity",
    "subcategory": "hospital",
    "latitude": 31.5900053,
    "longitude": 74.5020634,
    "id": 5255424739
  },
  {
    "name": "Bismillah Housing Society",
    "category": "highway",
    "subcategory": "bus_stop",
    "latitude": 31.5952465,
    "longitude": 74.4808184,
    "id": 5308325425
  },
  {
    "name": "Laraka Panja",
    "category": "tourism",
    "subcategory": "guest_house",
    "latitude": 31.5706903,
    "longitude": 74.4528043,
    "id": 5514545422
  },
  {
    "name": "Lahore Grand Marquee",
    "category": "historic",
    "subcategory": "castle",
    "latitude": 31.579093,
    "longitude": 74.4614498,
    "id": 5808996758
  },
  {
    "name": "ٹوٹل",
    "category": "amenity",
    "subcategory": "fuel",
    "latitude": 31.59294,
    "longitude": 74.4655156,
    "id": 6197259934
  },
  {
    "name": "اعوان",
    "category": "place",
    "subcategory": "village",
    "latitude": 31.6095538,
    "longitude": 74.5290181,
    "id": 7113975761
  },
  {
    "name": "Dera Mangli",
    "category": "place",
    "subcategory": "village",
    "latitude": 31.6355572,
    "longitude": 74.5265318,
    "id": 7113975763
  },
  {
    "name": "واہگریاں",
    "category": "place",
    "subcategory": "village",
    "latitude": 31.630061,
    "longitude": 74.5008854,
    "id": 7113975770
  },
  {
    "name": "لکھن",
    "category": "place",
    "subcategory": "village",
    "latitude": 31.6075412,
    "longitude": 74.5125668,
    "id": 7113975772
  },
  {
    "name": "Lakkan Shrine",
    "category": "amenity",
    "subcategory": "place_of_worship",
    "latitude": 31.6077189,
    "longitude": 74.5135253,
    "id": 7113975773
  },
  {
    "name": "تھیری",
    "category": "place",
    "subcategory": "village",
    "latitude": 31.6189594,
    "longitude": 74.4786083,
    "id": 7113975774
  },
  {
    "name": "نت کلاں",
    "category": "place",
    "subcategory": "village",
    "latitude": 31.6171559,
    "longitude": 74.4624258,
    "id": 7113975775
  },
  {
    "name": "گلشنِ یاسین",
    "category": "place",
    "subcategory": "village",
    "latitude": 31.6086955,
    "longitude": 74.4605524,
    "id": 7113975776
  },
  {
    "name": "تاج گڑھ",
    "category": "place",
    "subcategory": "village",
    "latitude": 31.6035424,
    "longitude": 74.4535114,
    "id": 7113975777
  },
  {
    "name": "واڑہ مولا واسیاں",
    "category": "place",
    "subcategory": "village",
    "latitude": 31.5734376,
    "longitude": 74.5039734,
    "id": 8658668100
  },
  {
    "name": "بھامان",
    "category": "place",
    "subcategory": "village",
    "latitude": 31.58853,
    "longitude": 74.5256801,
    "id": 8674060792
  },
  {
    "name": "باٹا پور",
    "category": "place",
    "subcategory": "town",
    "latitude": 31.5964964,
    "longitude": 74.4913891,
    "id": 8851294415
  },
  {
    "name": "رضوان گارڈنز",
    "category": "place",
    "subcategory": "neighbourhood",
    "latitude": 31.5840574,
    "longitude": 74.4735679,
    "id": 8851294416
  },
  {
    "name": "تلسپورہ",
    "category": "place",
    "subcategory": "village",
    "latitude": 31.5799933,
    "longitude": 74.4591482,
    "id": 8851381917
  },
  {
    "name": "Baba Qazi Shah Darbar",
    "category": "historic",
    "subcategory": "monument",
    "latitude": 31.5819462,
    "longitude": 74.4601924,
    "id": 8851381918
  },
  {
    "name": "Jamia Masjid Tulspura",
    "category": "amenity",
    "subcategory": "place_of_worship",
    "latitude": 31.5821108,
    "longitude": 74.4599314,
    "id": 8851381919
  },
  {
    "name": "New Apostolic",
    "category": "amenity",
    "subcategory": "place_of_worship",
    "latitude": 31.5813698,
    "longitude": 74.4590608,
    "id": 8851381920
  },
  {
    "name": "Shrine of Hazrat Sakhi Sultan Baba Jani Sarkar Allah Walay",
    "category": "amenity",
    "subcategory": "place_of_worship",
    "latitude": 31.5799048,
    "longitude": 74.461384,
    "id": 8851381921
  },
  {
    "name": "بھگوان پورہ",
    "category": "place",
    "subcategory": "village",
    "latitude": 31.5655949,
    "longitude": 74.4668701,
    "id": 9314681414
  },
  {
    "name": "جلو منہالہ موڑ",
    "category": "place",
    "subcategory": "village",
    "latitude": 31.5961958,
    "longitude": 74.4997603,
    "id": 9395506169
  },
  {
    "name": "ڈوگراں ای کلاں",
    "category": "place",
    "subcategory": "village",
    "latitude": 31.5883739,
    "longitude": 74.5014603,
    "id": 9395506170
  },
  {
    "name": "گوپال پورہ",
    "category": "place",
    "subcategory": "village",
    "latitude": 31.5966481,
    "longitude": 74.4594299,
    "id": 9395519145
  },
  {
    "name": "مناواں",
    "category": "place",
    "subcategory": "village",
    "latitude": 31.5961151,
    "longitude": 74.4872205,
    "id": 9395583564
  },
  {
    "name": "Al-Khair Estate & Developers",
    "category": "shop",
    "subcategory": "estate_agent",
    "latitude": 31.6037532,
    "longitude": 74.4938351,
    "id": 9699139111
  },
  {
    "name": "Bata",
    "category": "shop",
    "subcategory": "shoes",
    "latitude": 31.595893,
    "longitude": 74.4927309,
    "id": 10211414076
  },
  {
    "name": "Bata Shoe Mela",
    "category": "shop",
    "subcategory": "shoes",
    "latitude": 31.595949,
    "longitude": 74.4933414,
    "id": 10211414077
  },
  {
    "name": "جھگیاں محمد بخش",
    "category": "place",
    "subcategory": "village",
    "latitude": 31.5851541,
    "longitude": 74.5075188,
    "id": 11621601882
  },
  {
    "name": "Dogran Kalan",
    "category": "place",
    "subcategory": "village",
    "latitude": 31.5996242,
    "longitude": 74.49927,
    "id": 11621601885
  },
  {
    "name": "Attoke Awan",
    "category": "place",
    "subcategory": "village",
    "latitude": 31.5999994,
    "longitude": 74.4917422,
    "id": 11621601886
  },
  {
    "name": "Kot Kamboh",
    "category": "place",
    "subcategory": "village",
    "latitude": 31.5917744,
    "longitude": 74.4763649,
    "id": 11621601887
  },
  {
    "name": "Husnain Traders",
    "category": "shop",
    "subcategory": "trade",
    "latitude": 31.5830132,
    "longitude": 74.458406,
    "id": 12045976097
  },
  {
    "name": "Butt Sweets",
    "category": "shop",
    "subcategory": "bakery",
    "latitude": 31.5803133,
    "longitude": 74.466094,
    "id": 12045991866
  },
  {
    "name": "مناواں ہسپتال",
    "category": "highway",
    "subcategory": "bus_stop",
    "latitude": 31.5924125,
    "longitude": 74.4589046,
    "id": 12579084508
  },
  {
    "name": "مناواں ہسپتال",
    "category": "highway",
    "subcategory": "bus_stop",
    "latitude": 31.5928049,
    "longitude": 74.4595502,
    "id": 12579084509
  },
  {
    "name": "باغ والی پلی",
    "category": "highway",
    "subcategory": "bus_stop",
    "latitude": 31.5938495,
    "longitude": 74.4696325,
    "id": 12579115018
  },
  {
    "name": "باغ والی پلی",
    "category": "highway",
    "subcategory": "bus_stop",
    "latitude": 31.5936594,
    "longitude": 74.4702125,
    "id": 12579115019
  },
  {
    "name": "Triple Point",
    "category": "historic",
    "subcategory": "memorial",
    "latitude": 31.5218372,
    "longitude": 74.5247546,
    "id": 13466210065
  },
  {
    "name": "Khaira",
    "category": "place",
    "subcategory": "village",
    "latitude": 31.5843881,
    "longitude": 74.4979035,
    "id": 13546891252
  },
  {
    "name": "Ali Garden Society",
    "category": "place",
    "subcategory": "hamlet",
    "latitude": 31.5685009,
    "longitude": 74.5048528,
    "id": 13563376177
  },
  {
    "name": "Pak Homes Society",
    "category": "place",
    "subcategory": "hamlet",
    "latitude": 31.5706948,
    "longitude": 74.5055409,
    "id": 13563376178
  },
  {
    "name": "Ohamza",
    "category": "shop",
    "subcategory": "supermarket",
    "latitude": 31.5788435,
    "longitude": 74.4647553,
    "id": 13631182508
  },
  {
    "name": "Jallo-Manhala Bridge",
    "category": "historic",
    "subcategory": "pillory",
    "latitude": 31.5711874,
    "longitude": 74.5016668,
    "id": 13787300074
  },
  {
    "name": "Sozo Thrill & Adventure Park",
    "category": "tourism",
    "subcategory": "attraction",
    "latitude": 31.5725387,
    "longitude": 74.4639555,
    "id": 13956880599
  },
  {
    "name": "fitness_station",
    "category": "leisure",
    "subcategory": "fitness_station",
    "latitude": 31.5712387,
    "longitude": 74.4790659,
    "id": 13956880819
  },
  {
    "name": "tree",
    "category": "natural",
    "subcategory": "tree",
    "latitude": 31.5723716,
    "longitude": 74.4684288,
    "id": 13957649636
  },
  {
    "name": "tree",
    "category": "natural",
    "subcategory": "tree",
    "latitude": 31.5722959,
    "longitude": 74.4684165,
    "id": 13957649637
  },
  {
    "name": "tree",
    "category": "natural",
    "subcategory": "tree",
    "latitude": 31.5722226,
    "longitude": 74.4684356,
    "id": 13957649638
  },
  {
    "name": "tree",
    "category": "natural",
    "subcategory": "tree",
    "latitude": 31.5719481,
    "longitude": 74.4685503,
    "id": 13957649639
  },
  {
    "name": "tree",
    "category": "natural",
    "subcategory": "tree",
    "latitude": 31.5720167,
    "longitude": 74.4685325,
    "id": 13957649640
  },
  {
    "name": "tree",
    "category": "natural",
    "subcategory": "tree",
    "latitude": 31.5724076,
    "longitude": 74.4686828,
    "id": 13957649641
  },
  {
    "name": "marina",
    "category": "leisure",
    "subcategory": "marina",
    "latitude": 31.5715378,
    "longitude": 74.4679345,
    "id": 13957661420
  },
  {
    "name": "گرینڈ ٹرنک روڈ",
    "category": "highway",
    "subcategory": "trunk",
    "latitude": 31.593562425,
    "longitude": 74.46865225,
    "id": 10274897
  },
  {
    "name": "گرینڈ ٹرنک روڈ",
    "category": "highway",
    "subcategory": "trunk",
    "latitude": 31.5964432,
    "longitude": 74.49657015,
    "id": 10274900
  },
  {
    "name": "GT-Canal-Manhala Rd Link",
    "category": "highway",
    "subcategory": "secondary",
    "latitude": 31.5865851,
    "longitude": 74.500749,
    "id": 25040656
  },
  {
    "name": "Yadgar Rd",
    "category": "highway",
    "subcategory": "tertiary",
    "latitude": 31.597630061111108,
    "longitude": 74.45751562777778,
    "id": 25054190
  },
  {
    "name": "Manhala Road",
    "category": "highway",
    "subcategory": "primary",
    "latitude": 31.556346229100527,
    "longitude": 74.52057064074074,
    "id": 26530274
  },
  {
    "name": "گرینڈ ٹرنک روڈ",
    "category": "highway",
    "subcategory": "trunk",
    "latitude": 31.60024464074074,
    "longitude": 74.532294,
    "id": 103159737
  },
  {
    "name": "service",
    "category": "highway",
    "subcategory": "service",
    "latitude": 31.589849833333332,
    "longitude": 74.50154830000001,
    "id": 152336101
  },
  {
    "name": "parking",
    "category": "amenity",
    "subcategory": "parking",
    "latitude": 31.5900905875,
    "longitude": 74.5015914875,
    "id": 152336104
  },
  {
    "name": "service",
    "category": "highway",
    "subcategory": "service",
    "latitude": 31.589533466666666,
    "longitude": 74.50204983333333,
    "id": 152336105
  },
  {
    "name": "parking",
    "category": "amenity",
    "subcategory": "parking",
    "latitude": 31.589672928571428,
    "longitude": 74.50232551428573,
    "id": 152336115
  },
  {
    "name": "تھیری روڈ",
    "category": "highway",
    "subcategory": "tertiary",
    "latitude": 31.604986900000004,
    "longitude": 74.45839877848101,
    "id": 178151283
  },
  {
    "name": "residential",
    "category": "highway",
    "subcategory": "residential",
    "latitude": 31.581296075,
    "longitude": 74.49106225,
    "id": 194200603
  },
  {
    "name": "residential",
    "category": "highway",
    "subcategory": "residential",
    "latitude": 31.57940615,
    "longitude": 74.4887047,
    "id": 194200605
  },
  {
    "name": "residential",
    "category": "highway",
    "subcategory": "residential",
    "latitude": 31.582861642857143,
    "longitude": 74.49233672857143,
    "id": 194200606
  },
  {
    "name": "residential",
    "category": "highway",
    "subcategory": "residential",
    "latitude": 31.58103475909091,
    "longitude": 74.49187733181817,
    "id": 194200608
  },
  {
    "name": "residential",
    "category": "highway",
    "subcategory": "residential",
    "latitude": 31.58306084,
    "longitude": 74.48776244000001,
    "id": 194200610
  },
  {
    "name": "residential",
    "category": "highway",
    "subcategory": "residential",
    "latitude": 31.5829359,
    "longitude": 74.49279759999999,
    "id": 194200611
  },
  {
    "name": "residential",
    "category": "highway",
    "subcategory": "residential",
    "latitude": 31.58215438,
    "longitude": 74.49187495999999,
    "id": 194200612
  },
  {
    "name": "residential",
    "category": "highway",
    "subcategory": "residential",
    "latitude": 31.577866099999998,
    "longitude": 74.48898398666667,
    "id": 194200613
  },
  {
    "name": "residential",
    "category": "highway",
    "subcategory": "residential",
    "latitude": 31.581107892307692,
    "longitude": 74.49442402307692,
    "id": 194200614
  },
  {
    "name": "residential",
    "category": "highway",
    "subcategory": "residential",
    "latitude": 31.5821882,
    "longitude": 74.48883871333334,
    "id": 194200615
  },
  {
    "name": "residential",
    "category": "highway",
    "subcategory": "residential",
    "latitude": 31.5787667,
    "longitude": 74.4884308,
    "id": 194200617
  },
  {
    "name": "residential",
    "category": "highway",
    "subcategory": "residential",
    "latitude": 31.5785661,
    "longitude": 74.4900714,
    "id": 194200618
  },
  {
    "name": "residential",
    "category": "highway",
    "subcategory": "residential",
    "latitude": 31.5794371,
    "longitude": 74.48820875,
    "id": 194200620
  },
  {
    "name": "residential",
    "category": "highway",
    "subcategory": "residential",
    "latitude": 31.57949285,
    "longitude": 74.4870345,
    "id": 194200621
  },
  {
    "name": "residential",
    "category": "highway",
    "subcategory": "residential",
    "latitude": 31.58032672,
    "longitude": 74.49188534,
    "id": 194200622
  },
  {
    "name": "residential",
    "category": "highway",
    "subcategory": "residential",
    "latitude": 31.579132714285716,
    "longitude": 74.48945632857144,
    "id": 194200623
  },
  {
    "name": "residential",
    "category": "highway",
    "subcategory": "residential",
    "latitude": 31.5782006,
    "longitude": 74.48915278333332,
    "id": 194200624
  },
  {
    "name": "service",
    "category": "highway",
    "subcategory": "service",
    "latitude": 31.58409446,
    "longitude": 74.48754882,
    "id": 194200625
  },
  {
    "name": "residential",
    "category": "highway",
    "subcategory": "residential",
    "latitude": 31.581674720000002,
    "longitude": 74.48460434,
    "id": 194200626
  },
  {
    "name": "residential",
    "category": "highway",
    "subcategory": "residential",
    "latitude": 31.5786507,
    "longitude": 74.488778075,
    "id": 194200627
  },
  {
    "name": "residential",
    "category": "highway",
    "subcategory": "residential",
    "latitude": 31.58195125,
    "longitude": 74.48941443333332,
    "id": 194200628
  },
  {
    "name": "residential",
    "category": "highway",
    "subcategory": "residential",
    "latitude": 31.578405775,
    "longitude": 74.4866716,
    "id": 194200629
  },
  {
    "name": "residential",
    "category": "highway",
    "subcategory": "residential",
    "latitude": 31.57972206,
    "longitude": 74.48844466,
    "id": 194200630
  },
  {
    "name": "residential",
    "category": "highway",
    "subcategory": "residential",
    "latitude": 31.582540549999997,
    "longitude": 74.49302435,
    "id": 194200632
  },
  {
    "name": "water",
    "category": "natural",
    "subcategory": "water",
    "latitude": 31.580712504545453,
    "longitude": 74.48703044545454,
    "id": 194200634
  },
  {
    "name": "residential",
    "category": "highway",
    "subcategory": "residential",
    "latitude": 31.579690499999998,
    "longitude": 74.48990835000001,
    "id": 194200635
  },
  {
    "name": "residential",
    "category": "highway",
    "subcategory": "residential",
    "latitude": 31.5793465,
    "longitude": 74.48662652499999,
    "id": 194200636
  },
  {
    "name": "residential",
    "category": "highway",
    "subcategory": "residential",
    "latitude": 31.57957652,
    "longitude": 74.48924071,
    "id": 194200637
  },
  {
    "name": "residential",
    "category": "highway",
    "subcategory": "residential",
    "latitude": 31.582226300000002,
    "longitude": 74.4892552,
    "id": 194200638
  },
  {
    "name": "residential",
    "category": "highway",
    "subcategory": "residential",
    "latitude": 31.586137174999998,
    "longitude": 74.48290415,
    "id": 203438311
  },
  {
    "name": "residential",
    "category": "highway",
    "subcategory": "residential",
    "latitude": 31.58584272857143,
    "longitude": 74.48076911428572,
    "id": 203438312
  },
  {
    "name": "residential",
    "category": "highway",
    "subcategory": "residential",
    "latitude": 31.58547755,
    "longitude": 74.4794878,
    "id": 203438313
  },
  {
    "name": "residential",
    "category": "highway",
    "subcategory": "residential",
    "latitude": 31.58559605,
    "longitude": 74.48140915,
    "id": 203438314
  },
  {
    "name": "residential",
    "category": "highway",
    "subcategory": "residential",
    "latitude": 31.586081266666667,
    "longitude": 74.48098656666666,
    "id": 203438315
  },
  {
    "name": "tertiary",
    "category": "highway",
    "subcategory": "tertiary",
    "latitude": 31.589197639393944,
    "longitude": 74.48192865151515,
    "id": 203438316
  },
  {
    "name": "residential",
    "category": "highway",
    "subcategory": "residential",
    "latitude": 31.58558975,
    "longitude": 74.480428,
    "id": 203438317
  },
  {
    "name": "residential",
    "category": "highway",
    "subcategory": "residential",
    "latitude": 31.585022271428574,
    "longitude": 74.48596524285713,
    "id": 203438319
  },
  {
    "name": "Jallo Rd-Manhala Rd Link",
    "category": "highway",
    "subcategory": "secondary",
    "latitude": 31.572126933333333,
    "longitude": 74.50036806666667,
    "id": 203538159
  },
  {
    "name": "footway",
    "category": "highway",
    "subcategory": "footway",
    "latitude": 31.57153763636364,
    "longitude": 74.48823574090909,
    "id": 203538160
  },
  {
    "name": "track",
    "category": "highway",
    "subcategory": "track",
    "latitude": 31.565316522222222,
    "longitude": 74.48957411111111,
    "id": 203538161
  },
  {
    "name": "service",
    "category": "highway",
    "subcategory": "service",
    "latitude": 31.573933779999997,
    "longitude": 74.47406244,
    "id": 203538162
  },
  {
    "name": "footway",
    "category": "highway",
    "subcategory": "footway",
    "latitude": 31.5717338125,
    "longitude": 74.489283425,
    "id": 203538164
  },
  {
    "name": "track",
    "category": "highway",
    "subcategory": "track",
    "latitude": 31.56643205,
    "longitude": 74.4869257,
    "id": 203538165
  },
  {
    "name": "Jallo Road",
    "category": "highway",
    "subcategory": "tertiary",
    "latitude": 31.567197231578945,
    "longitude": 74.4935647,
    "id": 203538167
  },
  {
    "name": "footway",
    "category": "highway",
    "subcategory": "footway",
    "latitude": 31.571592355555556,
    "longitude": 74.4904971888889,
    "id": 203538171
  },
  {
    "name": "Jallo - Manhala Bridge",
    "category": "highway",
    "subcategory": "secondary",
    "latitude": 31.571118466666665,
    "longitude": 74.50173606666667,
    "id": 203538174
  },
  {
    "name": "footway",
    "category": "highway",
    "subcategory": "footway",
    "latitude": 31.573232933333333,
    "longitude": 74.4881159888889,
    "id": 203538176
  },
  {
    "name": "residential",
    "category": "highway",
    "subcategory": "residential",
    "latitude": 31.57163739565217,
    "longitude": 74.49612646086958,
    "id": 203538177
  },
  {
    "name": "footway",
    "category": "highway",
    "subcategory": "footway",
    "latitude": 31.56996136,
    "longitude": 74.48977416,
    "id": 203538178
  },
  {
    "name": "footway",
    "category": "highway",
    "subcategory": "footway",
    "latitude": 31.571229000000002,
    "longitude": 74.49040536666666,
    "id": 203538180
  },
  {
    "name": "footway",
    "category": "highway",
    "subcategory": "footway",
    "latitude": 31.569852819999998,
    "longitude": 74.49092882,
    "id": 203538182
  },
  {
    "name": "track",
    "category": "highway",
    "subcategory": "track",
    "latitude": 31.56481829230769,
    "longitude": 74.48269028461539,
    "id": 203538184
  },
  {
    "name": "footway",
    "category": "highway",
    "subcategory": "footway",
    "latitude": 31.570879050000002,
    "longitude": 74.48844224999999,
    "id": 203538186
  },
  {
    "name": "footway",
    "category": "highway",
    "subcategory": "footway",
    "latitude": 31.56970718148148,
    "longitude": 74.48903440000001,
    "id": 203538187
  },
  {
    "name": "residential",
    "category": "highway",
    "subcategory": "residential",
    "latitude": 31.563331066666667,
    "longitude": 74.46725810000001,
    "id": 203538190
  },
  {
    "name": "footway",
    "category": "highway",
    "subcategory": "footway",
    "latitude": 31.5700169,
    "longitude": 74.4880832,
    "id": 203538191
  },
  {
    "name": "service",
    "category": "highway",
    "subcategory": "service",
    "latitude": 31.573847875,
    "longitude": 74.484466275,
    "id": 203538193
  },
  {
    "name": "residential",
    "category": "highway",
    "subcategory": "residential",
    "latitude": 31.541808528318587,
    "longitude": 74.45788322477877,
    "id": 203538194
  },
  {
    "name": "footway",
    "category": "highway",
    "subcategory": "footway",
    "latitude": 31.570826535294117,
    "longitude": 74.48810702352941,
    "id": 203538196
  },
  {
    "name": "track",
    "category": "highway",
    "subcategory": "track",
    "latitude": 31.56184208333333,
    "longitude": 74.49194715,
    "id": 203538198
  },
  {
    "name": "footway",
    "category": "highway",
    "subcategory": "footway",
    "latitude": 31.571816614285716,
    "longitude": 74.48998925714285,
    "id": 203538200
  },
  {
    "name": "footway",
    "category": "highway",
    "subcategory": "footway",
    "latitude": 31.570077729411764,
    "longitude": 74.49277717058824,
    "id": 203538202
  },
  {
    "name": "نہر سڑک‎",
    "category": "highway",
    "subcategory": "trunk",
    "latitude": 31.580720559090913,
    "longitude": 74.47048597727273,
    "id": 231883571
  },
  {
    "name": "To Frm SalamatPura",
    "category": "highway",
    "subcategory": "unclassified",
    "latitude": 31.589400053703706,
    "longitude": 74.45517313703704,
    "id": 231886426
  },
  {
    "name": "unclassified",
    "category": "highway",
    "subcategory": "unclassified",
    "latitude": 31.544498168,
    "longitude": 74.50213958399999,
    "id": 232301026
  },
  {
    "name": "service",
    "category": "highway",
    "subcategory": "service",
    "latitude": 31.569333936363638,
    "longitude": 74.46877597272727,
    "id": 232330907
  },
  {
    "name": "Jallo Road",
    "category": "highway",
    "subcategory": "service",
    "latitude": 31.569291204000002,
    "longitude": 74.4488414,
    "id": 232330908
  },
  {
    "name": "service",
    "category": "highway",
    "subcategory": "service",
    "latitude": 31.571846086666667,
    "longitude": 74.48127108,
    "id": 232335076
  },
  {
    "name": "track",
    "category": "highway",
    "subcategory": "track",
    "latitude": 31.568523311764707,
    "longitude": 74.48586536470589,
    "id": 232335078
  },
  {
    "name": "service",
    "category": "highway",
    "subcategory": "service",
    "latitude": 31.570822622222224,
    "longitude": 74.46517161111112,
    "id": 232335079
  },
  {
    "name": "Bhama Road",
    "category": "highway",
    "subcategory": "tertiary",
    "latitude": 31.588819247058822,
    "longitude": 74.51271801764706,
    "id": 235023353
  },
  {
    "name": "Taqipur Syedan Rd",
    "category": "highway",
    "subcategory": "tertiary",
    "latitude": 31.57845969574468,
    "longitude": 74.52712092340425,
    "id": 235023355
  },
  {
    "name": "Narwar Road",
    "category": "highway",
    "subcategory": "tertiary",
    "latitude": 31.565419130275227,
    "longitude": 74.53147949266055,
    "id": 235024084
  },
  {
    "name": "unclassified",
    "category": "highway",
    "subcategory": "unclassified",
    "latitude": 31.57098581111111,
    "longitude": 74.51199373888889,
    "id": 235024085
  },
  {
    "name": "unclassified",
    "category": "highway",
    "subcategory": "unclassified",
    "latitude": 31.5623018,
    "longitude": 74.5132562,
    "id": 235024086
  },
  {
    "name": "unclassified",
    "category": "highway",
    "subcategory": "unclassified",
    "latitude": 31.560640030000002,
    "longitude": 74.46981547,
    "id": 235024087
  },
  {
    "name": "service",
    "category": "highway",
    "subcategory": "service",
    "latitude": 31.560112853846153,
    "longitude": 74.5314327076923,
    "id": 235361250
  },
  {
    "name": "residential",
    "category": "highway",
    "subcategory": "residential",
    "latitude": 31.562025044444447,
    "longitude": 74.52595905555556,
    "id": 235361251
  },
  {
    "name": "residential",
    "category": "highway",
    "subcategory": "residential",
    "latitude": 31.561951500000003,
    "longitude": 74.5233948,
    "id": 235361252
  },
  {
    "name": "residential",
    "category": "highway",
    "subcategory": "residential",
    "latitude": 31.5604397,
    "longitude": 74.52439575,
    "id": 235361253
  },
  {
    "name": "residential",
    "category": "highway",
    "subcategory": "residential",
    "latitude": 31.559731466666666,
    "longitude": 74.52308336666665,
    "id": 235361254
  },
  {
    "name": "residential",
    "category": "highway",
    "subcategory": "residential",
    "latitude": 31.55847415,
    "longitude": 74.521111375,
    "id": 235361255
  },
  {
    "name": "residential",
    "category": "highway",
    "subcategory": "residential",
    "latitude": 31.55946795,
    "longitude": 74.52177365,
    "id": 235361257
  },
  {
    "name": "unclassified",
    "category": "highway",
    "subcategory": "unclassified",
    "latitude": 31.553668,
    "longitude": 74.5181633,
    "id": 235361260
  },
  {
    "name": "residential",
    "category": "highway",
    "subcategory": "residential",
    "latitude": 31.561970000000002,
    "longitude": 74.52151964999999,
    "id": 235361262
  },
  {
    "name": "unclassified",
    "category": "highway",
    "subcategory": "unclassified",
    "latitude": 31.5656312,
    "longitude": 74.5238564888889,
    "id": 235361263
  },
  {
    "name": "unclassified",
    "category": "highway",
    "subcategory": "unclassified",
    "latitude": 31.567443733333334,
    "longitude": 74.5216474,
    "id": 235361264
  },
  {
    "name": "unclassified",
    "category": "highway",
    "subcategory": "unclassified",
    "latitude": 31.567231892307692,
    "longitude": 74.51978978461538,
    "id": 235361265
  },
  {
    "name": "unclassified",
    "category": "highway",
    "subcategory": "unclassified",
    "latitude": 31.565304400000002,
    "longitude": 74.51995616666666,
    "id": 235361266
  },
  {
    "name": "unclassified",
    "category": "highway",
    "subcategory": "unclassified",
    "latitude": 31.564623325,
    "longitude": 74.517353375,
    "id": 235361267
  },
  {
    "name": "unclassified",
    "category": "highway",
    "subcategory": "unclassified",
    "latitude": 31.56354875,
    "longitude": 74.51535115,
    "id": 235361268
  },
  {
    "name": "unclassified",
    "category": "highway",
    "subcategory": "unclassified",
    "latitude": 31.56557754,
    "longitude": 74.51458235999999,
    "id": 235361269
  },
  {
    "name": "unclassified",
    "category": "highway",
    "subcategory": "unclassified",
    "latitude": 31.569160525,
    "longitude": 74.513618275,
    "id": 235361270
  },
  {
    "name": "unclassified",
    "category": "highway",
    "subcategory": "unclassified",
    "latitude": 31.56804305,
    "longitude": 74.51874013333334,
    "id": 235361271
  },
  {
    "name": "unclassified",
    "category": "highway",
    "subcategory": "unclassified",
    "latitude": 31.569794466666668,
    "longitude": 74.521256,
    "id": 235361272
  },
  {
    "name": "unclassified",
    "category": "highway",
    "subcategory": "unclassified",
    "latitude": 31.56986255625,
    "longitude": 74.5249458125,
    "id": 235361273
  },
  {
    "name": "unclassified",
    "category": "highway",
    "subcategory": "unclassified",
    "latitude": 31.572164450000002,
    "longitude": 74.52517798333334,
    "id": 235361274
  },
  {
    "name": "unclassified",
    "category": "highway",
    "subcategory": "unclassified",
    "latitude": 31.572406125,
    "longitude": 74.52118031666667,
    "id": 235361275
  },
  {
    "name": "unclassified",
    "category": "highway",
    "subcategory": "unclassified",
    "latitude": 31.57705865,
    "longitude": 74.5140939875,
    "id": 235361276
  },
  {
    "name": "نہر سڑک‎",
    "category": "highway",
    "subcategory": "trunk",
    "latitude": 31.584554032142854,
    "longitude": 74.49244079285714,
    "id": 314938556
  },
  {
    "name": "GT-Canal-Manhala Rd Link",
    "category": "highway",
    "subcategory": "secondary",
    "latitude": 31.586176299999998,
    "longitude": 74.50083026,
    "id": 314939509
  },
  {
    "name": "گرینڈ ٹرنک روڈ",
    "category": "highway",
    "subcategory": "trunk",
    "latitude": 31.596614,
    "longitude": 74.4965591,
    "id": 314939510
  },
  {
    "name": "گرینڈ ٹرنک روڈ",
    "category": "highway",
    "subcategory": "trunk",
    "latitude": 31.600899622222226,
    "longitude": 74.53702838333334,
    "id": 314939511
  },
  {
    "name": "trunk_link",
    "category": "highway",
    "subcategory": "trunk_link",
    "latitude": 31.5988356,
    "longitude": 74.51825335000001,
    "id": 314939516
  },
  {
    "name": "trunk_link",
    "category": "highway",
    "subcategory": "trunk_link",
    "latitude": 31.597659200000002,
    "longitude": 74.5073426,
    "id": 314939517
  },
  {
    "name": "trunk_link",
    "category": "highway",
    "subcategory": "trunk_link",
    "latitude": 31.5969817,
    "longitude": 74.50089045,
    "id": 314939518
  },
  {
    "name": "trunk_link",
    "category": "highway",
    "subcategory": "trunk_link",
    "latitude": 31.5958942,
    "longitude": 74.49046185,
    "id": 314939519
  },
  {
    "name": "trunk_link",
    "category": "highway",
    "subcategory": "trunk_link",
    "latitude": 31.5963955,
    "longitude": 74.4953311,
    "id": 314939520
  },
  {
    "name": "trunk_link",
    "category": "highway",
    "subcategory": "trunk_link",
    "latitude": 31.5947571,
    "longitude": 74.47967535000001,
    "id": 314939521
  },
  {
    "name": "trunk_link",
    "category": "highway",
    "subcategory": "trunk_link",
    "latitude": 31.594321899999997,
    "longitude": 74.4753413,
    "id": 314939522
  },
  {
    "name": "trunk_link",
    "category": "highway",
    "subcategory": "trunk_link",
    "latitude": 31.59272775,
    "longitude": 74.46003845000001,
    "id": 314939523
  },
  {
    "name": "trunk_link",
    "category": "highway",
    "subcategory": "trunk_link",
    "latitude": 31.59197135,
    "longitude": 74.45251440000001,
    "id": 314939524
  },
  {
    "name": "Khaira Road",
    "category": "highway",
    "subcategory": "tertiary",
    "latitude": 31.581723213513516,
    "longitude": 74.49684798918919,
    "id": 315087160
  },
  {
    "name": "trunk_link",
    "category": "highway",
    "subcategory": "trunk_link",
    "latitude": 31.5865272,
    "longitude": 74.49956829999999,
    "id": 315087161
  },
  {
    "name": "نہر سڑک‎",
    "category": "highway",
    "subcategory": "trunk",
    "latitude": 31.577224253571426,
    "longitude": 74.45534728214285,
    "id": 315087162
  },
  {
    "name": "tertiary",
    "category": "highway",
    "subcategory": "tertiary",
    "latitude": 31.58236451666667,
    "longitude": 74.48212403333333,
    "id": 315087163
  },
  {
    "name": "trunk",
    "category": "highway",
    "subcategory": "trunk",
    "latitude": 31.582532060869564,
    "longitude": 74.48221002608696,
    "id": 315087164
  },
  {
    "name": "tertiary",
    "category": "highway",
    "subcategory": "tertiary",
    "latitude": 31.582342824999998,
    "longitude": 74.48218215,
    "id": 315087165
  },
  {
    "name": "trunk_link",
    "category": "highway",
    "subcategory": "trunk_link",
    "latitude": 31.59527833333333,
    "longitude": 74.4851008,
    "id": 316729373
  },
  {
    "name": "trunk_link",
    "category": "highway",
    "subcategory": "trunk_link",
    "latitude": 31.593692500000003,
    "longitude": 74.4693442,
    "id": 316729374
  },
  {
    "name": "unclassified",
    "category": "highway",
    "subcategory": "unclassified",
    "latitude": 31.583531657777776,
    "longitude": 74.44783575777778,
    "id": 316729376
  },
  {
    "name": "Ravi Syphon Road",
    "category": "highway",
    "subcategory": "tertiary",
    "latitude": 31.643123957425743,
    "longitude": 74.48678038910892,
    "id": 316729379
  },
  {
    "name": "unclassified",
    "category": "highway",
    "subcategory": "unclassified",
    "latitude": 31.59398029275362,
    "longitude": 74.4703936652174,
    "id": 316730804
  },
  {
    "name": "unclassified",
    "category": "highway",
    "subcategory": "unclassified",
    "latitude": 31.593427460344827,
    "longitude": 74.46825564827587,
    "id": 316730808
  },
  {
    "name": "unclassified",
    "category": "highway",
    "subcategory": "unclassified",
    "latitude": 31.576681372727272,
    "longitude": 74.53917811363637,
    "id": 319229115
  },
  {
    "name": "Omer Khan Road",
    "category": "highway",
    "subcategory": "unclassified",
    "latitude": 31.587940869047618,
    "longitude": 74.47302733095238,
    "id": 322148318
  },
  {
    "name": "unclassified",
    "category": "highway",
    "subcategory": "unclassified",
    "latitude": 31.5812397,
    "longitude": 74.47315585,
    "id": 322148319
  },
  {
    "name": "بھینی روڈ",
    "category": "highway",
    "subcategory": "tertiary",
    "latitude": 31.628848198765432,
    "longitude": 74.44531561481482,
    "id": 330447431
  },
  {
    "name": "unclassified",
    "category": "highway",
    "subcategory": "unclassified",
    "latitude": 31.5713319,
    "longitude": 74.52698415,
    "id": 376581251
  },
  {
    "name": "residential",
    "category": "highway",
    "subcategory": "residential",
    "latitude": 31.573575452380954,
    "longitude": 74.4611088904762,
    "id": 378755034
  },
  {
    "name": "residential",
    "category": "highway",
    "subcategory": "residential",
    "latitude": 31.57859237272727,
    "longitude": 74.50114273636363,
    "id": 378755043
  },
  {
    "name": "residential",
    "category": "highway",
    "subcategory": "residential",
    "latitude": 31.581001074193548,
    "longitude": 74.51820019677419,
    "id": 378755044
  },
  {
    "name": "track",
    "category": "highway",
    "subcategory": "track",
    "latitude": 31.5821133,
    "longitude": 74.52437285,
    "id": 378755046
  },
  {
    "name": "unclassified",
    "category": "highway",
    "subcategory": "unclassified",
    "latitude": 31.582585053333332,
    "longitude": 74.51589445333335,
    "id": 378755047
  },
  {
    "name": "footway",
    "category": "highway",
    "subcategory": "footway",
    "latitude": 31.579901166666662,
    "longitude": 74.50932353333333,
    "id": 378755048
  },
  {
    "name": "path",
    "category": "highway",
    "subcategory": "path",
    "latitude": 31.57960434,
    "longitude": 74.507945368,
    "id": 378755049
  },
  {
    "name": "residential",
    "category": "highway",
    "subcategory": "residential",
    "latitude": 31.5798412175,
    "longitude": 74.50773517,
    "id": 378755050
  },
  {
    "name": "Khaira Bridge",
    "category": "highway",
    "subcategory": "primary",
    "latitude": 31.586020650000002,
    "longitude": 74.5012942,
    "id": 403152434
  },
  {
    "name": "residential",
    "category": "highway",
    "subcategory": "residential",
    "latitude": 31.591099057142856,
    "longitude": 74.48025386428571,
    "id": 418783885
  },
  {
    "name": "residential",
    "category": "highway",
    "subcategory": "residential",
    "latitude": 31.5802686625,
    "longitude": 74.4521949375,
    "id": 418783887
  },
  {
    "name": "residential",
    "category": "highway",
    "subcategory": "residential",
    "latitude": 31.59137375714286,
    "longitude": 74.4783635,
    "id": 418783891
  },
  {
    "name": "LMDC Road",
    "category": "highway",
    "subcategory": "residential",
    "latitude": 31.582683472222225,
    "longitude": 74.46461769444444,
    "id": 418783896
  },
  {
    "name": "residential",
    "category": "highway",
    "subcategory": "residential",
    "latitude": 31.58094725,
    "longitude": 74.4525597,
    "id": 418783898
  },
  {
    "name": "residential",
    "category": "highway",
    "subcategory": "residential",
    "latitude": 31.585466925000002,
    "longitude": 74.463312175,
    "id": 418783900
  },
  {
    "name": "residential",
    "category": "highway",
    "subcategory": "residential",
    "latitude": 31.5798626,
    "longitude": 74.45169427500001,
    "id": 418783901
  },
  {
    "name": "residential",
    "category": "highway",
    "subcategory": "residential",
    "latitude": 31.582765233333333,
    "longitude": 74.45153643333333,
    "id": 418783903
  },
  {
    "name": "residential",
    "category": "highway",
    "subcategory": "residential",
    "latitude": 31.58543884166667,
    "longitude": 74.46038473333333,
    "id": 418783905
  },
  {
    "name": "residential",
    "category": "highway",
    "subcategory": "residential",
    "latitude": 31.586635949999998,
    "longitude": 74.46267673999999,
    "id": 418783908
  },
  {
    "name": "residential",
    "category": "highway",
    "subcategory": "residential",
    "latitude": 31.583972725,
    "longitude": 74.45049776249999,
    "id": 418783921
  },
  {
    "name": "residential",
    "category": "highway",
    "subcategory": "residential",
    "latitude": 31.593020066666668,
    "longitude": 74.48022583333334,
    "id": 418783923
  },
  {
    "name": "residential",
    "category": "highway",
    "subcategory": "residential",
    "latitude": 31.58890954444444,
    "longitude": 74.47856505555555,
    "id": 418783924
  },
  {
    "name": "residential",
    "category": "highway",
    "subcategory": "residential",
    "latitude": 31.58158952,
    "longitude": 74.45237449999999,
    "id": 418783926
  },
  {
    "name": "residential",
    "category": "highway",
    "subcategory": "residential",
    "latitude": 31.58867838666667,
    "longitude": 74.48013144,
    "id": 418783928
  },
  {
    "name": "residential",
    "category": "highway",
    "subcategory": "residential",
    "latitude": 31.59650173913044,
    "longitude": 74.4690898652174,
    "id": 419000870
  },
  {
    "name": "Al-Rehman Ln",
    "category": "highway",
    "subcategory": "residential",
    "latitude": 31.595433676923076,
    "longitude": 74.45170571538462,
    "id": 419000871
  },
  {
    "name": "residential",
    "category": "highway",
    "subcategory": "residential",
    "latitude": 31.601087585714286,
    "longitude": 74.46332926190476,
    "id": 419000872
  },
  {
    "name": "residential",
    "category": "highway",
    "subcategory": "residential",
    "latitude": 31.60110984285714,
    "longitude": 74.46414917142859,
    "id": 419000873
  },
  {
    "name": "residential",
    "category": "highway",
    "subcategory": "residential",
    "latitude": 31.590883733333335,
    "longitude": 74.47128564444444,
    "id": 419000874
  },
  {
    "name": "residential",
    "category": "highway",
    "subcategory": "residential",
    "latitude": 31.592669883333333,
    "longitude": 74.46985048333333,
    "id": 419000875
  },
  {
    "name": "residential",
    "category": "highway",
    "subcategory": "residential",
    "latitude": 31.5973397,
    "longitude": 74.46341232,
    "id": 419000879
  },
  {
    "name": "residential",
    "category": "highway",
    "subcategory": "residential",
    "latitude": 31.60105278888889,
    "longitude": 74.46173285555555,
    "id": 419000880
  },
  {
    "name": "Sooter Mills Rd",
    "category": "highway",
    "subcategory": "residential",
    "latitude": 31.59587517894737,
    "longitude": 74.45307933157895,
    "id": 419000882
  },
  {
    "name": "residential",
    "category": "highway",
    "subcategory": "residential",
    "latitude": 31.59763107419355,
    "longitude": 74.47254897096774,
    "id": 419000883
  },
  {
    "name": "گنج سنڈوان روڈ",
    "category": "highway",
    "subcategory": "tertiary",
    "latitude": 31.618490050000002,
    "longitude": 74.449128436,
    "id": 419002409
  },
  {
    "name": "tertiary",
    "category": "highway",
    "subcategory": "tertiary",
    "latitude": 31.63788811728395,
    "longitude": 74.50372623950616,
    "id": 419003716
  },
  {
    "name": "residential",
    "category": "highway",
    "subcategory": "residential",
    "latitude": 31.590622692592593,
    "longitude": 74.47682135925926,
    "id": 419010235
  },
  {
    "name": "residential",
    "category": "highway",
    "subcategory": "residential",
    "latitude": 31.591406260000003,
    "longitude": 74.47732228,
    "id": 419010236
  },
  {
    "name": "residential",
    "category": "highway",
    "subcategory": "residential",
    "latitude": 31.601442300000002,
    "longitude": 74.46363235,
    "id": 520014501
  },
  {
    "name": "residential",
    "category": "highway",
    "subcategory": "residential",
    "latitude": 31.6017097,
    "longitude": 74.4636223,
    "id": 520014502
  },
  {
    "name": "residential",
    "category": "highway",
    "subcategory": "residential",
    "latitude": 31.6015846,
    "longitude": 74.4648779,
    "id": 520014503
  },
  {
    "name": "residential",
    "category": "highway",
    "subcategory": "residential",
    "latitude": 31.60157935,
    "longitude": 74.4645845,
    "id": 520014504
  },
  {
    "name": "residential",
    "category": "highway",
    "subcategory": "residential",
    "latitude": 31.6015757,
    "longitude": 74.46428605,
    "id": 520014505
  },
  {
    "name": "residential",
    "category": "highway",
    "subcategory": "residential",
    "latitude": 31.60157795,
    "longitude": 74.46395545,
    "id": 520014506
  },
  {
    "name": "residential",
    "category": "highway",
    "subcategory": "residential",
    "latitude": 31.6008634,
    "longitude": 74.4640377,
    "id": 520014507
  },
  {
    "name": "residential",
    "category": "highway",
    "subcategory": "residential",
    "latitude": 31.6008472,
    "longitude": 74.46368675,
    "id": 520014508
  },
  {
    "name": "residential",
    "category": "highway",
    "subcategory": "residential",
    "latitude": 31.600834499999998,
    "longitude": 74.4629846,
    "id": 520014509
  },
  {
    "name": "residential",
    "category": "highway",
    "subcategory": "residential",
    "latitude": 31.600966099999997,
    "longitude": 74.4626256,
    "id": 520014510
  },
  {
    "name": "residential",
    "category": "highway",
    "subcategory": "residential",
    "latitude": 31.601130333333334,
    "longitude": 74.46227296666666,
    "id": 520014511
  },
  {
    "name": "residential",
    "category": "highway",
    "subcategory": "residential",
    "latitude": 31.601076733333333,
    "longitude": 74.4618824,
    "id": 520014512
  },
  {
    "name": "residential",
    "category": "highway",
    "subcategory": "residential",
    "latitude": 31.60117013333333,
    "longitude": 74.46149323333333,
    "id": 520014513
  },
  {
    "name": "Garrison Garden Street",
    "category": "highway",
    "subcategory": "residential",
    "latitude": 31.6010398,
    "longitude": 74.46112143333333,
    "id": 520014514
  },
  {
    "name": "residential",
    "category": "highway",
    "subcategory": "residential",
    "latitude": 31.601059366666664,
    "longitude": 74.46073496666666,
    "id": 520014515
  },
  {
    "name": "unclassified",
    "category": "highway",
    "subcategory": "unclassified",
    "latitude": 31.580761199999998,
    "longitude": 74.47328825,
    "id": 569704598
  },
  {
    "name": "unclassified",
    "category": "highway",
    "subcategory": "unclassified",
    "latitude": 31.581527649999998,
    "longitude": 74.47758851,
    "id": 569704599
  },
  {
    "name": "نہر سڑک‎",
    "category": "highway",
    "subcategory": "trunk",
    "latitude": 31.582235325,
    "longitude": 74.48026269166667,
    "id": 569704600
  },
  {
    "name": "residential",
    "category": "highway",
    "subcategory": "residential",
    "latitude": 31.579769974999998,
    "longitude": 74.473888575,
    "id": 569705306
  },
  {
    "name": "residential",
    "category": "highway",
    "subcategory": "residential",
    "latitude": 31.5794483,
    "longitude": 74.47358115,
    "id": 569705310
  },
  {
    "name": "residential",
    "category": "highway",
    "subcategory": "residential",
    "latitude": 31.5801043,
    "longitude": 74.4733574,
    "id": 569705312
  },
  {
    "name": "residential",
    "category": "highway",
    "subcategory": "residential",
    "latitude": 31.578783950000002,
    "longitude": 74.47529180000001,
    "id": 569707256
  },
  {
    "name": "residential",
    "category": "highway",
    "subcategory": "residential",
    "latitude": 31.5789711,
    "longitude": 74.47495313333333,
    "id": 569707257
  },
  {
    "name": "residential",
    "category": "highway",
    "subcategory": "residential",
    "latitude": 31.579032599999998,
    "longitude": 74.4754595,
    "id": 569707258
  },
  {
    "name": "residential",
    "category": "highway",
    "subcategory": "residential",
    "latitude": 31.57897418,
    "longitude": 74.47815820000001,
    "id": 569707259
  },
  {
    "name": "residential",
    "category": "highway",
    "subcategory": "residential",
    "latitude": 31.58003506,
    "longitude": 74.47971142,
    "id": 569707260
  },
  {
    "name": "residential",
    "category": "highway",
    "subcategory": "residential",
    "latitude": 31.5788163,
    "longitude": 74.480381,
    "id": 569707261
  },
  {
    "name": "residential",
    "category": "highway",
    "subcategory": "residential",
    "latitude": 31.577936570000002,
    "longitude": 74.47816293,
    "id": 569707262
  },
  {
    "name": "residential",
    "category": "highway",
    "subcategory": "residential",
    "latitude": 31.5789866,
    "longitude": 74.47429455,
    "id": 569707263
  },
  {
    "name": "residential",
    "category": "highway",
    "subcategory": "residential",
    "latitude": 31.579326871428574,
    "longitude": 74.47631657142857,
    "id": 569707264
  },
  {
    "name": "residential",
    "category": "highway",
    "subcategory": "residential",
    "latitude": 31.579723350000002,
    "longitude": 74.47765025000001,
    "id": 569707265
  },
  {
    "name": "residential",
    "category": "highway",
    "subcategory": "residential",
    "latitude": 31.5796395,
    "longitude": 74.4782603,
    "id": 569707266
  },
  {
    "name": "residential",
    "category": "highway",
    "subcategory": "residential",
    "latitude": 31.57994915,
    "longitude": 74.478463375,
    "id": 569707267
  },
  {
    "name": "residential",
    "category": "highway",
    "subcategory": "residential",
    "latitude": 31.579790199999998,
    "longitude": 74.47681299999999,
    "id": 569707268
  },
  {
    "name": "residential",
    "category": "highway",
    "subcategory": "residential",
    "latitude": 31.5799431,
    "longitude": 74.47508504999999,
    "id": 569707269
  },
  {
    "name": "residential",
    "category": "highway",
    "subcategory": "residential",
    "latitude": 31.5802282,
    "longitude": 74.476677225,
    "id": 569707270
  },
  {
    "name": "residential",
    "category": "highway",
    "subcategory": "residential",
    "latitude": 31.5796591,
    "longitude": 74.475178925,
    "id": 569707271
  },
  {
    "name": "residential",
    "category": "highway",
    "subcategory": "residential",
    "latitude": 31.57971093636364,
    "longitude": 74.47597801818182,
    "id": 569707272
  },
  {
    "name": "residential",
    "category": "highway",
    "subcategory": "residential",
    "latitude": 31.579152649999997,
    "longitude": 74.47750845,
    "id": 569707745
  },
  {
    "name": "residential",
    "category": "highway",
    "subcategory": "residential",
    "latitude": 31.578465025,
    "longitude": 74.4781548,
    "id": 569707747
  },
  {
    "name": "residential",
    "category": "highway",
    "subcategory": "residential",
    "latitude": 31.5781302,
    "longitude": 74.47853674999999,
    "id": 569707748
  },
  {
    "name": "residential",
    "category": "highway",
    "subcategory": "residential",
    "latitude": 31.57776235,
    "longitude": 74.47974875,
    "id": 569707750
  },
  {
    "name": "residential",
    "category": "highway",
    "subcategory": "residential",
    "latitude": 31.57777845,
    "longitude": 74.4793797,
    "id": 569707751
  },
  {
    "name": "residential",
    "category": "highway",
    "subcategory": "residential",
    "latitude": 31.57795608,
    "longitude": 74.47927059999999,
    "id": 569707753
  },
  {
    "name": "residential",
    "category": "highway",
    "subcategory": "residential",
    "latitude": 31.5782993,
    "longitude": 74.478443325,
    "id": 569707755
  },
  {
    "name": "residential",
    "category": "highway",
    "subcategory": "residential",
    "latitude": 31.57863043333333,
    "longitude": 74.4781408,
    "id": 569707757
  },
  {
    "name": "residential",
    "category": "highway",
    "subcategory": "residential",
    "latitude": 31.57967005,
    "longitude": 74.47975654999999,
    "id": 569707759
  },
  {
    "name": "residential",
    "category": "highway",
    "subcategory": "residential",
    "latitude": 31.57933,
    "longitude": 74.4796508,
    "id": 569707760
  },
  {
    "name": "residential",
    "category": "highway",
    "subcategory": "residential",
    "latitude": 31.5792215,
    "longitude": 74.4788247,
    "id": 569707763
  },
  {
    "name": "residential",
    "category": "highway",
    "subcategory": "residential",
    "latitude": 31.579681800000003,
    "longitude": 74.47881633333333,
    "id": 569707766
  },
  {
    "name": "residential",
    "category": "highway",
    "subcategory": "residential",
    "latitude": 31.57636694736842,
    "longitude": 74.47997211052632,
    "id": 569707941
  },
  {
    "name": "residential",
    "category": "highway",
    "subcategory": "residential",
    "latitude": 31.57876605,
    "longitude": 74.47559495,
    "id": 569707942
  },
  {
    "name": "residential",
    "category": "highway",
    "subcategory": "residential",
    "latitude": 31.5789662,
    "longitude": 74.47461770000001,
    "id": 569707943
  },
  {
    "name": "residential",
    "category": "highway",
    "subcategory": "residential",
    "latitude": 31.584741700000002,
    "longitude": 74.47280745,
    "id": 583543378
  },
  {
    "name": "residential",
    "category": "highway",
    "subcategory": "residential",
    "latitude": 31.5861958,
    "longitude": 74.47182365,
    "id": 583543379
  },
  {
    "name": "residential",
    "category": "highway",
    "subcategory": "residential",
    "latitude": 31.5859445,
    "longitude": 74.4718239,
    "id": 583543380
  },
  {
    "name": "residential",
    "category": "highway",
    "subcategory": "residential",
    "latitude": 31.58551045,
    "longitude": 74.47202354999999,
    "id": 583543381
  },
  {
    "name": "residential",
    "category": "highway",
    "subcategory": "residential",
    "latitude": 31.5851613,
    "longitude": 74.47219885000001,
    "id": 583543382
  },
  {
    "name": "residential",
    "category": "highway",
    "subcategory": "residential",
    "latitude": 31.5844845875,
    "longitude": 74.4721481375,
    "id": 583543383
  },
  {
    "name": "residential",
    "category": "highway",
    "subcategory": "residential",
    "latitude": 31.583117299999998,
    "longitude": 74.4722368,
    "id": 583543384
  },
  {
    "name": "residential",
    "category": "highway",
    "subcategory": "residential",
    "latitude": 31.58204885,
    "longitude": 74.47226705,
    "id": 583543385
  },
  {
    "name": "residential",
    "category": "highway",
    "subcategory": "residential",
    "latitude": 31.5825647625,
    "longitude": 74.472117375,
    "id": 583543387
  },
  {
    "name": "residential",
    "category": "highway",
    "subcategory": "residential",
    "latitude": 31.58412996,
    "longitude": 74.47255354666666,
    "id": 583543388
  },
  {
    "name": "residential",
    "category": "highway",
    "subcategory": "residential",
    "latitude": 31.584980633333334,
    "longitude": 74.47444589999999,
    "id": 583543390
  },
  {
    "name": "residential",
    "category": "highway",
    "subcategory": "residential",
    "latitude": 31.584047966666663,
    "longitude": 74.47464006666667,
    "id": 583543392
  },
  {
    "name": "Global Street Ali Park",
    "category": "highway",
    "subcategory": "residential",
    "latitude": 31.58300231,
    "longitude": 74.4750601,
    "id": 583543393
  },
  {
    "name": "residential",
    "category": "highway",
    "subcategory": "residential",
    "latitude": 31.58222245,
    "longitude": 74.473585,
    "id": 583543394
  },
  {
    "name": "residential",
    "category": "highway",
    "subcategory": "residential",
    "latitude": 31.58271235,
    "longitude": 74.47358274999999,
    "id": 583543395
  },
  {
    "name": "residential",
    "category": "highway",
    "subcategory": "residential",
    "latitude": 31.5831728,
    "longitude": 74.4735718,
    "id": 583543396
  },
  {
    "name": "residential",
    "category": "highway",
    "subcategory": "residential",
    "latitude": 31.58352395,
    "longitude": 74.47292602499999,
    "id": 583543397
  },
  {
    "name": "residential",
    "category": "highway",
    "subcategory": "residential",
    "latitude": 31.583789,
    "longitude": 74.472896025,
    "id": 583543398
  },
  {
    "name": "residential",
    "category": "highway",
    "subcategory": "residential",
    "latitude": 31.5843092,
    "longitude": 74.47355895,
    "id": 583543399
  },
  {
    "name": "residential",
    "category": "highway",
    "subcategory": "residential",
    "latitude": 31.5847791,
    "longitude": 74.47355680000001,
    "id": 583543400
  },
  {
    "name": "residential",
    "category": "highway",
    "subcategory": "residential",
    "latitude": 31.5852601,
    "longitude": 74.4735611,
    "id": 583543401
  },
  {
    "name": "residential",
    "category": "highway",
    "subcategory": "residential",
    "latitude": 31.583639376923074,
    "longitude": 74.47407418461538,
    "id": 583543402
  },
  {
    "name": "residential",
    "category": "highway",
    "subcategory": "residential",
    "latitude": 31.5854078,
    "longitude": 74.46781215,
    "id": 583548256
  },
  {
    "name": "residential",
    "category": "highway",
    "subcategory": "residential",
    "latitude": 31.5853179,
    "longitude": 74.4658,
    "id": 583548257
  },
  {
    "name": "residential",
    "category": "highway",
    "subcategory": "residential",
    "latitude": 31.5854571,
    "longitude": 74.4661308,
    "id": 583548258
  },
  {
    "name": "residential",
    "category": "highway",
    "subcategory": "residential",
    "latitude": 31.5854176,
    "longitude": 74.46654939999999,
    "id": 583548259
  },
  {
    "name": "residential",
    "category": "highway",
    "subcategory": "residential",
    "latitude": 31.585990950000003,
    "longitude": 74.46682759999999,
    "id": 583548260
  },
  {
    "name": "residential",
    "category": "highway",
    "subcategory": "residential",
    "latitude": 31.585989750000003,
    "longitude": 74.4663325,
    "id": 583548261
  },
  {
    "name": "residential",
    "category": "highway",
    "subcategory": "residential",
    "latitude": 31.5859856,
    "longitude": 74.46582935,
    "id": 583548262
  },
  {
    "name": "residential",
    "category": "highway",
    "subcategory": "residential",
    "latitude": 31.587101200000003,
    "longitude": 74.4641058,
    "id": 583548263
  },
  {
    "name": "residential",
    "category": "highway",
    "subcategory": "residential",
    "latitude": 31.587450333333333,
    "longitude": 74.46394903333334,
    "id": 583548265
  },
  {
    "name": "residential",
    "category": "highway",
    "subcategory": "residential",
    "latitude": 31.5877746,
    "longitude": 74.4641413,
    "id": 583548266
  },
  {
    "name": "residential",
    "category": "highway",
    "subcategory": "residential",
    "latitude": 31.58678800909091,
    "longitude": 74.46460743636364,
    "id": 583548267
  },
  {
    "name": "residential",
    "category": "highway",
    "subcategory": "residential",
    "latitude": 31.586023633333337,
    "longitude": 74.46531710000001,
    "id": 583548268
  },
  {
    "name": "residential",
    "category": "highway",
    "subcategory": "residential",
    "latitude": 31.5853344,
    "longitude": 74.46714,
    "id": 583548269
  },
  {
    "name": "residential",
    "category": "highway",
    "subcategory": "residential",
    "latitude": 31.5854064,
    "longitude": 74.465316075,
    "id": 583548270
  },
  {
    "name": "residential",
    "category": "highway",
    "subcategory": "residential",
    "latitude": 31.585729842857145,
    "longitude": 74.46630118571429,
    "id": 583548271
  },
  {
    "name": "residential",
    "category": "highway",
    "subcategory": "residential",
    "latitude": 31.584714650000002,
    "longitude": 74.46731460000001,
    "id": 583548272
  },
  {
    "name": "residential",
    "category": "highway",
    "subcategory": "residential",
    "latitude": 31.5805525,
    "longitude": 74.46582975,
    "id": 583548273
  },
  {
    "name": "residential",
    "category": "highway",
    "subcategory": "residential",
    "latitude": 31.580406075,
    "longitude": 74.46630075,
    "id": 583548274
  },
  {
    "name": "residential",
    "category": "highway",
    "subcategory": "residential",
    "latitude": 31.5801911,
    "longitude": 74.46648255,
    "id": 583548275
  },
  {
    "name": "residential",
    "category": "highway",
    "subcategory": "residential",
    "latitude": 31.5809987,
    "longitude": 74.46558445,
    "id": 583548276
  },
  {
    "name": "residential",
    "category": "highway",
    "subcategory": "residential",
    "latitude": 31.582632699999998,
    "longitude": 74.46565770000001,
    "id": 583548277
  },
  {
    "name": "residential",
    "category": "highway",
    "subcategory": "residential",
    "latitude": 31.582939779999997,
    "longitude": 74.46515442,
    "id": 583548278
  },
  {
    "name": "residential",
    "category": "highway",
    "subcategory": "residential",
    "latitude": 31.58245075,
    "longitude": 74.4648918,
    "id": 583548279
  },
  {
    "name": "residential",
    "category": "highway",
    "subcategory": "residential",
    "latitude": 31.583733600000002,
    "longitude": 74.46488365,
    "id": 583548280
  },
  {
    "name": "residential",
    "category": "highway",
    "subcategory": "residential",
    "latitude": 31.58410706,
    "longitude": 74.46611444,
    "id": 583548282
  },
  {
    "name": "residential",
    "category": "highway",
    "subcategory": "residential",
    "latitude": 31.58449508,
    "longitude": 74.4662228,
    "id": 583548283
  },
  {
    "name": "residential",
    "category": "highway",
    "subcategory": "residential",
    "latitude": 31.5849207125,
    "longitude": 74.466388225,
    "id": 583548284
  },
  {
    "name": "unclassified",
    "category": "highway",
    "subcategory": "unclassified",
    "latitude": 31.58634878666667,
    "longitude": 74.46941816,
    "id": 583548285
  },
  {
    "name": "unclassified",
    "category": "highway",
    "subcategory": "unclassified",
    "latitude": 31.5873745,
    "longitude": 74.467892,
    "id": 583548286
  },
  {
    "name": "unclassified",
    "category": "highway",
    "subcategory": "unclassified",
    "latitude": 31.58296993076923,
    "longitude": 74.4677549,
    "id": 583548287
  },
  {
    "name": "residential",
    "category": "highway",
    "subcategory": "residential",
    "latitude": 31.5838807,
    "longitude": 74.46152315,
    "id": 583551328
  },
  {
    "name": "residential",
    "category": "highway",
    "subcategory": "residential",
    "latitude": 31.58414095,
    "longitude": 74.4615129,
    "id": 583551329
  },
  {
    "name": "residential",
    "category": "highway",
    "subcategory": "residential",
    "latitude": 31.583903914285713,
    "longitude": 74.46195742857142,
    "id": 583551331
  },
  {
    "name": "residential",
    "category": "highway",
    "subcategory": "residential",
    "latitude": 31.584218333333336,
    "longitude": 74.4605422,
    "id": 583551332
  },
  {
    "name": "residential",
    "category": "highway",
    "subcategory": "residential",
    "latitude": 31.583618,
    "longitude": 74.460658,
    "id": 583551333
  },
  {
    "name": "residential",
    "category": "highway",
    "subcategory": "residential",
    "latitude": 31.583298778571425,
    "longitude": 74.46194127142857,
    "id": 583551334
  },
  {
    "name": "residential",
    "category": "highway",
    "subcategory": "residential",
    "latitude": 31.583064139999998,
    "longitude": 74.46024724,
    "id": 583551335
  },
  {
    "name": "residential",
    "category": "highway",
    "subcategory": "residential",
    "latitude": 31.58482875,
    "longitude": 74.46060995,
    "id": 583551336
  },
  {
    "name": "residential",
    "category": "highway",
    "subcategory": "residential",
    "latitude": 31.584395159999996,
    "longitude": 74.46182610000001,
    "id": 583551337
  },
  {
    "name": "Liaqat Street",
    "category": "highway",
    "subcategory": "residential",
    "latitude": 31.584922900000002,
    "longitude": 74.46154095,
    "id": 583551338
  },
  {
    "name": "residential",
    "category": "highway",
    "subcategory": "residential",
    "latitude": 31.583785363636366,
    "longitude": 74.4609757,
    "id": 583551339
  },
  {
    "name": "residential",
    "category": "highway",
    "subcategory": "residential",
    "latitude": 31.58513335,
    "longitude": 74.4624632,
    "id": 583551340
  },
  {
    "name": "residential",
    "category": "highway",
    "subcategory": "residential",
    "latitude": 31.586727,
    "longitude": 74.4621964,
    "id": 583551341
  },
  {
    "name": "residential",
    "category": "highway",
    "subcategory": "residential",
    "latitude": 31.58621475,
    "longitude": 74.4627265,
    "id": 583551342
  },
  {
    "name": "residential",
    "category": "highway",
    "subcategory": "residential",
    "latitude": 31.5858995,
    "longitude": 74.4627296,
    "id": 583551343
  },
  {
    "name": "residential",
    "category": "highway",
    "subcategory": "residential",
    "latitude": 31.585384266666665,
    "longitude": 74.46200806666667,
    "id": 583551344
  },
  {
    "name": "residential",
    "category": "highway",
    "subcategory": "residential",
    "latitude": 31.58587285,
    "longitude": 74.46100215,
    "id": 583551345
  },
  {
    "name": "residential",
    "category": "highway",
    "subcategory": "residential",
    "latitude": 31.586472450000002,
    "longitude": 74.46128995000001,
    "id": 583551346
  },
  {
    "name": "residential",
    "category": "highway",
    "subcategory": "residential",
    "latitude": 31.58564660434783,
    "longitude": 74.46026172173913,
    "id": 583551347
  },
  {
    "name": "residential",
    "category": "highway",
    "subcategory": "residential",
    "latitude": 31.58437245,
    "longitude": 74.46402855,
    "id": 583551348
  },
  {
    "name": "residential",
    "category": "highway",
    "subcategory": "residential",
    "latitude": 31.588031625,
    "longitude": 74.4628515,
    "id": 583551349
  },
  {
    "name": "residential",
    "category": "highway",
    "subcategory": "residential",
    "latitude": 31.587823075,
    "longitude": 74.46312105,
    "id": 583551350
  },
  {
    "name": "residential",
    "category": "highway",
    "subcategory": "residential",
    "latitude": 31.587782150000002,
    "longitude": 74.46241925000001,
    "id": 583551351
  },
  {
    "name": "residential",
    "category": "highway",
    "subcategory": "residential",
    "latitude": 31.5878676,
    "longitude": 74.46335690000001,
    "id": 583551352
  },
  {
    "name": "residential",
    "category": "highway",
    "subcategory": "residential",
    "latitude": 31.587475083333334,
    "longitude": 74.46286456666667,
    "id": 583551353
  },
  {
    "name": "residential",
    "category": "highway",
    "subcategory": "residential",
    "latitude": 31.5886022875,
    "longitude": 74.4625041125,
    "id": 583551354
  },
  {
    "name": "residential",
    "category": "highway",
    "subcategory": "residential",
    "latitude": 31.58823418571429,
    "longitude": 74.46592192142857,
    "id": 583551355
  },
  {
    "name": "residential",
    "category": "highway",
    "subcategory": "residential",
    "latitude": 31.58105295,
    "longitude": 74.46632855,
    "id": 583560897
  },
  {
    "name": "residential",
    "category": "highway",
    "subcategory": "residential",
    "latitude": 31.58085946,
    "longitude": 74.46664519999999,
    "id": 583560898
  },
  {
    "name": "unclassified",
    "category": "highway",
    "subcategory": "unclassified",
    "latitude": 31.581420415384613,
    "longitude": 74.46355770769232,
    "id": 583560899
  },
  {
    "name": "unclassified",
    "category": "highway",
    "subcategory": "unclassified",
    "latitude": 31.581412861538464,
    "longitude": 74.46401266923077,
    "id": 583560901
  },
  {
    "name": "unclassified",
    "category": "highway",
    "subcategory": "unclassified",
    "latitude": 31.580055304761903,
    "longitude": 74.46377374126983,
    "id": 583560902
  },
  {
    "name": "unclassified",
    "category": "highway",
    "subcategory": "unclassified",
    "latitude": 31.579658933333334,
    "longitude": 74.46383046666666,
    "id": 583560903
  },
  {
    "name": "residential",
    "category": "highway",
    "subcategory": "residential",
    "latitude": 31.5811526,
    "longitude": 74.46320306666667,
    "id": 583560904
  },
  {
    "name": "residential",
    "category": "highway",
    "subcategory": "residential",
    "latitude": 31.580573466666664,
    "longitude": 74.46305393333334,
    "id": 583560905
  },
  {
    "name": "residential",
    "category": "highway",
    "subcategory": "residential",
    "latitude": 31.5811859,
    "longitude": 74.46064705,
    "id": 583560906
  },
  {
    "name": "residential",
    "category": "highway",
    "subcategory": "residential",
    "latitude": 31.582136933333334,
    "longitude": 74.46007476666666,
    "id": 583560907
  },
  {
    "name": "residential",
    "category": "highway",
    "subcategory": "residential",
    "latitude": 31.579801814285712,
    "longitude": 74.46128155714287,
    "id": 583560908
  },
  {
    "name": "residential",
    "category": "highway",
    "subcategory": "residential",
    "latitude": 31.58162075,
    "longitude": 74.4623687,
    "id": 583560909
  },
  {
    "name": "residential",
    "category": "highway",
    "subcategory": "residential",
    "latitude": 31.581284750000002,
    "longitude": 74.46237065,
    "id": 583560910
  },
  {
    "name": "residential",
    "category": "highway",
    "subcategory": "residential",
    "latitude": 31.581431866666666,
    "longitude": 74.46194083333334,
    "id": 583560911
  },
  {
    "name": "residential",
    "category": "highway",
    "subcategory": "residential",
    "latitude": 31.5809592,
    "longitude": 74.46221285,
    "id": 583560912
  },
  {
    "name": "residential",
    "category": "highway",
    "subcategory": "residential",
    "latitude": 31.581329522727273,
    "longitude": 74.46012419545455,
    "id": 583560913
  },
  {
    "name": "residential",
    "category": "highway",
    "subcategory": "residential",
    "latitude": 31.57938305,
    "longitude": 74.46289730000001,
    "id": 583560914
  },
  {
    "name": "residential",
    "category": "highway",
    "subcategory": "residential",
    "latitude": 31.5811892875,
    "longitude": 74.46281541249999,
    "id": 583560915
  },
  {
    "name": "residential",
    "category": "highway",
    "subcategory": "residential",
    "latitude": 31.592019066666666,
    "longitude": 74.48165736666665,
    "id": 594354407
  },
  {
    "name": "residential",
    "category": "highway",
    "subcategory": "residential",
    "latitude": 31.593875255555556,
    "longitude": 74.48025638888889,
    "id": 594354409
  },
  {
    "name": "residential",
    "category": "highway",
    "subcategory": "residential",
    "latitude": 31.5927297,
    "longitude": 74.47744305,
    "id": 594354410
  },
  {
    "name": "residential",
    "category": "highway",
    "subcategory": "residential",
    "latitude": 31.593466371428573,
    "longitude": 74.4777474,
    "id": 594354411
  },
  {
    "name": "residential",
    "category": "highway",
    "subcategory": "residential",
    "latitude": 31.59251805,
    "longitude": 74.47789019999999,
    "id": 594354412
  },
  {
    "name": "residential",
    "category": "highway",
    "subcategory": "residential",
    "latitude": 31.592245849999998,
    "longitude": 74.47847569999999,
    "id": 594354413
  },
  {
    "name": "residential",
    "category": "highway",
    "subcategory": "residential",
    "latitude": 31.5930100375,
    "longitude": 74.478552625,
    "id": 594354414
  },
  {
    "name": "residential",
    "category": "highway",
    "subcategory": "residential",
    "latitude": 31.594049133333332,
    "longitude": 74.47883213333334,
    "id": 594354415
  },
  {
    "name": "residential",
    "category": "highway",
    "subcategory": "residential",
    "latitude": 31.593592700000002,
    "longitude": 74.47921,
    "id": 594354416
  },
  {
    "name": "residential",
    "category": "highway",
    "subcategory": "residential",
    "latitude": 31.594084591666668,
    "longitude": 74.480459275,
    "id": 594354417
  },
  {
    "name": "residential",
    "category": "highway",
    "subcategory": "residential",
    "latitude": 31.6020752,
    "longitude": 74.48129018333333,
    "id": 612360000
  },
  {
    "name": "residential",
    "category": "highway",
    "subcategory": "residential",
    "latitude": 31.602912649999997,
    "longitude": 74.48131788333333,
    "id": 612360001
  },
  {
    "name": "residential",
    "category": "highway",
    "subcategory": "residential",
    "latitude": 31.600227196000002,
    "longitude": 74.480592924,
    "id": 612360003
  },
  {
    "name": "residential",
    "category": "highway",
    "subcategory": "residential",
    "latitude": 31.607209079365077,
    "longitude": 74.48050205396825,
    "id": 612360005
  },
  {
    "name": "residential",
    "category": "highway",
    "subcategory": "residential",
    "latitude": 31.5953762125,
    "longitude": 74.4806754,
    "id": 612360009
  },
  {
    "name": "residential",
    "category": "highway",
    "subcategory": "residential",
    "latitude": 31.59593213333333,
    "longitude": 74.48066793333334,
    "id": 612360010
  },
  {
    "name": "residential",
    "category": "highway",
    "subcategory": "residential",
    "latitude": 31.59558515,
    "longitude": 74.48045011666666,
    "id": 612360011
  },
  {
    "name": "residential",
    "category": "highway",
    "subcategory": "residential",
    "latitude": 31.59823905,
    "longitude": 74.48092845,
    "id": 612361978
  },
  {
    "name": "residential",
    "category": "highway",
    "subcategory": "residential",
    "latitude": 31.5978973,
    "longitude": 74.48115155833334,
    "id": 612361979
  },
  {
    "name": "residential",
    "category": "highway",
    "subcategory": "residential",
    "latitude": 31.596196666666668,
    "longitude": 74.4812486,
    "id": 612361980
  },
  {
    "name": "residential",
    "category": "highway",
    "subcategory": "residential",
    "latitude": 31.5958079,
    "longitude": 74.48133355,
    "id": 612361981
  },
  {
    "name": "residential",
    "category": "highway",
    "subcategory": "residential",
    "latitude": 31.597518116666667,
    "longitude": 74.48176776666666,
    "id": 612361982
  },
  {
    "name": "residential",
    "category": "highway",
    "subcategory": "residential",
    "latitude": 31.59736969090909,
    "longitude": 74.48168371818181,
    "id": 612361983
  },
  {
    "name": "residential",
    "category": "highway",
    "subcategory": "residential",
    "latitude": 31.599266716666666,
    "longitude": 74.47930004999999,
    "id": 612362167
  },
  {
    "name": "residential",
    "category": "highway",
    "subcategory": "residential",
    "latitude": 31.59816165,
    "longitude": 74.4793354,
    "id": 612362168
  },
  {
    "name": "residential",
    "category": "highway",
    "subcategory": "residential",
    "latitude": 31.598852720000004,
    "longitude": 74.47978598,
    "id": 612362169
  },
  {
    "name": "residential",
    "category": "highway",
    "subcategory": "residential",
    "latitude": 31.598510899999997,
    "longitude": 74.47885145,
    "id": 612362170
  },
  {
    "name": "residential",
    "category": "highway",
    "subcategory": "residential",
    "latitude": 31.59748174,
    "longitude": 74.47942698,
    "id": 612362171
  },
  {
    "name": "residential",
    "category": "highway",
    "subcategory": "residential",
    "latitude": 31.597362859999997,
    "longitude": 74.47987522000001,
    "id": 612362172
  },
  {
    "name": "residential",
    "category": "highway",
    "subcategory": "residential",
    "latitude": 31.59626133333333,
    "longitude": 74.48009176666666,
    "id": 612362173
  },
  {
    "name": "residential",
    "category": "highway",
    "subcategory": "residential",
    "latitude": 31.598034600000002,
    "longitude": 74.48296086666666,
    "id": 612362446
  },
  {
    "name": "residential",
    "category": "highway",
    "subcategory": "residential",
    "latitude": 31.59824855,
    "longitude": 74.48233175,
    "id": 612362447
  },
  {
    "name": "residential",
    "category": "highway",
    "subcategory": "residential",
    "latitude": 31.597785825000003,
    "longitude": 74.482495975,
    "id": 612362448
  },
  {
    "name": "residential",
    "category": "highway",
    "subcategory": "residential",
    "latitude": 31.597214566666665,
    "longitude": 74.4843989,
    "id": 612362449
  },
  {
    "name": "residential",
    "category": "highway",
    "subcategory": "residential",
    "latitude": 31.59715045,
    "longitude": 74.48409824999999,
    "id": 612362450
  },
  {
    "name": "residential",
    "category": "highway",
    "subcategory": "residential",
    "latitude": 31.597312916666667,
    "longitude": 74.48346318333334,
    "id": 612362451
  },
  {
    "name": "residential",
    "category": "highway",
    "subcategory": "residential",
    "latitude": 31.598073275,
    "longitude": 74.48342005,
    "id": 612362452
  },
  {
    "name": "residential",
    "category": "highway",
    "subcategory": "residential",
    "latitude": 31.597517016666668,
    "longitude": 74.4836622,
    "id": 612362453
  },
  {
    "name": "residential",
    "category": "highway",
    "subcategory": "residential",
    "latitude": 31.596921599999998,
    "longitude": 74.48274798888889,
    "id": 612362454
  },
  {
    "name": "residential",
    "category": "highway",
    "subcategory": "residential",
    "latitude": 31.600160492682928,
    "longitude": 74.48163267804878,
    "id": 612362675
  },
  {
    "name": "residential",
    "category": "highway",
    "subcategory": "residential",
    "latitude": 31.59853133333333,
    "longitude": 74.48295350000001,
    "id": 612363516
  },
  {
    "name": "residential",
    "category": "highway",
    "subcategory": "residential",
    "latitude": 31.600687822222223,
    "longitude": 74.48426823333334,
    "id": 612363517
  },
  {
    "name": "residential",
    "category": "highway",
    "subcategory": "residential",
    "latitude": 31.601976011111113,
    "longitude": 74.48359207777779,
    "id": 612363518
  },
  {
    "name": "residential",
    "category": "highway",
    "subcategory": "residential",
    "latitude": 31.60027615,
    "longitude": 74.48385640000001,
    "id": 612363519
  },
  {
    "name": "residential",
    "category": "highway",
    "subcategory": "residential",
    "latitude": 31.60001125,
    "longitude": 74.4838244,
    "id": 612363520
  },
  {
    "name": "residential",
    "category": "highway",
    "subcategory": "residential",
    "latitude": 31.599884933333332,
    "longitude": 74.48293283333334,
    "id": 612363521
  },
  {
    "name": "residential",
    "category": "highway",
    "subcategory": "residential",
    "latitude": 31.599879120000004,
    "longitude": 74.48207254,
    "id": 612363524
  },
  {
    "name": "residential",
    "category": "highway",
    "subcategory": "residential",
    "latitude": 31.5998328,
    "longitude": 74.4825439,
    "id": 612363525
  },
  {
    "name": "residential",
    "category": "highway",
    "subcategory": "residential",
    "latitude": 31.5993383,
    "longitude": 74.48217445,
    "id": 612363526
  },
  {
    "name": "residential",
    "category": "highway",
    "subcategory": "residential",
    "latitude": 31.6001298,
    "longitude": 74.48332648,
    "id": 612363527
  },
  {
    "name": "residential",
    "category": "highway",
    "subcategory": "residential",
    "latitude": 31.598916229999997,
    "longitude": 74.48293971000001,
    "id": 612363528
  },
  {
    "name": "residential",
    "category": "highway",
    "subcategory": "residential",
    "latitude": 31.600517954545456,
    "longitude": 74.48274541818182,
    "id": 612363529
  },
  {
    "name": "residential",
    "category": "highway",
    "subcategory": "residential",
    "latitude": 31.600410063636364,
    "longitude": 74.48278224545454,
    "id": 612363530
  },
  {
    "name": "residential",
    "category": "highway",
    "subcategory": "residential",
    "latitude": 31.603525050000002,
    "longitude": 74.48541804999999,
    "id": 612364022
  },
  {
    "name": "residential",
    "category": "highway",
    "subcategory": "residential",
    "latitude": 31.603047,
    "longitude": 74.4850586,
    "id": 612364023
  },
  {
    "name": "residential",
    "category": "highway",
    "subcategory": "residential",
    "latitude": 31.60222416,
    "longitude": 74.48470764,
    "id": 612364024
  },
  {
    "name": "residential",
    "category": "highway",
    "subcategory": "residential",
    "latitude": 31.601668557142858,
    "longitude": 74.48411385714287,
    "id": 612364025
  },
  {
    "name": "residential",
    "category": "highway",
    "subcategory": "residential",
    "latitude": 31.60156619090909,
    "longitude": 74.48399158181819,
    "id": 612364026
  },
  {
    "name": "residential",
    "category": "highway",
    "subcategory": "residential",
    "latitude": 31.60282775,
    "longitude": 74.4821228,
    "id": 612364027
  },
  {
    "name": "residential",
    "category": "highway",
    "subcategory": "residential",
    "latitude": 31.60241453333333,
    "longitude": 74.4816071,
    "id": 612364028
  },
  {
    "name": "residential",
    "category": "highway",
    "subcategory": "residential",
    "latitude": 31.6030655,
    "longitude": 74.4818112,
    "id": 612364029
  },
  {
    "name": "residential",
    "category": "highway",
    "subcategory": "residential",
    "latitude": 31.603343233333334,
    "longitude": 74.4819556,
    "id": 612364030
  },
  {
    "name": "residential",
    "category": "highway",
    "subcategory": "residential",
    "latitude": 31.603606666666668,
    "longitude": 74.48237376666667,
    "id": 612364031
  },
  {
    "name": "residential",
    "category": "highway",
    "subcategory": "residential",
    "latitude": 31.60286286666667,
    "longitude": 74.48099746666666,
    "id": 612364032
  },
  {
    "name": "residential",
    "category": "highway",
    "subcategory": "residential",
    "latitude": 31.601952049999998,
    "longitude": 74.48245213571428,
    "id": 612364033
  },
  {
    "name": "residential",
    "category": "highway",
    "subcategory": "residential",
    "latitude": 31.600560866666665,
    "longitude": 74.48146216666667,
    "id": 612364034
  },
  {
    "name": "residential",
    "category": "highway",
    "subcategory": "residential",
    "latitude": 31.600809400000003,
    "longitude": 74.48153676666668,
    "id": 612364035
  },
  {
    "name": "residential",
    "category": "highway",
    "subcategory": "residential",
    "latitude": 31.6006766,
    "longitude": 74.4820966,
    "id": 612364036
  },
  {
    "name": "residential",
    "category": "highway",
    "subcategory": "residential",
    "latitude": 31.601142416666665,
    "longitude": 74.48178395000001,
    "id": 612364037
  },
  {
    "name": "residential",
    "category": "highway",
    "subcategory": "residential",
    "latitude": 31.60055475,
    "longitude": 74.481072525,
    "id": 612364038
  },
  {
    "name": "residential",
    "category": "highway",
    "subcategory": "residential",
    "latitude": 31.601869100000002,
    "longitude": 74.47834155,
    "id": 612364856
  },
  {
    "name": "residential",
    "category": "highway",
    "subcategory": "residential",
    "latitude": 31.60164395,
    "longitude": 74.47929675,
    "id": 612364857
  },
  {
    "name": "residential",
    "category": "highway",
    "subcategory": "residential",
    "latitude": 31.5990381,
    "longitude": 74.4765318,
    "id": 612364858
  },
  {
    "name": "residential",
    "category": "highway",
    "subcategory": "residential",
    "latitude": 31.599074166666668,
    "longitude": 74.4771736,
    "id": 612364859
  },
  {
    "name": "residential",
    "category": "highway",
    "subcategory": "residential",
    "latitude": 31.59903535,
    "longitude": 74.47621290000001,
    "id": 612364860
  },
  {
    "name": "residential",
    "category": "highway",
    "subcategory": "residential",
    "latitude": 31.598443250000003,
    "longitude": 74.47669693333334,
    "id": 612364861
  },
  {
    "name": "residential",
    "category": "highway",
    "subcategory": "residential",
    "latitude": 31.600495,
    "longitude": 74.4794571,
    "id": 612364862
  },
  {
    "name": "residential",
    "category": "highway",
    "subcategory": "residential",
    "latitude": 31.600494150000003,
    "longitude": 74.4790849,
    "id": 612364863
  },
  {
    "name": "residential",
    "category": "highway",
    "subcategory": "residential",
    "latitude": 31.601642100000003,
    "longitude": 74.47875931666667,
    "id": 612364864
  },
  {
    "name": "residential",
    "category": "highway",
    "subcategory": "residential",
    "latitude": 31.60049625,
    "longitude": 74.4787252,
    "id": 612364865
  },
  {
    "name": "residential",
    "category": "highway",
    "subcategory": "residential",
    "latitude": 31.60049325,
    "longitude": 74.4783757,
    "id": 612364866
  },
  {
    "name": "residential",
    "category": "highway",
    "subcategory": "residential",
    "latitude": 31.60144447142857,
    "longitude": 74.47741045714285,
    "id": 612364867
  },
  {
    "name": "residential",
    "category": "highway",
    "subcategory": "residential",
    "latitude": 31.601650733333333,
    "longitude": 74.48003763333334,
    "id": 612364868
  },
  {
    "name": "residential",
    "category": "highway",
    "subcategory": "residential",
    "latitude": 31.601396533333332,
    "longitude": 74.47983706666666,
    "id": 612364869
  },
  {
    "name": "residential",
    "category": "highway",
    "subcategory": "residential",
    "latitude": 31.600478866666666,
    "longitude": 74.4798485,
    "id": 612364870
  },
  {
    "name": "residential",
    "category": "highway",
    "subcategory": "residential",
    "latitude": 31.60112977142857,
    "longitude": 74.4788872857143,
    "id": 612364871
  },
  {
    "name": "residential",
    "category": "highway",
    "subcategory": "residential",
    "latitude": 31.60090735,
    "longitude": 74.4776919,
    "id": 612364872
  },
  {
    "name": "residential",
    "category": "highway",
    "subcategory": "residential",
    "latitude": 31.6011979,
    "longitude": 74.47797773333333,
    "id": 612364873
  },
  {
    "name": "residential",
    "category": "highway",
    "subcategory": "residential",
    "latitude": 31.60023685,
    "longitude": 74.47764805,
    "id": 612364874
  },
  {
    "name": "residential",
    "category": "highway",
    "subcategory": "residential",
    "latitude": 31.6002355,
    "longitude": 74.47727280000001,
    "id": 612364875
  },
  {
    "name": "residential",
    "category": "highway",
    "subcategory": "residential",
    "latitude": 31.6002341,
    "longitude": 74.47690804999999,
    "id": 612364877
  },
  {
    "name": "residential",
    "category": "highway",
    "subcategory": "residential",
    "latitude": 31.6006252,
    "longitude": 74.47745995,
    "id": 612364878
  },
  {
    "name": "residential",
    "category": "highway",
    "subcategory": "residential",
    "latitude": 31.599379225,
    "longitude": 74.476853875,
    "id": 612364879
  },
  {
    "name": "residential",
    "category": "highway",
    "subcategory": "residential",
    "latitude": 31.59985276875,
    "longitude": 74.47836059375,
    "id": 612364880
  },
  {
    "name": "residential",
    "category": "highway",
    "subcategory": "residential",
    "latitude": 31.60945685,
    "longitude": 74.480872575,
    "id": 612366648
  },
  {
    "name": "residential",
    "category": "highway",
    "subcategory": "residential",
    "latitude": 31.60943267272727,
    "longitude": 74.4819907909091,
    "id": 612366649
  },
  {
    "name": "residential",
    "category": "highway",
    "subcategory": "residential",
    "latitude": 31.6017466,
    "longitude": 74.48171815,
    "id": 612366652
  },
  {
    "name": "residential",
    "category": "highway",
    "subcategory": "residential",
    "latitude": 31.601439875,
    "longitude": 74.4822228,
    "id": 612366653
  },
  {
    "name": "residential",
    "category": "highway",
    "subcategory": "residential",
    "latitude": 31.60400026666667,
    "longitude": 74.483382725,
    "id": 612366654
  },
  {
    "name": "residential",
    "category": "highway",
    "subcategory": "residential",
    "latitude": 31.6103423,
    "longitude": 74.4798578,
    "id": 612366655
  },
  {
    "name": "residential",
    "category": "highway",
    "subcategory": "residential",
    "latitude": 31.60978225,
    "longitude": 74.48037206666667,
    "id": 612366656
  },
  {
    "name": "residential",
    "category": "highway",
    "subcategory": "residential",
    "latitude": 31.610166033333332,
    "longitude": 74.47947223333334,
    "id": 612366659
  },
  {
    "name": "residential",
    "category": "highway",
    "subcategory": "residential",
    "latitude": 31.609657249999998,
    "longitude": 74.479136525,
    "id": 612366660
  },
  {
    "name": "residential",
    "category": "highway",
    "subcategory": "residential",
    "latitude": 31.609116733333334,
    "longitude": 74.48068056666666,
    "id": 612366662
  },
  {
    "name": "residential",
    "category": "highway",
    "subcategory": "residential",
    "latitude": 31.60898296666667,
    "longitude": 74.479581,
    "id": 612366664
  },
  {
    "name": "residential",
    "category": "highway",
    "subcategory": "residential",
    "latitude": 31.60921168333333,
    "longitude": 74.47904343333333,
    "id": 612366665
  },
  {
    "name": "residential",
    "category": "highway",
    "subcategory": "residential",
    "latitude": 31.6099001,
    "longitude": 74.48034544285714,
    "id": 612366667
  },
  {
    "name": "residential",
    "category": "highway",
    "subcategory": "residential",
    "latitude": 31.6079586125,
    "longitude": 74.4783882,
    "id": 612366668
  },
  {
    "name": "residential",
    "category": "highway",
    "subcategory": "residential",
    "latitude": 31.6072743,
    "longitude": 74.47784633333333,
    "id": 612366670
  },
  {
    "name": "residential",
    "category": "highway",
    "subcategory": "residential",
    "latitude": 31.6083931,
    "longitude": 74.4783857,
    "id": 612366671
  },
  {
    "name": "residential",
    "category": "highway",
    "subcategory": "residential",
    "latitude": 31.606605000000002,
    "longitude": 74.47869345,
    "id": 612366672
  },
  {
    "name": "residential",
    "category": "highway",
    "subcategory": "residential",
    "latitude": 31.609758499999998,
    "longitude": 74.47767418,
    "id": 612366673
  },
  {
    "name": "residential",
    "category": "highway",
    "subcategory": "residential",
    "latitude": 31.606594640000004,
    "longitude": 74.47826164,
    "id": 612366675
  },
  {
    "name": "residential",
    "category": "highway",
    "subcategory": "residential",
    "latitude": 31.60791736,
    "longitude": 74.4778527,
    "id": 612366676
  },
  {
    "name": "residential",
    "category": "highway",
    "subcategory": "residential",
    "latitude": 31.605966619999997,
    "longitude": 74.4782502,
    "id": 612366677
  },
  {
    "name": "residential",
    "category": "highway",
    "subcategory": "residential",
    "latitude": 31.60565974,
    "longitude": 74.47891184,
    "id": 612366679
  },
  {
    "name": "residential",
    "category": "highway",
    "subcategory": "residential",
    "latitude": 31.60530765,
    "longitude": 74.4786229,
    "id": 612366680
  },
  {
    "name": "residential",
    "category": "highway",
    "subcategory": "residential",
    "latitude": 31.60873155,
    "longitude": 74.477982725,
    "id": 612366681
  },
  {
    "name": "residential",
    "category": "highway",
    "subcategory": "residential",
    "latitude": 31.60640053448276,
    "longitude": 74.47884975862068,
    "id": 612366682
  },
  {
    "name": "residential",
    "category": "highway",
    "subcategory": "residential",
    "latitude": 31.60498576666667,
    "longitude": 74.47920806666667,
    "id": 612366683
  },
  {
    "name": "residential",
    "category": "highway",
    "subcategory": "residential",
    "latitude": 31.60991223,
    "longitude": 74.47872236999999,
    "id": 612366684
  },
  {
    "name": "residential",
    "category": "highway",
    "subcategory": "residential",
    "latitude": 31.606292800000002,
    "longitude": 74.47747516666666,
    "id": 612366685
  },
  {
    "name": "residential",
    "category": "highway",
    "subcategory": "residential",
    "latitude": 31.6045798,
    "longitude": 74.47909073999999,
    "id": 612366686
  },
  {
    "name": "residential",
    "category": "highway",
    "subcategory": "residential",
    "latitude": 31.60411053333333,
    "longitude": 74.4788128,
    "id": 612366687
  },
  {
    "name": "residential",
    "category": "highway",
    "subcategory": "residential",
    "latitude": 31.603649766666667,
    "longitude": 74.47914943333333,
    "id": 612366688
  },
  {
    "name": "residential",
    "category": "highway",
    "subcategory": "residential",
    "latitude": 31.60363655,
    "longitude": 74.4783603,
    "id": 612366689
  },
  {
    "name": "residential",
    "category": "highway",
    "subcategory": "residential",
    "latitude": 31.603633180000003,
    "longitude": 74.4775705,
    "id": 612366690
  },
  {
    "name": "residential",
    "category": "highway",
    "subcategory": "residential",
    "latitude": 31.603182025000002,
    "longitude": 74.478602475,
    "id": 612366691
  },
  {
    "name": "residential",
    "category": "highway",
    "subcategory": "residential",
    "latitude": 31.60271512,
    "longitude": 74.4791111,
    "id": 612366693
  },
  {
    "name": "residential",
    "category": "highway",
    "subcategory": "residential",
    "latitude": 31.603654875,
    "longitude": 74.479729775,
    "id": 612366695
  },
  {
    "name": "residential",
    "category": "highway",
    "subcategory": "residential",
    "latitude": 31.6022984,
    "longitude": 74.47872914999999,
    "id": 612366697
  },
  {
    "name": "residential",
    "category": "highway",
    "subcategory": "residential",
    "latitude": 31.601970366666666,
    "longitude": 74.47990236666666,
    "id": 612366698
  },
  {
    "name": "residential",
    "category": "highway",
    "subcategory": "residential",
    "latitude": 31.602456566666664,
    "longitude": 74.48080253333333,
    "id": 612366700
  },
  {
    "name": "residential",
    "category": "highway",
    "subcategory": "residential",
    "latitude": 31.607230845454545,
    "longitude": 74.48025286181819,
    "id": 612366704
  },
  {
    "name": "residential",
    "category": "highway",
    "subcategory": "residential",
    "latitude": 31.6019477,
    "longitude": 74.47933015000001,
    "id": 612366706
  },
  {
    "name": "residential",
    "category": "highway",
    "subcategory": "residential",
    "latitude": 31.599744366666666,
    "longitude": 74.47343306666666,
    "id": 612367180
  },
  {
    "name": "residential",
    "category": "highway",
    "subcategory": "residential",
    "latitude": 31.597228327272727,
    "longitude": 74.47471165909091,
    "id": 612367181
  },
  {
    "name": "residential",
    "category": "highway",
    "subcategory": "residential",
    "latitude": 31.602936622222224,
    "longitude": 74.4755259388889,
    "id": 612367182
  },
  {
    "name": "residential",
    "category": "highway",
    "subcategory": "residential",
    "latitude": 31.60288493125,
    "longitude": 74.4722381375,
    "id": 612367183
  },
  {
    "name": "residential",
    "category": "highway",
    "subcategory": "residential",
    "latitude": 31.579806150000003,
    "longitude": 74.45275775,
    "id": 654551653
  },
  {
    "name": "residential",
    "category": "highway",
    "subcategory": "residential",
    "latitude": 31.5782654,
    "longitude": 74.45396505,
    "id": 654551654
  },
  {
    "name": "residential",
    "category": "highway",
    "subcategory": "residential",
    "latitude": 31.578327057142854,
    "longitude": 74.45120061428572,
    "id": 654551655
  },
  {
    "name": "residential",
    "category": "highway",
    "subcategory": "residential",
    "latitude": 31.5787384,
    "longitude": 74.4525162,
    "id": 654551656
  },
  {
    "name": "residential",
    "category": "highway",
    "subcategory": "residential",
    "latitude": 31.578838159999997,
    "longitude": 74.4514879,
    "id": 654551657
  },
  {
    "name": "residential",
    "category": "highway",
    "subcategory": "residential",
    "latitude": 31.583536168000002,
    "longitude": 74.453248788,
    "id": 654551659
  },
  {
    "name": "residential",
    "category": "highway",
    "subcategory": "residential",
    "latitude": 31.581194936363637,
    "longitude": 74.45312552727272,
    "id": 654551660
  },
  {
    "name": "residential",
    "category": "highway",
    "subcategory": "residential",
    "latitude": 31.5825402,
    "longitude": 74.45229975000001,
    "id": 654551661
  },