[
  {
    "name": "Bukhara Patrol Pump Gambat",
    "category": "amenity",
    "subcategory": "fuel",
    "latitude": 27.3288336,
    "longitude": 68.5259874,
    "id": 2523205015
  },
  {
    "name": "Hascol Petrol And Cng Station",
    "category": "amenity",
    "subcategory": "fuel",
    "latitude": 27.3259452,
    "longitude": 68.5258876,
    "id": 2523260643
  },
  {
    "name": "Gambat Hospital",
    "category": "amenity",
    "subcategory": "hospital",
    "latitude": 27.3449727,
    "longitude": 68.5222674,
    "id": 4959486414
  },
  {
    "name": "Royal Inn Hotel & Restaurant",
    "category": "amenity",
    "subcategory": "restaurant",
    "latitude": 27.3405743,
    "longitude": 68.5312327,
    "id": 5255460685
  },
  {
    "name": "Taj Mahal Hotel & Restaurant",
    "category": "amenity",
    "subcategory": "restaurant",
    "latitude": 27.3425046,
    "longitude": 68.5317707,
    "id": 5255460686
  },
  {
    "name": "B H Foods",
    "category": "amenity",
    "subcategory": "restaurant",
    "latitude": 27.3459093,
    "longitude": 68.5341365,
    "id": 5255460694
  },
  {
    "name": "Gambat",
    "category": "amenity",
    "subcategory": "restaurant",
    "latitude": 27.3471662,
    "longitude": 68.5343887,
    "id": 5255460695
  },
  {
    "name": "Al Noor CNG Station",
    "category": "amenity",
    "subcategory": "fuel",
    "latitude": 27.3472201,
    "longitude": 68.5337068,
    "id": 5255460696
  },
  {
    "name": "Q Mobile Customer Care Gambat",
    "category": "shop",
    "subcategory": "electronics",
    "latitude": 27.3479394,
    "longitude": 68.5320244,
    "id": 5255460697
  },
  {
    "name": "Al Noor super store",
    "category": "shop",
    "subcategory": "supermarket",
    "latitude": 27.3474714,
    "longitude": 68.5335587,
    "id": 5255460698
  },
  {
    "name": "Sindh petroleum service Attock Gambat",
    "category": "amenity",
    "subcategory": "fuel",
    "latitude": 27.3486044,
    "longitude": 68.5312726,
    "id": 5255460699
  },
  {
    "name": "ایم سی بی بینک",
    "category": "amenity",
    "subcategory": "bank",
    "latitude": 27.3481857,
    "longitude": 68.5338299,
    "id": 5255460700
  },
  {
    "name": "Afzal Petroleum Service",
    "category": "amenity",
    "subcategory": "fuel",
    "latitude": 27.3489097,
    "longitude": 68.5346305,
    "id": 5255507580
  },
  {
    "name": "Noorani Hotel",
    "category": "amenity",
    "subcategory": "restaurant",
    "latitude": 27.3494779,
    "longitude": 68.5339349,
    "id": 5255507589
  },
  {
    "name": "Sajid Fuelling Station Byco Gambat",
    "category": "amenity",
    "subcategory": "fuel",
    "latitude": 27.3507554,
    "longitude": 68.5340237,
    "id": 5255507590
  },
  {
    "name": "Keenjhar Hotel And Guest House Khairpur",
    "category": "tourism",
    "subcategory": "guest_house",
    "latitude": 27.3535345,
    "longitude": 68.5349203,
    "id": 5255507591
  },
  {
    "name": "Talha Banquet",
    "category": "amenity",
    "subcategory": "community_centre",
    "latitude": 27.3553139,
    "longitude": 68.5343552,
    "id": 5255507592
  },
  {
    "name": "Qalandry Mahar Hotel",
    "category": "amenity",
    "subcategory": "restaurant",
    "latitude": 27.3579394,
    "longitude": 68.5345514,
    "id": 5255507599
  },
  {
    "name": "Chaat mehal",
    "category": "amenity",
    "subcategory": "restaurant",
    "latitude": 27.3509029,
    "longitude": 68.5264282,
    "id": 5255507602
  },
  {
    "name": "Gambat Institute Of Medical Sciences",
    "category": "amenity",
    "subcategory": "university",
    "latitude": 27.3501736,
    "longitude": 68.5259185,
    "id": 5255507603
  },
  {
    "name": "Akhtar Petrol Pump Gambat",
    "category": "amenity",
    "subcategory": "fuel",
    "latitude": 27.3512236,
    "longitude": 68.5245949,
    "id": 5255507604
  },
  {
    "name": "Askari Fuels",
    "category": "amenity",
    "subcategory": "fuel",
    "latitude": 27.3516511,
    "longitude": 68.534087,
    "id": 5255507605
  },
  {
    "name": "Bolan Petroleum Service",
    "category": "amenity",
    "subcategory": "fuel",
    "latitude": 27.3494251,
    "longitude": 68.5289345,
    "id": 5255507612
  },
  {
    "name": "GAMBAT CITY PETROLEUM SERVICE Total Petrol Station",
    "category": "amenity",
    "subcategory": "fuel",
    "latitude": 27.35006,
    "longitude": 68.5279054,
    "id": 5255507614
  },
  {
    "name": "Sindh Bank Gambat",
    "category": "amenity",
    "subcategory": "bank",
    "latitude": 27.3517881,
    "longitude": 68.5249222,
    "id": 5255507615
  },
  {
    "name": "Al Rehman Midway Restaurant",
    "category": "amenity",
    "subcategory": "restaurant",
    "latitude": 27.3522741,
    "longitude": 68.5241283,
    "id": 5255507616
  },
  {
    "name": "New sindh communication Gambat",
    "category": "shop",
    "subcategory": "electronics",
    "latitude": 27.3530174,
    "longitude": 68.5236938,
    "id": 5255507618
  },
  {
    "name": "Masjid E Quba Gambat",
    "category": "amenity",
    "subcategory": "place_of_worship",
    "latitude": 27.3500776,
    "longitude": 68.5232914,
    "id": 5255507620
  },
  {
    "name": "Dr Khursheed Sheikh Hospital",
    "category": "amenity",
    "subcategory": "hospital",
    "latitude": 27.3514482,
    "longitude": 68.521126,
    "id": 5255508530
  },
  {
    "name": "Ever shine college gambat",
    "category": "amenity",
    "subcategory": "school",
    "latitude": 27.3524475,
    "longitude": 68.5205933,
    "id": 5255508531
  },
  {
    "name": "Rahmani Masjid",
    "category": "amenity",
    "subcategory": "place_of_worship",
    "latitude": 27.3542643,
    "longitude": 68.5207895,
    "id": 5255508532
  },
  {
    "name": "Noorani Masjid O Madarsah",
    "category": "amenity",
    "subcategory": "place_of_worship",
    "latitude": 27.3540942,
    "longitude": 68.5204859,
    "id": 5255508533
  },
  {
    "name": "Government Murad High School Play Ground",
    "category": "leisure",
    "subcategory": "playground",
    "latitude": 27.3551063,
    "longitude": 68.5198461,
    "id": 5255508535
  },
  {
    "name": "Isra Medical Center",
    "category": "amenity",
    "subcategory": "hospital",
    "latitude": 27.356916,
    "longitude": 68.5203983,
    "id": 5255508536
  },
  {
    "name": "تھانہ",
    "category": "amenity",
    "subcategory": "police",
    "latitude": 27.3557276,
    "longitude": 68.517756,
    "id": 5255508537
  },
  {
    "name": "Eye Hospital",
    "category": "amenity",
    "subcategory": "hospital",
    "latitude": 27.3486438,
    "longitude": 68.5245969,
    "id": 5255508538
  },
  {
    "name": "Dargah Ghousia Hazrat Muhammad Shah Baghdadi",
    "category": "amenity",
    "subcategory": "place_of_worship",
    "latitude": 27.3471675,
    "longitude": 68.5183053,
    "id": 5255508539
  },
  {
    "name": "llahi Bux Sweets Gambat khuhra",
    "category": "shop",
    "subcategory": "bakery",
    "latitude": 27.3536992,
    "longitude": 68.5272567,
    "id": 5255508540
  },
  {
    "name": "Taj Mahal Restaurant",
    "category": "amenity",
    "subcategory": "restaurant",
    "latitude": 27.3677114,
    "longitude": 68.5378267,
    "id": 5255558474
  }
]